{
  "stop_times": [
    {
      "delay": null,
      "departure_time": "03:59:00",
      "old": false,
      "stop_lat": 50.013101,
      "stop_lon": 19.927021,
      "stop_name": "Borek Fałęcki",
      "stop_num": "01",
      "stop_sequence": 2,
      "stopping": false,
      "time": null,
      "trip_id": "block_149_trip_1_service_5",
      "trip_num": 1
    },
    {
      "delay": null,
      "departure_time": "04:30:00",
      "old": false,
      "stop_lat": 50.014546,
      "stop_lon": 19.927822,
      "stop_name": "Solvay",
      "stop_num": "02",
      "stop_sequence": 2,
      "stopping": false,
      "time": null,
      "trip_id": "block_149_trip_2_service_5",
      "trip_num": 2
    },
    {
      "delay": null,
      "departure_time": "04:31:00",
      "old": false,
      "stop_lat": 50.015661,
      "stop_lon": 19.929342,
      "stop_name": "Kościuszkowców",
      "stop_num": "02",
      "stop_sequence": 3,
      "stopping": false,
      "time": null,
      "trip_id": "block_149_trip_2_service_5",
      "trip_num": 2
    },
    {
      "delay": null,
      "departure_time": "04:33:00",
      "old": false,
      "stop_lat": 50.02111,
      "stop_lon": 19.93288,
      "stop_name": "Łagiewniki SKA",
      "stop_num": "03",
      "stop_sequence": 4,
      "stopping": false,
      "time": null,
      "trip_id": "block_149_trip_2_service_5",
      "trip_num": 2
    },
    {
      "delay": null,
      "departure_time": "04:34:00",
      "old": false,
      "stop_lat": 50.01777,
      "stop_lon": 19.93626,
      "stop_name": "Sanktuarium Bożego Miłosierdzia",
      "stop_num": "01",
      "stop_sequence": 5,
      "stopping": false,
      "time": null,
      "trip_id": "block_149_trip_2_service_5",
      "trip_num": 2
    },
    {
      "delay": null,
      "departure_time": "04:36:00",
      "old": false,
      "stop_lat": 50.01506,
      "stop_lon": 19.94439,
      "stop_name": "Turowicza",
      "stop_num": "01",
      "stop_sequence": 6,
      "stopping": false,
      "time": null,
      "trip_id": "block_149_trip_2_service_5",
      "trip_num": 2
    },
    {
      "delay": null,
      "departure_time": "04:37:00",
      "old": false,
      "stop_lat": 50.01407,
      "stop_lon": 19.94809,
      "stop_name": "Kurdwanów P+R",
      "stop_num": "08",
      "stop_sequence": 7,
      "stopping": false,
      "time": null,
      "trip_id": "block_149_trip_2_service_5",
      "trip_num": 2
    },
    {
      "delay": null,
      "departure_time": "05:02:00",
      "old": false,
      "stop_lat": 50.01407,
      "stop_lon": 19.94809,
      "stop_name": "Kurdwanów P+R",
      "stop_num": "08",
      "stop_sequence": 1,
      "stopping": false,
      "time": null,
      "trip_id": "block_149_trip_3_service_5",
      "trip_num": 3
    },
    {
      "delay": null,
      "departure_time": "05:03:00",
      "old": false,
      "stop_lat": 50.01511,
      "stop_lon": 19.94435,
      "stop_name": "Turowicza",
      "stop_num": "02",
      "stop_sequence": 2,
      "stopping": false,
      "time": null,
      "trip_id": "block_149_trip_3_service_5",
      "trip_num": 3
    },
    {
      "delay": null,
      "departure_time": "05:05:00",
      "old": false,
      "stop_lat": 50.01779,
      "stop_lon": 19.93633,
      "stop_name": "Sanktuarium Bożego Miłosierdzia",
      "stop_num": "02",
      "stop_sequence": 3,
      "stopping": false,
      "time": null,
      "trip_id": "block_149_trip_3_service_5",
      "trip_num": 3
    },
    {
      "delay": null,
      "departure_time": "05:07:00",
      "old": false,
      "stop_lat": 50.022103,
      "stop_lon": 19.932601,
      "stop_name": "Łagiewniki SKA",
      "stop_num": "02",
      "stop_sequence": 4,
      "stopping": false,
      "time": null,
      "trip_id": "block_149_trip_3_service_5",
      "trip_num": 3
    },
    {
      "delay": null,
      "departure_time": "05:10:00",
      "old": false,
      "stop_lat": 50.030486,
      "stop_lon": 19.937053,
      "stop_name": "Łagiewniki",
      "stop_num": "02",
      "stop_sequence": 5,
      "stopping": false,
      "time": null,
      "trip_id": "block_149_trip_3_service_5",
      "trip_num": 3
    },
    {
      "delay": null,
      "departure_time": "05:11:00",
      "old": false,
      "stop_lat": 50.03295,
      "stop_lon": 19.938389,
      "stop_name": "Rzemieślnicza",
      "stop_num": "02",
      "stop_sequence": 6,
      "stopping": false,
      "time": null,
      "trip_id": "block_149_trip_3_service_5",
      "trip_num": 3
    },
    {
      "delay": null,
      "departure_time": "05:12:00",
      "old": false,
      "stop_lat": 50.035927,
      "stop_lon": 19.940363,
      "stop_name": "Rondo Matecznego",
      "stop_num": "02",
      "stop_sequence": 7,
      "stopping": false,
      "time": null,
      "trip_id": "block_149_trip_3_service_5",
      "trip_num": 3
    },
    {
      "delay": null,
      "departure_time": "05:13:00",
      "old": false,
      "stop_lat": 50.041629,
      "stop_lon": 19.943262,
      "stop_name": "Smolki",
      "stop_num": "02",
      "stop_sequence": 8,
      "stopping": false,
      "time": null,
      "trip_id": "block_149_trip_3_service_5",
      "trip_num": 3
    },
    {
      "delay": null,
      "departure_time": "05:15:00",
      "old": false,
      "stop_lat": 50.043604,
      "stop_lon": 19.946683,
      "stop_name": "Korona",
      "stop_num": "01",
      "stop_sequence": 9,
      "stopping": false,
      "time": null,
      "trip_id": "block_149_trip_3_service_5",
      "trip_num": 3
    },
    {
      "delay": null,
      "departure_time": "05:17:00",
      "old": false,
      "stop_lat": 50.048114,
      "stop_lon": 19.943448,
      "stop_name": "Plac Wolnica",
      "stop_num": "02",
      "stop_sequence": 10,
      "stopping": false,
      "time": null,
      "trip_id": "block_149_trip_3_service_5",
      "trip_num": 3
    },
    {
      "delay": null,
      "departure_time": "05:19:00",
      "old": false,
      "stop_lat": 50.050842,
      "stop_lon": 19.942415,
      "stop_name": "Stradom",
      "stop_num": "04",
      "stop_sequence": 11,
      "stopping": false,
      "time": null,
      "trip_id": "block_149_trip_3_service_5",
      "trip_num": 3
    },
    {
      "delay": null,
      "departure_time": "05:22:00",
      "old": false,
      "stop_lat": 50.057227,
      "stop_lon": 19.946086,
      "stop_name": "Starowiślna",
      "stop_num": "03",
      "stop_sequence": 12,
      "stopping": false,
      "time": null,
      "trip_id": "block_149_trip_3_service_5",
      "trip_num": 3
    },
    {
      "delay": null,
      "departure_time": "05:23:00",
      "old": false,
      "stop_lat": 50.058639,
      "stop_lon": 19.948875,
      "stop_name": "Hala Targowa",
      "stop_num": "01",
      "stop_sequence": 13,
      "stopping": false,
      "time": null,
      "trip_id": "block_149_trip_3_service_5",
      "trip_num": 3
    },
    {
      "delay": null,
      "departure_time": "05:26:00",
      "old": false,
      "stop_lat": 50.058426,
      "stop_lon": 19.959244,
      "stop_name": "Rondo Grzegórzeckie",
      "stop_num": "03",
      "stop_sequence": 14,
      "stopping": false,
      "time": null,
      "trip_id": "block_149_trip_3_service_5",
      "trip_num": 3
    },
    {
      "delay": null,
      "departure_time": "05:28:00",
      "old": false,
      "stop_lat": 50.065759,
      "stop_lon": 19.959864,
      "stop_name": "Rondo Mogilskie",
      "stop_num": "02",
      "stop_sequence": 15,
      "stopping": false,
      "time": null,
      "trip_id": "block_149_trip_3_service_5",
      "trip_num": 3
    },
    {
      "delay": null,
      "departure_time": "05:29:00",
      "old": false,
      "stop_lat": 50.066523,
      "stop_lon": 19.970519,
      "stop_name": "Cystersów",
      "stop_num": "01",
      "stop_sequence": 16,
      "stopping": false,
      "time": null,
      "trip_id": "block_149_trip_3_service_5",
      "trip_num": 3
    },
    {
      "delay": null,
      "departure_time": "05:31:00",
      "old": false,
      "stop_lat": 50.067841,
      "stop_lon": 19.977991,
      "stop_name": "Białucha",
      "stop_num": "01",
      "stop_sequence": 17,
      "stopping": false,
      "time": null,
      "trip_id": "block_149_trip_3_service_5",
      "trip_num": 3
    },
    {
      "delay": null,
      "departure_time": "05:34:00",
      "old": false,
      "stop_lat": 50.07352,
      "stop_lon": 19.990472,
      "stop_name": "Muzeum Lotnictwa Polskiego",
      "stop_num": "01",
      "stop_sequence": 18,
      "stopping": false,
      "time": null,
      "trip_id": "block_149_trip_3_service_5",
      "trip_num": 3
    },
    {
      "delay": null,
      "departure_time": "05:35:00",
      "old": false,
      "stop_lat": 50.073967,
      "stop_lon": 19.99881,
      "stop_name": "AKF / PK",
      "stop_num": "01",
      "stop_sequence": 19,
      "stopping": false,
      "time": null,
      "trip_id": "block_149_trip_3_service_5",
      "trip_num": 3
    },
    {
      "delay": null,
      "departure_time": "05:37:00",
      "old": false,
      "stop_lat": 50.074273,
      "stop_lon": 20.004747,
      "stop_name": "Stella-Sawickiego",
      "stop_num": "01",
      "stop_sequence": 20,
      "stopping": false,
      "time": null,
      "trip_id": "block_149_trip_3_service_5",
      "trip_num": 3
    },
    {
      "delay": null,
      "departure_time": "05:38:00",
      "old": false,
      "stop_lat": 50.07399,
      "stop_lon": 20.011459,
      "stop_name": "Czyżyny",
      "stop_num": "01",
      "stop_sequence": 21,
      "stopping": false,
      "time": null,
      "trip_id": "block_149_trip_3_service_5",
      "trip_num": 3
    },
    {
      "delay": null,
      "departure_time": "05:41:00",
      "old": false,
      "stop_lat": 50.0733,
      "stop_lon": 20.01888,
      "stop_name": "Rondo Czyżyńskie",
      "stop_num": "01",
      "stop_sequence": 22,
      "stopping": false,
      "time": null,
      "trip_id": "block_149_trip_3_service_5",
      "trip_num": 3
    },
    {
      "delay": null,
      "departure_time": "05:42:00",
      "old": false,
      "stop_lat": 50.072198,
      "stop_lon": 20.0298,
      "stop_name": "Os. Kolorowe",
      "stop_num": "01",
      "stop_sequence": 23,
      "stopping": false,
      "time": null,
      "trip_id": "block_149_trip_3_service_5",
      "trip_num": 3
    },
    {
      "delay": null,
      "departure_time": "05:45:00",
      "old": false,
      "stop_lat": 50.071283,
      "stop_lon": 20.038494,
      "stop_name": "Plac Centralny im. R.Reagana",
      "stop_num": "04",
      "stop_sequence": 24,
      "stopping": false,
      "time": null,
      "trip_id": "block_149_trip_3_service_5",
      "trip_num": 3
    },
    {
      "delay": null,
      "departure_time": "05:46:00",
      "old": false,
      "stop_lat": 50.069813,
      "stop_lon": 20.045465,
      "stop_name": "Os. Na Skarpie",
      "stop_num": "01",
      "stop_sequence": 25,
      "stopping": false,
      "time": null,
      "trip_id": "block_149_trip_3_service_5",
      "trip_num": 3
    },
    {
      "delay": null,
      "departure_time": "05:48:00",
      "old": false,
      "stop_lat": 50.068607,
      "stop_lon": 20.052165,
      "stop_name": "Klasztorna",
      "stop_num": "01",
      "stop_sequence": 26,
      "stopping": false,
      "time": null,
      "trip_id": "block_149_trip_3_service_5",
      "trip_num": 3
    },
    {
      "delay": null,
      "departure_time": "05:49:00",
      "old": false,
      "stop_lat": 50.067467,
      "stop_lon": 20.060033,
      "stop_name": "Suche Stawy",
      "stop_num": "01",
      "stop_sequence": 27,
      "stopping": false,
      "time": null,
      "trip_id": "block_149_trip_3_service_5",
      "trip_num": 3
    },
    {
      "delay": null,
      "departure_time": "05:50:00",
      "old": false,
      "stop_lat": 50.067743,
      "stop_lon": 20.064949,
      "stop_name": "Bardosa",
      "stop_num": "01",
      "stop_sequence": 28,
      "stopping": false,
      "time": null,
      "trip_id": "block_149_trip_3_service_5",
      "trip_num": 3
    },
    {
      "delay": null,
      "departure_time": "05:52:00",
      "old": false,
      "stop_lat": 50.066659,
      "stop_lon": 20.070794,
      "stop_name": "Fort Mogiła (nż)",
      "stop_num": "01",
      "stop_sequence": 29,
      "stopping": false,
      "time": null,
      "trip_id": "block_149_trip_3_service_5",
      "trip_num": 3
    },
    {
      "delay": null,
      "departure_time": "05:53:00",
      "old": false,
      "stop_lat": 50.064955,
      "stop_lon": 20.074756,
      "stop_name": "Brama nr 4 (nż)",
      "stop_num": "01",
      "stop_sequence": 30,
      "stopping": false,
      "time": null,
      "trip_id": "block_149_trip_3_service_5",
      "trip_num": 3
    },
    {
      "delay": null,
      "departure_time": "05:54:00",
      "old": false,
      "stop_lat": 50.06462,
      "stop_lon": 20.08447,
      "stop_name": "Giedroycia (nż)",
      "stop_num": "01",
      "stop_sequence": 31,
      "stopping": false,
      "time": null,
      "trip_id": "block_149_trip_3_service_5",
      "trip_num": 3
    },
    {
      "delay": null,
      "departure_time": "05:55:00",
      "old": false,
      "stop_lat": 50.069176,
      "stop_lon": 20.09178,
      "stop_name": "Brama nr 5 (nż)",
      "stop_num": "01",
      "stop_sequence": 32,
      "stopping": false,
      "time": null,
      "trip_id": "block_149_trip_3_service_5",
      "trip_num": 3
    },
    {
      "delay": null,
      "departure_time": "05:56:00",
      "old": false,
      "stop_lat": 50.069815,
      "stop_lon": 20.09469,
      "stop_name": "Meksyk (nż)",
      "stop_num": "01",
      "stop_sequence": 33,
      "stopping": false,
      "time": null,
      "trip_id": "block_149_trip_3_service_5",
      "trip_num": 3
    },
    {
      "delay": null,
      "departure_time": "05:57:00",
      "old": false,
      "stop_lat": 50.071926,
      "stop_lon": 20.104695,
      "stop_name": "Koksochemia (nż)",
      "stop_num": "01",
      "stop_sequence": 34,
      "stopping": false,
      "time": null,
      "trip_id": "block_149_trip_3_service_5",
      "trip_num": 3
    },
    {
      "delay": null,
      "departure_time": "05:59:00",
      "old": false,
      "stop_lat": 50.072893,
      "stop_lon": 20.11689,
      "stop_name": "Pleszów",
      "stop_num": "01",
      "stop_sequence": 35,
      "stopping": false,
      "time": null,
      "trip_id": "block_149_trip_3_service_5",
      "trip_num": 3
    },
    {
      "delay": null,
      "departure_time": "06:22:00",
      "old": false,
      "stop_lat": 50.072893,
      "stop_lon": 20.11689,
      "stop_name": "Pleszów",
      "stop_num": "01",
      "stop_sequence": 1,
      "stopping": false,
      "time": null,
      "trip_id": "block_149_trip_4_service_5",
      "trip_num": 4
    },
    {
      "delay": null,
      "departure_time": "06:23:00",
      "old": false,
      "stop_lat": 50.071926,
      "stop_lon": 20.104459,
      "stop_name": "Koksochemia (nż)",
      "stop_num": "02",
      "stop_sequence": 2,
      "stopping": false,
      "time": null,
      "trip_id": "block_149_trip_4_service_5",
      "trip_num": 4
    },
    {
      "delay": null,
      "departure_time": "06:24:00",
      "old": false,
      "stop_lat": 50.069892,
      "stop_lon": 20.095243,
      "stop_name": "Meksyk (nż)",
      "stop_num": "02",
      "stop_sequence": 3,
      "stopping": false,
      "time": null,
      "trip_id": "block_149_trip_4_service_5",
      "trip_num": 4
    },
    {
      "delay": null,
      "departure_time": "06:25:00",
      "old": false,
      "stop_lat": 50.069071,
      "stop_lon": 20.091584,
      "stop_name": "Brama nr 5 (nż)",
      "stop_num": "02",
      "stop_sequence": 4,
      "stopping": false,
      "time": null,
      "trip_id": "block_149_trip_4_service_5",
      "trip_num": 4
    },
    {
      "delay": null,
      "departure_time": "06:26:00",
      "old": false,
      "stop_lat": 50.06473,
      "stop_lon": 20.08479,
      "stop_name": "Giedroycia (nż)",
      "stop_num": "02",
      "stop_sequence": 5,
      "stopping": false,
      "time": null,
      "trip_id": "block_149_trip_4_service_5",
      "trip_num": 4
    },
    {
      "delay": null,
      "departure_time": "06:27:00",
      "old": false,
      "stop_lat": 50.064899,
      "stop_lon": 20.075212,
      "stop_name": "Brama nr 4 (nż)",
      "stop_num": "02",
      "stop_sequence": 6,
      "stopping": false,
      "time": null,
      "trip_id": "block_149_trip_4_service_5",
      "trip_num": 4
    },
    {
      "delay": null,
      "departure_time": "06:28:00",
      "old": false,
      "stop_lat": 50.066394,
      "stop_lon": 20.071325,
      "stop_name": "Fort Mogiła (nż)",
      "stop_num": "02",
      "stop_sequence": 7,
      "stopping": false,
      "time": null,
      "trip_id": "block_149_trip_4_service_5",
      "trip_num": 4
    },
    {
      "delay": null,
      "departure_time": "06:30:00",
      "old": false,
      "stop_lat": 50.067772,
      "stop_lon": 20.064912,
      "stop_name": "Bardosa",
      "stop_num": "02",
      "stop_sequence": 8,
      "stopping": false,
      "time": null,
      "trip_id": "block_149_trip_4_service_5",
      "trip_num": 4
    },
    {
      "delay": null,
      "departure_time": "06:31:00",
      "old": false,
      "stop_lat": 50.067515,
      "stop_lon": 20.059695,
      "stop_name": "Suche Stawy",
      "stop_num": "02",
      "stop_sequence": 9,
      "stopping": false,
      "time": null,
      "trip_id": "block_149_trip_4_service_5",
      "trip_num": 4
    },
    {
      "delay": null,
      "departure_time": "06:32:00",
      "old": false,
      "stop_lat": 50.068478,
      "stop_lon": 20.053009,
      "stop_name": "Klasztorna",
      "stop_num": "02",
      "stop_sequence": 10,
      "stopping": false,
      "time": null,
      "trip_id": "block_149_trip_4_service_5",
      "trip_num": 4
    },
    {
      "delay": null,
      "departure_time": "06:33:00",
      "old": false,
      "stop_lat": 50.069704,
      "stop_lon": 20.046218,
      "stop_name": "Os. Na Skarpie",
      "stop_num": "02",
      "stop_sequence": 11,
      "stopping": false,
      "time": null,
      "trip_id": "block_149_trip_4_service_5",
      "trip_num": 4
    },
    {
      "delay": null,
      "departure_time": "06:36:00",
      "old": false,
      "stop_lat": 50.071704,
      "stop_lon": 20.035631,
      "stop_name": "Plac Centralny im. R.Reagana",
      "stop_num": "01",
      "stop_sequence": 12,
      "stopping": false,
      "time": null,
      "trip_id": "block_149_trip_4_service_5",
      "trip_num": 4
    },
    {
      "delay": null,
      "departure_time": "06:37:00",
      "old": false,
      "stop_lat": 50.072371,
      "stop_lon": 20.028517,
      "stop_name": "Os. Kolorowe",
      "stop_num": "02",
      "stop_sequence": 13,
      "stopping": false,
      "time": null,
      "trip_id": "block_149_trip_4_service_5",
      "trip_num": 4
    },
    {
      "delay": null,
      "departure_time": "06:40:00",
      "old": false,
      "stop_lat": 50.07358,
      "stop_lon": 20.01606,
      "stop_name": "Rondo Czyżyńskie",
      "stop_num": "02",
      "stop_sequence": 14,
      "stopping": false,
      "time": null,
      "trip_id": "block_149_trip_4_service_5",
      "trip_num": 4
    },
    {
      "delay": null,
      "departure_time": "06:41:00",
      "old": false,
      "stop_lat": 50.074038,
      "stop_lon": 20.011272,
      "stop_name": "Czyżyny",
      "stop_num": "02",
      "stop_sequence": 15,
      "stopping": false,
      "time": null,
      "trip_id": "block_149_trip_4_service_5",
      "trip_num": 4
    },
    {
      "delay": null,
      "departure_time": "06:42:00",
      "old": false,
      "stop_lat": 50.074302,
      "stop_lon": 20.00459,
      "stop_name": "Stella-Sawickiego",
      "stop_num": "02",
      "stop_sequence": 16,
      "stopping": false,
      "time": null,
      "trip_id": "block_149_trip_4_service_5",
      "trip_num": 4
    },
    {
      "delay": null,
      "departure_time": "06:43:00",
      "old": false,
      "stop_lat": 50.074015,
      "stop_lon": 19.998685,
      "stop_name": "AKF / PK",
      "stop_num": "02",
      "stop_sequence": 17,
      "stopping": false,
      "time": null,
      "trip_id": "block_149_trip_4_service_5",
      "trip_num": 4
    },
    {
      "delay": null,
      "departure_time": "06:44:00",
      "old": false,
      "stop_lat": 50.073539,
      "stop_lon": 19.990254,
      "stop_name": "Muzeum Lotnictwa Polskiego",
      "stop_num": "02",
      "stop_sequence": 18,
      "stopping": false,
      "time": null,
      "trip_id": "block_149_trip_4_service_5",
      "trip_num": 4
    },
    {
      "delay": null,
      "departure_time": "06:47:00",
      "old": false,
      "stop_lat": 50.067597,
      "stop_lon": 19.977192,
      "stop_name": "Białucha",
      "stop_num": "02",
      "stop_sequence": 19,
      "stopping": false,
      "time": null,
      "trip_id": "block_149_trip_4_service_5",
      "trip_num": 4
    },
    {
      "delay": null,
      "departure_time": "06:49:00",
      "old": false,
      "stop_lat": 50.06654,
      "stop_lon": 19.969149,
      "stop_name": "Cystersów",
      "stop_num": "02",
      "stop_sequence": 20,
      "stopping": false,
      "time": null,
      "trip_id": "block_149_trip_4_service_5",
      "trip_num": 4
    },
    {
      "delay": null,
      "departure_time": "06:51:00",
      "old": false,
      "stop_lat": 50.064865,
      "stop_lon": 19.959303,
      "stop_name": "Rondo Mogilskie",
      "stop_num": "03",
      "stop_sequence": 21,
      "stopping": false,
      "time": null,
      "trip_id": "block_149_trip_4_service_5",
      "trip_num": 4
    },
    {
      "delay": null,
      "departure_time": "06:54:00",
      "old": false,
      "stop_lat": 50.057558,
      "stop_lon": 19.957748,
      "stop_name": "Rondo Grzegórzeckie",
      "stop_num": "02",
      "stop_sequence": 22,
      "stopping": false,
      "time": null,
      "trip_id": "block_149_trip_4_service_5",
      "trip_num": 4
    },
    {
      "delay": null,
      "departure_time": "06:56:00",
      "old": false,
      "stop_lat": 50.058678,
      "stop_lon": 19.948657,
      "stop_name": "Hala Targowa",
      "stop_num": "02",
      "stop_sequence": 23,
      "stopping": false,
      "time": null,
      "trip_id": "block_149_trip_4_service_5",
      "trip_num": 4
    },
    {
      "delay": null,
      "departure_time": "06:57:00",
      "old": false,
      "stop_lat": 50.057262,
      "stop_lon": 19.946032,
      "stop_name": "Starowiślna",
      "stop_num": "04",
      "stop_sequence": 24,
      "stopping": false,
      "time": null,
      "trip_id": "block_149_trip_4_service_5",
      "trip_num": 4
    },
    {
      "delay": null,
      "departure_time": "06:59:00",
      "old": false,
      "stop_lat": 50.052258,
      "stop_lon": 19.942061,
      "stop_name": "Stradom",
      "stop_num": "03",
      "stop_sequence": 25,
      "stopping": false,
      "time": null,
      "trip_id": "block_149_trip_4_service_5",
      "trip_num": 4
    },
    {
      "delay": null,
      "departure_time": "07:01:00",
      "old": false,
      "stop_lat": 50.048028,
      "stop_lon": 19.943426,
      "stop_name": "Plac Wolnica",
      "stop_num": "01",
      "stop_sequence": 26,
      "stopping": false,
      "time": null,
      "trip_id": "block_149_trip_4_service_5",
      "trip_num": 4
    },
    {
      "delay": null,
      "departure_time": "07:03:00",
      "old": false,
      "stop_lat": 50.044032,
      "stop_lon": 19.94678,
      "stop_name": "Korona",
      "stop_num": "03",
      "stop_sequence": 27,
      "stopping": false,
      "time": null,
      "trip_id": "block_149_trip_4_service_5",
      "trip_num": 4
    },
    {
      "delay": null,
      "departure_time": "07:04:00",
      "old": false,
      "stop_lat": 50.041496,
      "stop_lon": 19.943119,
      "stop_name": "Smolki",
      "stop_num": "01",
      "stop_sequence": 28,
      "stopping": false,
      "time": null,
      "trip_id": "block_149_trip_4_service_5",
      "trip_num": 4
    },
    {
      "delay": null,
      "departure_time": "07:06:00",
      "old": false,
      "stop_lat": 50.036959,
      "stop_lon": 19.940795,
      "stop_name": "Rondo Matecznego",
      "stop_num": "01",
      "stop_sequence": 29,
      "stopping": false,
      "time": null,
      "trip_id": "block_149_trip_4_service_5",
      "trip_num": 4
    },
    {
      "delay": null,
      "departure_time": "07:08:00",
      "old": false,
      "stop_lat": 50.033644,
      "stop_lon": 19.938697,
      "stop_name": "Rzemieślnicza",
      "stop_num": "01",
      "stop_sequence": 30,
      "stopping": false,
      "time": null,
      "trip_id": "block_149_trip_4_service_5",
      "trip_num": 4
    },
    {
      "delay": null,
      "departure_time": "07:10:00",
      "old": false,
      "stop_lat": 50.030477,
      "stop_lon": 19.936964,
      "stop_name": "Łagiewniki",
      "stop_num": "01",
      "stop_sequence": 31,
      "stopping": false,
      "time": null,
      "trip_id": "block_149_trip_4_service_5",
      "trip_num": 4
    },
    {
      "delay": null,
      "departure_time": "07:12:00",
      "old": false,
      "stop_lat": 50.024577,
      "stop_lon": 19.933922,
      "stop_name": "Łagiewniki ZUS",
      "stop_num": "01",
      "stop_sequence": 32,
      "stopping": false,
      "time": null,
      "trip_id": "block_149_trip_4_service_5",
      "trip_num": 4
    },
    {
      "delay": null,
      "departure_time": "07:14:00",
      "old": false,
      "stop_lat": 50.02111,
      "stop_lon": 19.93288,
      "stop_name": "Łagiewniki SKA",
      "stop_num": "03",
      "stop_sequence": 33,
      "stopping": false,
      "time": null,
      "trip_id": "block_149_trip_4_service_5",
      "trip_num": 4
    },
    {
      "delay": null,
      "departure_time": "07:15:00",
      "old": false,
      "stop_lat": 50.01777,
      "stop_lon": 19.93626,
      "stop_name": "Sanktuarium Bożego Miłosierdzia",
      "stop_num": "01",
      "stop_sequence": 34,
      "stopping": false,
      "time": null,
      "trip_id": "block_149_trip_4_service_5",
      "trip_num": 4
    },
    {
      "delay": null,
      "departure_time": "07:17:00",
      "old": false,
      "stop_lat": 50.01506,
      "stop_lon": 19.94439,
      "stop_name": "Turowicza",
      "stop_num": "01",
      "stop_sequence": 35,
      "stopping": false,
      "time": null,
      "trip_id": "block_149_trip_4_service_5",
      "trip_num": 4
    },
    {
      "delay": null,
      "departure_time": "07:18:00",
      "old": false,
      "stop_lat": 50.01407,
      "stop_lon": 19.94809,
      "stop_name": "Kurdwanów P+R",
      "stop_num": "08",
      "stop_sequence": 36,
      "stopping": false,
      "time": null,
      "trip_id": "block_149_trip_4_service_5",
      "trip_num": 4
    },
    {
      "delay": null,
      "departure_time": "07:38:00",
      "old": false,
      "stop_lat": 50.01407,
      "stop_lon": 19.94809,
      "stop_name": "Kurdwanów P+R",
      "stop_num": "08",
      "stop_sequence": 1,
      "stopping": false,
      "time": null,
      "trip_id": "block_149_trip_5_service_5",
      "trip_num": 5
    },
    {
      "delay": null,
      "departure_time": "07:39:00",
      "old": false,
      "stop_lat": 50.01511,
      "stop_lon": 19.94435,
      "stop_name": "Turowicza",
      "stop_num": "02",
      "stop_sequence": 2,
      "stopping": false,
      "time": null,
      "trip_id": "block_149_trip_5_service_5",
      "trip_num": 5
    },
    {
      "delay": null,
      "departure_time": "07:41:00",
      "old": false,
      "stop_lat": 50.01779,
      "stop_lon": 19.93633,
      "stop_name": "Sanktuarium Bożego Miłosierdzia",
      "stop_num": "02",
      "stop_sequence": 3,
      "stopping": false,
      "time": null,
      "trip_id": "block_149_trip_5_service_5",
      "trip_num": 5
    },
    {
      "delay": null,
      "departure_time": "07:43:00",
      "old": false,
      "stop_lat": 50.022103,
      "stop_lon": 19.932601,
      "stop_name": "Łagiewniki SKA",
      "stop_num": "02",
      "stop_sequence": 4,
      "stopping": false,
      "time": null,
      "trip_id": "block_149_trip_5_service_5",
      "trip_num": 5
    },
    {
      "delay": null,
      "departure_time": "07:46:00",
      "old": false,
      "stop_lat": 50.030486,
      "stop_lon": 19.937053,
      "stop_name": "Łagiewniki",
      "stop_num": "02",
      "stop_sequence": 5,
      "stopping": false,
      "time": null,
      "trip_id": "block_149_trip_5_service_5",
      "trip_num": 5
    },
    {
      "delay": null,
      "departure_time": "07:47:00",
      "old": false,
      "stop_lat": 50.03295,
      "stop_lon": 19.938389,
      "stop_name": "Rzemieślnicza",
      "stop_num": "02",
      "stop_sequence": 6,
      "stopping": false,
      "time": null,
      "trip_id": "block_149_trip_5_service_5",
      "trip_num": 5
    },
    {
      "delay": null,
      "departure_time": "07:48:00",
      "old": false,
      "stop_lat": 50.035927,
      "stop_lon": 19.940363,
      "stop_name": "Rondo Matecznego",
      "stop_num": "02",
      "stop_sequence": 7,
      "stopping": false,
      "time": null,
      "trip_id": "block_149_trip_5_service_5",
      "trip_num": 5
    },
    {
      "delay": null,
      "departure_time": "07:49:00",
      "old": false,
      "stop_lat": 50.041629,
      "stop_lon": 19.943262,
      "stop_name": "Smolki",
      "stop_num": "02",
      "stop_sequence": 8,
      "stopping": false,
      "time": null,
      "trip_id": "block_149_trip_5_service_5",
      "trip_num": 5
    },
    {
      "delay": null,
      "departure_time": "07:51:00",
      "old": false,
      "stop_lat": 50.043604,
      "stop_lon": 19.946683,
      "stop_name": "Korona",
      "stop_num": "01",
      "stop_sequence": 9,
      "stopping": false,
      "time": null,
      "trip_id": "block_149_trip_5_service_5",
      "trip_num": 5
    },
    {
      "delay": null,
      "departure_time": "07:53:00",
      "old": false,
      "stop_lat": 50.048114,
      "stop_lon": 19.943448,
      "stop_name": "Plac Wolnica",
      "stop_num": "02",
      "stop_sequence": 10,
      "stopping": false,
      "time": null,
      "trip_id": "block_149_trip_5_service_5",
      "trip_num": 5
    },
    {
      "delay": null,
      "departure_time": "07:55:00",
      "old": false,
      "stop_lat": 50.050842,
      "stop_lon": 19.942415,
      "stop_name": "Stradom",
      "stop_num": "04",
      "stop_sequence": 11,
      "stopping": false,
      "time": null,
      "trip_id": "block_149_trip_5_service_5",
      "trip_num": 5
    },
    {
      "delay": null,
      "departure_time": "07:58:00",
      "old": false,
      "stop_lat": 50.057227,
      "stop_lon": 19.946086,
      "stop_name": "Starowiślna",
      "stop_num": "03",
      "stop_sequence": 12,
      "stopping": false,
      "time": null,
      "trip_id": "block_149_trip_5_service_5",
      "trip_num": 5
    },
    {
      "delay": null,
      "departure_time": "07:59:00",
      "old": false,
      "stop_lat": 50.058639,
      "stop_lon": 19.948875,
      "stop_name": "Hala Targowa",
      "stop_num": "01",
      "stop_sequence": 13,
      "stopping": false,
      "time": null,
      "trip_id": "block_149_trip_5_service_5",
      "trip_num": 5
    },
    {
      "delay": null,
      "departure_time": "08:02:00",
      "old": false,
      "stop_lat": 50.058426,
      "stop_lon": 19.959244,
      "stop_name": "Rondo Grzegórzeckie",
      "stop_num": "03",
      "stop_sequence": 14,
      "stopping": false,
      "time": null,
      "trip_id": "block_149_trip_5_service_5",
      "trip_num": 5
    },
    {
      "delay": null,
      "departure_time": "08:04:00",
      "old": false,
      "stop_lat": 50.065759,
      "stop_lon": 19.959864,
      "stop_name": "Rondo Mogilskie",
      "stop_num": "02",
      "stop_sequence": 15,
      "stopping": false,
      "time": null,
      "trip_id": "block_149_trip_5_service_5",
      "trip_num": 5
    },
    {
      "delay": null,
      "departure_time": "08:05:00",
      "old": false,
      "stop_lat": 50.066523,
      "stop_lon": 19.970519,
      "stop_name": "Cystersów",
      "stop_num": "01",
      "stop_sequence": 16,
      "stopping": false,
      "time": null,
      "trip_id": "block_149_trip_5_service_5",
      "trip_num": 5
    },
    {
      "delay": null,
      "departure_time": "08:07:00",
      "old": false,
      "stop_lat": 50.067841,
      "stop_lon": 19.977991,
      "stop_name": "Białucha",
      "stop_num": "01",
      "stop_sequence": 17,
      "stopping": false,
      "time": null,
      "trip_id": "block_149_trip_5_service_5",
      "trip_num": 5
    },
    {
      "delay": null,
      "departure_time": "08:10:00",
      "old": false,
      "stop_lat": 50.07352,
      "stop_lon": 19.990472,
      "stop_name": "Muzeum Lotnictwa Polskiego",
      "stop_num": "01",
      "stop_sequence": 18,
      "stopping": false,
      "time": null,
      "trip_id": "block_149_trip_5_service_5",
      "trip_num": 5
    },
    {
      "delay": null,
      "departure_time": "08:11:00",
      "old": false,
      "stop_lat": 50.073967,
      "stop_lon": 19.99881,
      "stop_name": "AKF / PK",
      "stop_num": "01",
      "stop_sequence": 19,
      "stopping": false,
      "time": null,
      "trip_id": "block_149_trip_5_service_5",
      "trip_num": 5
    },
    {
      "delay": null,
      "departure_time": "08:13:00",
      "old": false,
      "stop_lat": 50.074273,
      "stop_lon": 20.004747,
      "stop_name": "Stella-Sawickiego",
      "stop_num": "01",
      "stop_sequence": 20,
      "stopping": false,
      "time": null,
      "trip_id": "block_149_trip_5_service_5",
      "trip_num": 5
    },
    {
      "delay": null,
      "departure_time": "08:14:00",
      "old": false,
      "stop_lat": 50.07399,
      "stop_lon": 20.011459,
      "stop_name": "Czyżyny",
      "stop_num": "01",
      "stop_sequence": 21,
      "stopping": false,
      "time": null,
      "trip_id": "block_149_trip_5_service_5",
      "trip_num": 5
    },
    {
      "delay": null,
      "departure_time": "08:17:00",
      "old": false,
      "stop_lat": 50.0733,
      "stop_lon": 20.01888,
      "stop_name": "Rondo Czyżyńskie",
      "stop_num": "01",
      "stop_sequence": 22,
      "stopping": false,
      "time": null,
      "trip_id": "block_149_trip_5_service_5",
      "trip_num": 5
    },
    {
      "delay": null,
      "departure_time": "08:18:00",
      "old": false,
      "stop_lat": 50.072198,
      "stop_lon": 20.0298,
      "stop_name": "Os. Kolorowe",
      "stop_num": "01",
      "stop_sequence": 23,
      "stopping": false,
      "time": null,
      "trip_id": "block_149_trip_5_service_5",
      "trip_num": 5
    },
    {
      "delay": null,
      "departure_time": "08:21:00",
      "old": false,
      "stop_lat": 50.071283,
      "stop_lon": 20.038494,
      "stop_name": "Plac Centralny im. R.Reagana",
      "stop_num": "04",
      "stop_sequence": 24,
      "stopping": false,
      "time": null,
      "trip_id": "block_149_trip_5_service_5",
      "trip_num": 5
    },
    {
      "delay": null,
      "departure_time": "08:22:00",
      "old": false,
      "stop_lat": 50.069813,
      "stop_lon": 20.045465,
      "stop_name": "Os. Na Skarpie",
      "stop_num": "01",
      "stop_sequence": 25,
      "stopping": false,
      "time": null,
      "trip_id": "block_149_trip_5_service_5",
      "trip_num": 5
    },
    {
      "delay": null,
      "departure_time": "08:24:00",
      "old": false,
      "stop_lat": 50.068607,
      "stop_lon": 20.052165,
      "stop_name": "Klasztorna",
      "stop_num": "01",
      "stop_sequence": 26,
      "stopping": false,
      "time": null,
      "trip_id": "block_149_trip_5_service_5",
      "trip_num": 5
    },
    {
      "delay": null,
      "departure_time": "08:25:00",
      "old": false,
      "stop_lat": 50.067467,
      "stop_lon": 20.060033,
      "stop_name": "Suche Stawy",
      "stop_num": "01",
      "stop_sequence": 27,
      "stopping": false,
      "time": null,
      "trip_id": "block_149_trip_5_service_5",
      "trip_num": 5
    },
    {
      "delay": null,
      "departure_time": "08:26:00",
      "old": false,
      "stop_lat": 50.067743,
      "stop_lon": 20.064949,
      "stop_name": "Bardosa",
      "stop_num": "01",
      "stop_sequence": 28,
      "stopping": false,
      "time": null,
      "trip_id": "block_149_trip_5_service_5",
      "trip_num": 5
    },
    {
      "delay": null,
      "departure_time": "08:28:00",
      "old": false,
      "stop_lat": 50.066659,
      "stop_lon": 20.070794,
      "stop_name": "Fort Mogiła (nż)",
      "stop_num": "01",
      "stop_sequence": 29,
      "stopping": false,
      "time": null,
      "trip_id": "block_149_trip_5_service_5",
      "trip_num": 5
    },
    {
      "delay": null,
      "departure_time": "08:29:00",
      "old": false,
      "stop_lat": 50.064955,
      "stop_lon": 20.074756,
      "stop_name": "Brama nr 4 (nż)",
      "stop_num": "01",
      "stop_sequence": 30,
      "stopping": false,
      "time": null,
      "trip_id": "block_149_trip_5_service_5",
      "trip_num": 5
    },
    {
      "delay": null,
      "departure_time": "08:30:00",
      "old": false,
      "stop_lat": 50.06462,
      "stop_lon": 20.08447,
      "stop_name": "Giedroycia (nż)",
      "stop_num": "01",
      "stop_sequence": 31,
      "stopping": false,
      "time": null,
      "trip_id": "block_149_trip_5_service_5",
      "trip_num": 5
    },
    {
      "delay": null,
      "departure_time": "08:31:00",
      "old": false,
      "stop_lat": 50.069176,
      "stop_lon": 20.09178,
      "stop_name": "Brama nr 5 (nż)",
      "stop_num": "01",
      "stop_sequence": 32,
      "stopping": false,
      "time": null,
      "trip_id": "block_149_trip_5_service_5",
      "trip_num": 5
    },
    {
      "delay": null,
      "departure_time": "08:32:00",
      "old": false,
      "stop_lat": 50.069815,
      "stop_lon": 20.09469,
      "stop_name": "Meksyk (nż)",
      "stop_num": "01",
      "stop_sequence": 33,
      "stopping": false,
      "time": null,
      "trip_id": "block_149_trip_5_service_5",
      "trip_num": 5
    },
    {
      "delay": null,
      "departure_time": "08:33:00",
      "old": false,
      "stop_lat": 50.071926,
      "stop_lon": 20.104695,
      "stop_name": "Koksochemia (nż)",
      "stop_num": "01",
      "stop_sequence": 34,
      "stopping": false,
      "time": null,
      "trip_id": "block_149_trip_5_service_5",
      "trip_num": 5
    },
    {
      "delay": null,
      "departure_time": "08:35:00",
      "old": false,
      "stop_lat": 50.072893,
      "stop_lon": 20.11689,
      "stop_name": "Pleszów",
      "stop_num": "01",
      "stop_sequence": 35,
      "stopping": false,
      "time": null,
      "trip_id": "block_149_trip_5_service_5",
      "trip_num": 5
    },
    {
      "delay": null,
      "departure_time": "08:52:00",
      "old": false,
      "stop_lat": 50.072893,
      "stop_lon": 20.11689,
      "stop_name": "Pleszów",
      "stop_num": "01",
      "stop_sequence": 1,
      "stopping": false,
      "time": null,
      "trip_id": "block_149_trip_6_service_5",
      "trip_num": 6
    },
    {
      "delay": null,
      "departure_time": "08:53:00",
      "old": false,
      "stop_lat": 50.071926,
      "stop_lon": 20.104459,
      "stop_name": "Koksochemia (nż)",
      "stop_num": "02",
      "stop_sequence": 2,
      "stopping": false,
      "time": null,
      "trip_id": "block_149_trip_6_service_5",
      "trip_num": 6
    },
    {
      "delay": null,
      "departure_time": "08:54:00",
      "old": false,
      "stop_lat": 50.069892,
      "stop_lon": 20.095243,
      "stop_name": "Meksyk (nż)",
      "stop_num": "02",
      "stop_sequence": 3,
      "stopping": false,
      "time": null,
      "trip_id": "block_149_trip_6_service_5",
      "trip_num": 6
    },
    {
      "delay": null,
      "departure_time": "08:55:00",
      "old": false,
      "stop_lat": 50.069071,
      "stop_lon": 20.091584,
      "stop_name": "Brama nr 5 (nż)",
      "stop_num": "02",
      "stop_sequence": 4,
      "stopping": false,
      "time": null,
      "trip_id": "block_149_trip_6_service_5",
      "trip_num": 6
    },
    {
      "delay": null,
      "departure_time": "08:56:00",
      "old": false,
      "stop_lat": 50.06473,
      "stop_lon": 20.08479,
      "stop_name": "Giedroycia (nż)",
      "stop_num": "02",
      "stop_sequence": 5,
      "stopping": false,
      "time": null,
      "trip_id": "block_149_trip_6_service_5",
      "trip_num": 6
    },
    {
      "delay": null,
      "departure_time": "08:57:00",
      "old": false,
      "stop_lat": 50.064899,
      "stop_lon": 20.075212,
      "stop_name": "Brama nr 4 (nż)",
      "stop_num": "02",
      "stop_sequence": 6,
      "stopping": false,
      "time": null,
      "trip_id": "block_149_trip_6_service_5",
      "trip_num": 6
    },
    {
      "delay": null,
      "departure_time": "08:58:00",
      "old": false,
      "stop_lat": 50.066394,
      "stop_lon": 20.071325,
      "stop_name": "Fort Mogiła (nż)",
      "stop_num": "02",
      "stop_sequence": 7,
      "stopping": false,
      "time": null,
      "trip_id": "block_149_trip_6_service_5",
      "trip_num": 6
    },
    {
      "delay": null,
      "departure_time": "09:00:00",
      "old": false,
      "stop_lat": 50.067772,
      "stop_lon": 20.064912,
      "stop_name": "Bardosa",
      "stop_num": "02",
      "stop_sequence": 8,
      "stopping": false,
      "time": null,
      "trip_id": "block_149_trip_6_service_5",
      "trip_num": 6
    },
    {
      "delay": null,
      "departure_time": "09:01:00",
      "old": false,
      "stop_lat": 50.067515,
      "stop_lon": 20.059695,
      "stop_name": "Suche Stawy",
      "stop_num": "02",
      "stop_sequence": 9,
      "stopping": false,
      "time": null,
      "trip_id": "block_149_trip_6_service_5",
      "trip_num": 6
    },
    {
      "delay": null,
      "departure_time": "09:02:00",
      "old": false,
      "stop_lat": 50.068478,
      "stop_lon": 20.053009,
      "stop_name": "Klasztorna",
      "stop_num": "02",
      "stop_sequence": 10,
      "stopping": false,
      "time": null,
      "trip_id": "block_149_trip_6_service_5",
      "trip_num": 6
    },
    {
      "delay": null,
      "departure_time": "09:03:00",
      "old": false,
      "stop_lat": 50.069704,
      "stop_lon": 20.046218,
      "stop_name": "Os. Na Skarpie",
      "stop_num": "02",
      "stop_sequence": 11,
      "stopping": false,
      "time": null,
      "trip_id": "block_149_trip_6_service_5",
      "trip_num": 6
    },
    {
      "delay": null,
      "departure_time": "09:06:00",
      "old": false,
      "stop_lat": 50.071704,
      "stop_lon": 20.035631,
      "stop_name": "Plac Centralny im. R.Reagana",
      "stop_num": "01",
      "stop_sequence": 12,
      "stopping": false,
      "time": null,
      "trip_id": "block_149_trip_6_service_5",
      "trip_num": 6
    },
    {
      "delay": null,
      "departure_time": "09:07:00",
      "old": false,
      "stop_lat": 50.072371,
      "stop_lon": 20.028517,
      "stop_name": "Os. Kolorowe",
      "stop_num": "02",
      "stop_sequence": 13,
      "stopping": false,
      "time": null,
      "trip_id": "block_149_trip_6_service_5",
      "trip_num": 6
    },
    {
      "delay": null,
      "departure_time": "09:10:00",
      "old": false,
      "stop_lat": 50.07358,
      "stop_lon": 20.01606,
      "stop_name": "Rondo Czyżyńskie",
      "stop_num": "02",
      "stop_sequence": 14,
      "stopping": false,
      "time": null,
      "trip_id": "block_149_trip_6_service_5",
      "trip_num": 6
    },
    {
      "delay": null,
      "departure_time": "09:11:00",
      "old": false,
      "stop_lat": 50.074038,
      "stop_lon": 20.011272,
      "stop_name": "Czyżyny",
      "stop_num": "02",
      "stop_sequence": 15,
      "stopping": false,
      "time": null,
      "trip_id": "block_149_trip_6_service_5",
      "trip_num": 6
    },
    {
      "delay": null,
      "departure_time": "09:12:00",
      "old": false,
      "stop_lat": 50.074302,
      "stop_lon": 20.00459,
      "stop_name": "Stella-Sawickiego",
      "stop_num": "02",
      "stop_sequence": 16,
      "stopping": false,
      "time": null,
      "trip_id": "block_149_trip_6_service_5",
      "trip_num": 6
    },
    {
      "delay": null,
      "departure_time": "09:13:00",
      "old": false,
      "stop_lat": 50.074015,
      "stop_lon": 19.998685,
      "stop_name": "AKF / PK",
      "stop_num": "02",
      "stop_sequence": 17,
      "stopping": false,
      "time": null,
      "trip_id": "block_149_trip_6_service_5",
      "trip_num": 6
    },
    {
      "delay": null,
      "departure_time": "09:14:00",
      "old": false,
      "stop_lat": 50.073539,
      "stop_lon": 19.990254,
      "stop_name": "Muzeum Lotnictwa Polskiego",
      "stop_num": "02",
      "stop_sequence": 18,
      "stopping": false,
      "time": null,
      "trip_id": "block_149_trip_6_service_5",
      "trip_num": 6
    },
    {
      "delay": null,
      "departure_time": "09:17:00",
      "old": false,
      "stop_lat": 50.067597,
      "stop_lon": 19.977192,
      "stop_name": "Białucha",
      "stop_num": "02",
      "stop_sequence": 19,
      "stopping": false,
      "time": null,
      "trip_id": "block_149_trip_6_service_5",
      "trip_num": 6
    },
    {
      "delay": null,
      "departure_time": "09:19:00",
      "old": false,
      "stop_lat": 50.06654,
      "stop_lon": 19.969149,
      "stop_name": "Cystersów",
      "stop_num": "02",
      "stop_sequence": 20,
      "stopping": false,
      "time": null,
      "trip_id": "block_149_trip_6_service_5",
      "trip_num": 6
    },
    {
      "delay": null,
      "departure_time": "09:21:00",
      "old": false,
      "stop_lat": 50.064865,
      "stop_lon": 19.959303,
      "stop_name": "Rondo Mogilskie",
      "stop_num": "03",
      "stop_sequence": 21,
      "stopping": false,
      "time": null,
      "trip_id": "block_149_trip_6_service_5",
      "trip_num": 6
    },
    {
      "delay": null,
      "departure_time": "09:24:00",
      "old": false,
      "stop_lat": 50.057558,
      "stop_lon": 19.957748,
      "stop_name": "Rondo Grzegórzeckie",
      "stop_num": "02",
      "stop_sequence": 22,
      "stopping": false,
      "time": null,
      "trip_id": "block_149_trip_6_service_5",
      "trip_num": 6
    },
    {
      "delay": null,
      "departure_time": "09:26:00",
      "old": false,
      "stop_lat": 50.058678,
      "stop_lon": 19.948657,
      "stop_name": "Hala Targowa",
      "stop_num": "02",
      "stop_sequence": 23,
      "stopping": false,
      "time": null,
      "trip_id": "block_149_trip_6_service_5",
      "trip_num": 6
    },
    {
      "delay": null,
      "departure_time": "09:27:00",
      "old": false,
      "stop_lat": 50.057262,
      "stop_lon": 19.946032,
      "stop_name": "Starowiślna",
      "stop_num": "04",
      "stop_sequence": 24,
      "stopping": false,
      "time": null,
      "trip_id": "block_149_trip_6_service_5",
      "trip_num": 6
    },
    {
      "delay": null,
      "departure_time": "09:29:00",
      "old": false,
      "stop_lat": 50.052258,
      "stop_lon": 19.942061,
      "stop_name": "Stradom",
      "stop_num": "03",
      "stop_sequence": 25,
      "stopping": false,
      "time": null,
      "trip_id": "block_149_trip_6_service_5",
      "trip_num": 6
    },
    {
      "delay": null,
      "departure_time": "09:31:00",
      "old": false,
      "stop_lat": 50.048028,
      "stop_lon": 19.943426,
      "stop_name": "Plac Wolnica",
      "stop_num": "01",
      "stop_sequence": 26,
      "stopping": false,
      "time": null,
      "trip_id": "block_149_trip_6_service_5",
      "trip_num": 6
    },
    {
      "delay": null,
      "departure_time": "09:33:00",
      "old": false,
      "stop_lat": 50.044032,
      "stop_lon": 19.94678,
      "stop_name": "Korona",
      "stop_num": "03",
      "stop_sequence": 27,
      "stopping": false,
      "time": null,
      "trip_id": "block_149_trip_6_service_5",
      "trip_num": 6
    },
    {
      "delay": null,
      "departure_time": "09:34:00",
      "old": false,
      "stop_lat": 50.041496,
      "stop_lon": 19.943119,
      "stop_name": "Smolki",
      "stop_num": "01",
      "stop_sequence": 28,
      "stopping": false,
      "time": null,
      "trip_id": "block_149_trip_6_service_5",
      "trip_num": 6
    },
    {
      "delay": null,
      "departure_time": "09:36:00",
      "old": false,
      "stop_lat": 50.036959,
      "stop_lon": 19.940795,
      "stop_name": "Rondo Matecznego",
      "stop_num": "01",
      "stop_sequence": 29,
      "stopping": false,
      "time": null,
      "trip_id": "block_149_trip_6_service_5",
      "trip_num": 6
    },
    {
      "delay": null,
      "departure_time": "09:38:00",
      "old": false,
      "stop_lat": 50.033644,
      "stop_lon": 19.938697,
      "stop_name": "Rzemieślnicza",
      "stop_num": "01",
      "stop_sequence": 30,
      "stopping": false,
      "time": null,
      "trip_id": "block_149_trip_6_service_5",
      "trip_num": 6
    },
    {
      "delay": null,
      "departure_time": "09:40:00",
      "old": false,
      "stop_lat": 50.030477,
      "stop_lon": 19.936964,
      "stop_name": "Łagiewniki",
      "stop_num": "01",
      "stop_sequence": 31,
      "stopping": false,
      "time": null,
      "trip_id": "block_149_trip_6_service_5",
      "trip_num": 6
    },
    {
      "delay": null,
      "departure_time": "09:42:00",
      "old": false,
      "stop_lat": 50.024577,
      "stop_lon": 19.933922,
      "stop_name": "Łagiewniki ZUS",
      "stop_num": "01",
      "stop_sequence": 32,
      "stopping": false,
      "time": null,
      "trip_id": "block_149_trip_6_service_5",
      "trip_num": 6
    },
    {
      "delay": null,
      "departure_time": "09:44:00",
      "old": false,
      "stop_lat": 50.02111,
      "stop_lon": 19.93288,
      "stop_name": "Łagiewniki SKA",
      "stop_num": "03",
      "stop_sequence": 33,
      "stopping": false,
      "time": null,
      "trip_id": "block_149_trip_6_service_5",
      "trip_num": 6
    },
    {
      "delay": null,
      "departure_time": "09:45:00",
      "old": false,
      "stop_lat": 50.01777,
      "stop_lon": 19.93626,
      "stop_name": "Sanktuarium Bożego Miłosierdzia",
      "stop_num": "01",
      "stop_sequence": 34,
      "stopping": false,
      "time": null,
      "trip_id": "block_149_trip_6_service_5",
      "trip_num": 6
    },
    {
      "delay": null,
      "departure_time": "09:47:00",
      "old": false,
      "stop_lat": 50.01506,
      "stop_lon": 19.94439,
      "stop_name": "Turowicza",
      "stop_num": "01",
      "stop_sequence": 35,
      "stopping": false,
      "time": null,
      "trip_id": "block_149_trip_6_service_5",
      "trip_num": 6
    },
    {
      "delay": null,
      "departure_time": "09:48:00",
      "old": false,
      "stop_lat": 50.01407,
      "stop_lon": 19.94809,
      "stop_name": "Kurdwanów P+R",
      "stop_num": "08",
      "stop_sequence": 36,
      "stopping": false,
      "time": null,
      "trip_id": "block_149_trip_6_service_5",
      "trip_num": 6
    },
    {
      "delay": null,
      "departure_time": "10:08:00",
      "old": false,
      "stop_lat": 50.01407,
      "stop_lon": 19.94809,
      "stop_name": "Kurdwanów P+R",
      "stop_num": "08",
      "stop_sequence": 1,
      "stopping": false,
      "time": null,
      "trip_id": "block_149_trip_7_service_5",
      "trip_num": 7
    },
    {
      "delay": null,
      "departure_time": "10:09:00",
      "old": false,
      "stop_lat": 50.01511,
      "stop_lon": 19.94435,
      "stop_name": "Turowicza",
      "stop_num": "02",
      "stop_sequence": 2,
      "stopping": false,
      "time": null,
      "trip_id": "block_149_trip_7_service_5",
      "trip_num": 7
    },
    {
      "delay": null,
      "departure_time": "10:11:00",
      "old": false,
      "stop_lat": 50.01779,
      "stop_lon": 19.93633,
      "stop_name": "Sanktuarium Bożego Miłosierdzia",
      "stop_num": "02",
      "stop_sequence": 3,
      "stopping": false,
      "time": null,
      "trip_id": "block_149_trip_7_service_5",
      "trip_num": 7
    },
    {
      "delay": null,
      "departure_time": "10:13:00",
      "old": false,
      "stop_lat": 50.022103,
      "stop_lon": 19.932601,
      "stop_name": "Łagiewniki SKA",
      "stop_num": "02",
      "stop_sequence": 4,
      "stopping": false,
      "time": null,
      "trip_id": "block_149_trip_7_service_5",
      "trip_num": 7
    },
    {
      "delay": null,
      "departure_time": "10:16:00",
      "old": false,
      "stop_lat": 50.030486,
      "stop_lon": 19.937053,
      "stop_name": "Łagiewniki",
      "stop_num": "02",
      "stop_sequence": 5,
      "stopping": false,
      "time": null,
      "trip_id": "block_149_trip_7_service_5",
      "trip_num": 7
    },
    {
      "delay": null,
      "departure_time": "10:17:00",
      "old": false,
      "stop_lat": 50.03295,
      "stop_lon": 19.938389,
      "stop_name": "Rzemieślnicza",
      "stop_num": "02",
      "stop_sequence": 6,
      "stopping": false,
      "time": null,
      "trip_id": "block_149_trip_7_service_5",
      "trip_num": 7
    },
    {
      "delay": null,
      "departure_time": "10:18:00",
      "old": false,
      "stop_lat": 50.035927,
      "stop_lon": 19.940363,
      "stop_name": "Rondo Matecznego",
      "stop_num": "02",
      "stop_sequence": 7,
      "stopping": false,
      "time": null,
      "trip_id": "block_149_trip_7_service_5",
      "trip_num": 7
    },
    {
      "delay": null,
      "departure_time": "10:19:00",
      "old": false,
      "stop_lat": 50.041629,
      "stop_lon": 19.943262,
      "stop_name": "Smolki",
      "stop_num": "02",
      "stop_sequence": 8,
      "stopping": false,
      "time": null,
      "trip_id": "block_149_trip_7_service_5",
      "trip_num": 7
    },
    {
      "delay": null,
      "departure_time": "10:21:00",
      "old": false,
      "stop_lat": 50.043604,
      "stop_lon": 19.946683,
      "stop_name": "Korona",
      "stop_num": "01",
      "stop_sequence": 9,
      "stopping": false,
      "time": null,
      "trip_id": "block_149_trip_7_service_5",
      "trip_num": 7
    },
    {
      "delay": null,
      "departure_time": "10:23:00",
      "old": false,
      "stop_lat": 50.048114,
      "stop_lon": 19.943448,
      "stop_name": "Plac Wolnica",
      "stop_num": "02",
      "stop_sequence": 10,
      "stopping": false,
      "time": null,
      "trip_id": "block_149_trip_7_service_5",
      "trip_num": 7
    },
    {
      "delay": null,
      "departure_time": "10:25:00",
      "old": false,
      "stop_lat": 50.050842,
      "stop_lon": 19.942415,
      "stop_name": "Stradom",
      "stop_num": "04",
      "stop_sequence": 11,
      "stopping": false,
      "time": null,
      "trip_id": "block_149_trip_7_service_5",
      "trip_num": 7
    },
    {
      "delay": null,
      "departure_time": "10:28:00",
      "old": false,
      "stop_lat": 50.057227,
      "stop_lon": 19.946086,
      "stop_name": "Starowiślna",
      "stop_num": "03",
      "stop_sequence": 12,
      "stopping": false,
      "time": null,
      "trip_id": "block_149_trip_7_service_5",
      "trip_num": 7
    },
    {
      "delay": null,
      "departure_time": "10:29:00",
      "old": false,
      "stop_lat": 50.058639,
      "stop_lon": 19.948875,
      "stop_name": "Hala Targowa",
      "stop_num": "01",
      "stop_sequence": 13,
      "stopping": false,
      "time": null,
      "trip_id": "block_149_trip_7_service_5",
      "trip_num": 7
    },
    {
      "delay": null,
      "departure_time": "10:32:00",
      "old": false,
      "stop_lat": 50.058426,
      "stop_lon": 19.959244,
      "stop_name": "Rondo Grzegórzeckie",
      "stop_num": "03",
      "stop_sequence": 14,
      "stopping": false,
      "time": null,
      "trip_id": "block_149_trip_7_service_5",
      "trip_num": 7
    },
    {
      "delay": null,
      "departure_time": "10:34:00",
      "old": false,
      "stop_lat": 50.065759,
      "stop_lon": 19.959864,
      "stop_name": "Rondo Mogilskie",
      "stop_num": "02",
      "stop_sequence": 15,
      "stopping": false,
      "time": null,
      "trip_id": "block_149_trip_7_service_5",
      "trip_num": 7
    },
    {
      "delay": null,
      "departure_time": "10:35:00",
      "old": false,
      "stop_lat": 50.066523,
      "stop_lon": 19.970519,
      "stop_name": "Cystersów",
      "stop_num": "01",
      "stop_sequence": 16,
      "stopping": false,
      "time": null,
      "trip_id": "block_149_trip_7_service_5",
      "trip_num": 7
    },
    {
      "delay": null,
      "departure_time": "10:37:00",
      "old": false,
      "stop_lat": 50.067841,
      "stop_lon": 19.977991,
      "stop_name": "Białucha",
      "stop_num": "01",
      "stop_sequence": 17,
      "stopping": false,
      "time": null,
      "trip_id": "block_149_trip_7_service_5",
      "trip_num": 7
    },
    {
      "delay": null,
      "departure_time": "10:40:00",
      "old": false,
      "stop_lat": 50.07352,
      "stop_lon": 19.990472,
      "stop_name": "Muzeum Lotnictwa Polskiego",
      "stop_num": "01",
      "stop_sequence": 18,
      "stopping": false,
      "time": null,
      "trip_id": "block_149_trip_7_service_5",
      "trip_num": 7
    },
    {
      "delay": null,
      "departure_time": "10:41:00",
      "old": false,
      "stop_lat": 50.073967,
      "stop_lon": 19.99881,
      "stop_name": "AKF / PK",
      "stop_num": "01",
      "stop_sequence": 19,
      "stopping": false,
      "time": null,
      "trip_id": "block_149_trip_7_service_5",
      "trip_num": 7
    },
    {
      "delay": null,
      "departure_time": "10:43:00",
      "old": false,
      "stop_lat": 50.074273,
      "stop_lon": 20.004747,
      "stop_name": "Stella-Sawickiego",
      "stop_num": "01",
      "stop_sequence": 20,
      "stopping": false,
      "time": null,
      "trip_id": "block_149_trip_7_service_5",
      "trip_num": 7
    },
    {
      "delay": null,
      "departure_time": "10:44:00",
      "old": false,
      "stop_lat": 50.07399,
      "stop_lon": 20.011459,
      "stop_name": "Czyżyny",
      "stop_num": "01",
      "stop_sequence": 21,
      "stopping": false,
      "time": null,
      "trip_id": "block_149_trip_7_service_5",
      "trip_num": 7
    },
    {
      "delay": null,
      "departure_time": "10:47:00",
      "old": false,
      "stop_lat": 50.0733,
      "stop_lon": 20.01888,
      "stop_name": "Rondo Czyżyńskie",
      "stop_num": "01",
      "stop_sequence": 22,
      "stopping": false,
      "time": null,
      "trip_id": "block_149_trip_7_service_5",
      "trip_num": 7
    },
    {
      "delay": null,
      "departure_time": "10:48:00",
      "old": false,
      "stop_lat": 50.072198,
      "stop_lon": 20.0298,
      "stop_name": "Os. Kolorowe",
      "stop_num": "01",
      "stop_sequence": 23,
      "stopping": false,
      "time": null,
      "trip_id": "block_149_trip_7_service_5",
      "trip_num": 7
    },
    {
      "delay": null,
      "departure_time": "10:51:00",
      "old": false,
      "stop_lat": 50.071283,
      "stop_lon": 20.038494,
      "stop_name": "Plac Centralny im. R.Reagana",
      "stop_num": "04",
      "stop_sequence": 24,
      "stopping": false,
      "time": null,
      "trip_id": "block_149_trip_7_service_5",
      "trip_num": 7
    },
    {
      "delay": null,
      "departure_time": "10:52:00",
      "old": false,
      "stop_lat": 50.069813,
      "stop_lon": 20.045465,
      "stop_name": "Os. Na Skarpie",
      "stop_num": "01",
      "stop_sequence": 25,
      "stopping": false,
      "time": null,
      "trip_id": "block_149_trip_7_service_5",
      "trip_num": 7
    },
    {
      "delay": null,
      "departure_time": "10:54:00",
      "old": false,
      "stop_lat": 50.068607,
      "stop_lon": 20.052165,
      "stop_name": "Klasztorna",
      "stop_num": "01",
      "stop_sequence": 26,
      "stopping": false,
      "time": null,
      "trip_id": "block_149_trip_7_service_5",
      "trip_num": 7
    },
    {
      "delay": null,
      "departure_time": "10:55:00",
      "old": false,
      "stop_lat": 50.067467,
      "stop_lon": 20.060033,
      "stop_name": "Suche Stawy",
      "stop_num": "01",
      "stop_sequence": 27,
      "stopping": false,
      "time": null,
      "trip_id": "block_149_trip_7_service_5",
      "trip_num": 7
    },
    {
      "delay": null,
      "departure_time": "10:56:00",
      "old": false,
      "stop_lat": 50.067743,
      "stop_lon": 20.064949,
      "stop_name": "Bardosa",
      "stop_num": "01",
      "stop_sequence": 28,
      "stopping": false,
      "time": null,
      "trip_id": "block_149_trip_7_service_5",
      "trip_num": 7
    },
    {
      "delay": null,
      "departure_time": "10:58:00",
      "old": false,
      "stop_lat": 50.066659,
      "stop_lon": 20.070794,
      "stop_name": "Fort Mogiła (nż)",
      "stop_num": "01",
      "stop_sequence": 29,
      "stopping": false,
      "time": null,
      "trip_id": "block_149_trip_7_service_5",
      "trip_num": 7
    },
    {
      "delay": null,
      "departure_time": "10:59:00",
      "old": false,
      "stop_lat": 50.064955,
      "stop_lon": 20.074756,
      "stop_name": "Brama nr 4 (nż)",
      "stop_num": "01",
      "stop_sequence": 30,
      "stopping": false,
      "time": null,
      "trip_id": "block_149_trip_7_service_5",
      "trip_num": 7
    },
    {
      "delay": null,
      "departure_time": "11:00:00",
      "old": false,
      "stop_lat": 50.06462,
      "stop_lon": 20.08447,
      "stop_name": "Giedroycia (nż)",
      "stop_num": "01",
      "stop_sequence": 31,
      "stopping": false,
      "time": null,
      "trip_id": "block_149_trip_7_service_5",
      "trip_num": 7
    },
    {
      "delay": null,
      "departure_time": "11:01:00",
      "old": false,
      "stop_lat": 50.069176,
      "stop_lon": 20.09178,
      "stop_name": "Brama nr 5 (nż)",
      "stop_num": "01",
      "stop_sequence": 32,
      "stopping": false,
      "time": null,
      "trip_id": "block_149_trip_7_service_5",
      "trip_num": 7
    },
    {
      "delay": null,
      "departure_time": "11:02:00",
      "old": false,
      "stop_lat": 50.069815,
      "stop_lon": 20.09469,
      "stop_name": "Meksyk (nż)",
      "stop_num": "01",
      "stop_sequence": 33,
      "stopping": false,
      "time": null,
      "trip_id": "block_149_trip_7_service_5",
      "trip_num": 7
    },
    {
      "delay": null,
      "departure_time": "11:03:00",
      "old": false,
      "stop_lat": 50.071926,
      "stop_lon": 20.104695,
      "stop_name": "Koksochemia (nż)",
      "stop_num": "01",
      "stop_sequence": 34,
      "stopping": false,
      "time": null,
      "trip_id": "block_149_trip_7_service_5",
      "trip_num": 7
    },
    {
      "delay": null,
      "departure_time": "11:05:00",
      "old": false,
      "stop_lat": 50.072893,
      "stop_lon": 20.11689,
      "stop_name": "Pleszów",
      "stop_num": "01",
      "stop_sequence": 35,
      "stopping": false,
      "time": null,
      "trip_id": "block_149_trip_7_service_5",
      "trip_num": 7
    },
    {
      "delay": null,
      "departure_time": "11:22:00",
      "old": false,
      "stop_lat": 50.072893,
      "stop_lon": 20.11689,
      "stop_name": "Pleszów",
      "stop_num": "01",
      "stop_sequence": 1,
      "stopping": false,
      "time": null,
      "trip_id": "block_149_trip_8_service_5",
      "trip_num": 8
    },
    {
      "delay": null,
      "departure_time": "11:23:00",
      "old": false,
      "stop_lat": 50.071926,
      "stop_lon": 20.104459,
      "stop_name": "Koksochemia (nż)",
      "stop_num": "02",
      "stop_sequence": 2,
      "stopping": false,
      "time": null,
      "trip_id": "block_149_trip_8_service_5",
      "trip_num": 8
    },
    {
      "delay": null,
      "departure_time": "11:24:00",
      "old": false,
      "stop_lat": 50.069892,
      "stop_lon": 20.095243,
      "stop_name": "Meksyk (nż)",
      "stop_num": "02",
      "stop_sequence": 3,
      "stopping": false,
      "time": null,
      "trip_id": "block_149_trip_8_service_5",
      "trip_num": 8
    },
    {
      "delay": null,
      "departure_time": "11:25:00",
      "old": false,
      "stop_lat": 50.069071,
      "stop_lon": 20.091584,
      "stop_name": "Brama nr 5 (nż)",
      "stop_num": "02",
      "stop_sequence": 4,
      "stopping": false,
      "time": null,
      "trip_id": "block_149_trip_8_service_5",
      "trip_num": 8
    },
    {
      "delay": null,
      "departure_time": "11:26:00",
      "old": false,
      "stop_lat": 50.06473,
      "stop_lon": 20.08479,
      "stop_name": "Giedroycia (nż)",
      "stop_num": "02",
      "stop_sequence": 5,
      "stopping": false,
      "time": null,
      "trip_id": "block_149_trip_8_service_5",
      "trip_num": 8
    },
    {
      "delay": null,
      "departure_time": "11:27:00",
      "old": false,
      "stop_lat": 50.064899,
      "stop_lon": 20.075212,
      "stop_name": "Brama nr 4 (nż)",
      "stop_num": "02",
      "stop_sequence": 6,
      "stopping": false,
      "time": null,
      "trip_id": "block_149_trip_8_service_5",
      "trip_num": 8
    },
    {
      "delay": null,
      "departure_time": "11:28:00",
      "old": false,
      "stop_lat": 50.066394,
      "stop_lon": 20.071325,
      "stop_name": "Fort Mogiła (nż)",
      "stop_num": "02",
      "stop_sequence": 7,
      "stopping": false,
      "time": null,
      "trip_id": "block_149_trip_8_service_5",
      "trip_num": 8
    },
    {
      "delay": null,
      "departure_time": "11:30:00",
      "old": false,
      "stop_lat": 50.067772,
      "stop_lon": 20.064912,
      "stop_name": "Bardosa",
      "stop_num": "02",
      "stop_sequence": 8,
      "stopping": false,
      "time": null,
      "trip_id": "block_149_trip_8_service_5",
      "trip_num": 8
    },
    {
      "delay": null,
      "departure_time": "11:31:00",
      "old": false,
      "stop_lat": 50.067515,
      "stop_lon": 20.059695,
      "stop_name": "Suche Stawy",
      "stop_num": "02",
      "stop_sequence": 9,
      "stopping": false,
      "time": null,
      "trip_id": "block_149_trip_8_service_5",
      "trip_num": 8
    },
    {
      "delay": null,
      "departure_time": "11:32:00",
      "old": false,
      "stop_lat": 50.068478,
      "stop_lon": 20.053009,
      "stop_name": "Klasztorna",
      "stop_num": "02",
      "stop_sequence": 10,
      "stopping": false,
      "time": null,
      "trip_id": "block_149_trip_8_service_5",
      "trip_num": 8
    },
    {
      "delay": null,
      "departure_time": "11:33:00",
      "old": false,
      "stop_lat": 50.069704,
      "stop_lon": 20.046218,
      "stop_name": "Os. Na Skarpie",
      "stop_num": "02",
      "stop_sequence": 11,
      "stopping": false,
      "time": null,
      "trip_id": "block_149_trip_8_service_5",
      "trip_num": 8
    },
    {
      "delay": null,
      "departure_time": "11:36:00",
      "old": false,
      "stop_lat": 50.071704,
      "stop_lon": 20.035631,
      "stop_name": "Plac Centralny im. R.Reagana",
      "stop_num": "01",
      "stop_sequence": 12,
      "stopping": false,
      "time": null,
      "trip_id": "block_149_trip_8_service_5",
      "trip_num": 8
    },
    {
      "delay": null,
      "departure_time": "11:37:00",
      "old": false,
      "stop_lat": 50.072371,
      "stop_lon": 20.028517,
      "stop_name": "Os. Kolorowe",
      "stop_num": "02",
      "stop_sequence": 13,
      "stopping": false,
      "time": null,
      "trip_id": "block_149_trip_8_service_5",
      "trip_num": 8
    },
    {
      "delay": null,
      "departure_time": "11:40:00",
      "old": false,
      "stop_lat": 50.07358,
      "stop_lon": 20.01606,
      "stop_name": "Rondo Czyżyńskie",
      "stop_num": "02",
      "stop_sequence": 14,
      "stopping": false,
      "time": null,
      "trip_id": "block_149_trip_8_service_5",
      "trip_num": 8
    },
    {
      "delay": null,
      "departure_time": "11:41:00",
      "old": false,
      "stop_lat": 50.074038,
      "stop_lon": 20.011272,
      "stop_name": "Czyżyny",
      "stop_num": "02",
      "stop_sequence": 15,
      "stopping": false,
      "time": null,
      "trip_id": "block_149_trip_8_service_5",
      "trip_num": 8
    },
    {
      "delay": null,
      "departure_time": "11:42:00",
      "old": false,
      "stop_lat": 50.074302,
      "stop_lon": 20.00459,
      "stop_name": "Stella-Sawickiego",
      "stop_num": "02",
      "stop_sequence": 16,
      "stopping": false,
      "time": null,
      "trip_id": "block_149_trip_8_service_5",
      "trip_num": 8
    },
    {
      "delay": null,
      "departure_time": "11:43:00",
      "old": false,
      "stop_lat": 50.074015,
      "stop_lon": 19.998685,
      "stop_name": "AKF / PK",
      "stop_num": "02",
      "stop_sequence": 17,
      "stopping": false,
      "time": null,
      "trip_id": "block_149_trip_8_service_5",
      "trip_num": 8
    },
    {
      "delay": null,
      "departure_time": "11:44:00",
      "old": false,
      "stop_lat": 50.073539,
      "stop_lon": 19.990254,
      "stop_name": "Muzeum Lotnictwa Polskiego",
      "stop_num": "02",
      "stop_sequence": 18,
      "stopping": false,
      "time": null,
      "trip_id": "block_149_trip_8_service_5",
      "trip_num": 8
    },
    {
      "delay": null,
      "departure_time": "11:47:00",
      "old": false,
      "stop_lat": 50.067597,
      "stop_lon": 19.977192,
      "stop_name": "Białucha",
      "stop_num": "02",
      "stop_sequence": 19,
      "stopping": false,
      "time": null,
      "trip_id": "block_149_trip_8_service_5",
      "trip_num": 8
    },
    {
      "delay": null,
      "departure_time": "11:49:00",
      "old": false,
      "stop_lat": 50.06654,
      "stop_lon": 19.969149,
      "stop_name": "Cystersów",
      "stop_num": "02",
      "stop_sequence": 20,
      "stopping": false,
      "time": null,
      "trip_id": "block_149_trip_8_service_5",
      "trip_num": 8
    },
    {
      "delay": null,
      "departure_time": "11:51:00",
      "old": false,
      "stop_lat": 50.064865,
      "stop_lon": 19.959303,
      "stop_name": "Rondo Mogilskie",
      "stop_num": "03",
      "stop_sequence": 21,
      "stopping": false,
      "time": null,
      "trip_id": "block_149_trip_8_service_5",
      "trip_num": 8
    },
    {
      "delay": null,
      "departure_time": "11:54:00",
      "old": false,
      "stop_lat": 50.057558,
      "stop_lon": 19.957748,
      "stop_name": "Rondo Grzegórzeckie",
      "stop_num": "02",
      "stop_sequence": 22,
      "stopping": false,
      "time": null,
      "trip_id": "block_149_trip_8_service_5",
      "trip_num": 8
    },
    {
      "delay": null,
      "departure_time": "11:56:00",
      "old": false,
      "stop_lat": 50.058678,
      "stop_lon": 19.948657,
      "stop_name": "Hala Targowa",
      "stop_num": "02",
      "stop_sequence": 23,
      "stopping": false,
      "time": null,
      "trip_id": "block_149_trip_8_service_5",
      "trip_num": 8
    },
    {
      "delay": null,
      "departure_time": "11:57:00",
      "old": false,
      "stop_lat": 50.057262,
      "stop_lon": 19.946032,
      "stop_name": "Starowiślna",
      "stop_num": "04",
      "stop_sequence": 24,
      "stopping": false,
      "time": null,
      "trip_id": "block_149_trip_8_service_5",
      "trip_num": 8
    },
    {
      "delay": null,
      "departure_time": "11:59:00",
      "old": false,
      "stop_lat": 50.052258,
      "stop_lon": 19.942061,
      "stop_name": "Stradom",
      "stop_num": "03",
      "stop_sequence": 25,
      "stopping": false,
      "time": null,
      "trip_id": "block_149_trip_8_service_5",
      "trip_num": 8
    },
    {
      "delay": null,
      "departure_time": "12:01:00",
      "old": false,
      "stop_lat": 50.048028,
      "stop_lon": 19.943426,
      "stop_name": "Plac Wolnica",
      "stop_num": "01",
      "stop_sequence": 26,
      "stopping": false,
      "time": null,
      "trip_id": "block_149_trip_8_service_5",
      "trip_num": 8
    },
    {
      "delay": null,
      "departure_time": "12:03:00",
      "old": false,
      "stop_lat": 50.044032,
      "stop_lon": 19.94678,
      "stop_name": "Korona",
      "stop_num": "03",
      "stop_sequence": 27,
      "stopping": false,
      "time": null,
      "trip_id": "block_149_trip_8_service_5",
      "trip_num": 8
    },
    {
      "delay": null,
      "departure_time": "12:04:00",
      "old": false,
      "stop_lat": 50.041496,
      "stop_lon": 19.943119,
      "stop_name": "Smolki",
      "stop_num": "01",
      "stop_sequence": 28,
      "stopping": false,
      "time": null,
      "trip_id": "block_149_trip_8_service_5",
      "trip_num": 8
    },
    {
      "delay": null,
      "departure_time": "12:06:00",
      "old": false,
      "stop_lat": 50.036959,
      "stop_lon": 19.940795,
      "stop_name": "Rondo Matecznego",
      "stop_num": "01",
      "stop_sequence": 29,
      "stopping": false,
      "time": null,
      "trip_id": "block_149_trip_8_service_5",
      "trip_num": 8
    },
    {
      "delay": null,
      "departure_time": "12:08:00",
      "old": false,
      "stop_lat": 50.033644,
      "stop_lon": 19.938697,
      "stop_name": "Rzemieślnicza",
      "stop_num": "01",
      "stop_sequence": 30,
      "stopping": false,
      "time": null,
      "trip_id": "block_149_trip_8_service_5",
      "trip_num": 8
    },
    {
      "delay": null,
      "departure_time": "12:10:00",
      "old": false,
      "stop_lat": 50.030477,
      "stop_lon": 19.936964,
      "stop_name": "Łagiewniki",
      "stop_num": "01",
      "stop_sequence": 31,
      "stopping": false,
      "time": null,
      "trip_id": "block_149_trip_8_service_5",
      "trip_num": 8
    },
    {
      "delay": null,
      "departure_time": "12:12:00",
      "old": false,
      "stop_lat": 50.024577,
      "stop_lon": 19.933922,
      "stop_name": "Łagiewniki ZUS",
      "stop_num": "01",
      "stop_sequence": 32,
      "stopping": false,
      "time": null,
      "trip_id": "block_149_trip_8_service_5",
      "trip_num": 8
    },
    {
      "delay": null,
      "departure_time": "12:14:00",
      "old": false,
      "stop_lat": 50.02111,
      "stop_lon": 19.93288,
      "stop_name": "Łagiewniki SKA",
      "stop_num": "03",
      "stop_sequence": 33,
      "stopping": false,
      "time": null,
      "trip_id": "block_149_trip_8_service_5",
      "trip_num": 8
    },
    {
      "delay": null,
      "departure_time": "12:15:00",
      "old": false,
      "stop_lat": 50.01777,
      "stop_lon": 19.93626,
      "stop_name": "Sanktuarium Bożego Miłosierdzia",
      "stop_num": "01",
      "stop_sequence": 34,
      "stopping": false,
      "time": null,
      "trip_id": "block_149_trip_8_service_5",
      "trip_num": 8
    },
    {
      "delay": null,
      "departure_time": "12:17:00",
      "old": false,
      "stop_lat": 50.01506,
      "stop_lon": 19.94439,
      "stop_name": "Turowicza",
      "stop_num": "01",
      "stop_sequence": 35,
      "stopping": false,
      "time": null,
      "trip_id": "block_149_trip_8_service_5",
      "trip_num": 8
    },
    {
      "delay": null,
      "departure_time": "12:18:00",
      "old": false,
      "stop_lat": 50.01407,
      "stop_lon": 19.94809,
      "stop_name": "Kurdwanów P+R",
      "stop_num": "08",
      "stop_sequence": 36,
      "stopping": false,
      "time": null,
      "trip_id": "block_149_trip_8_service_5",
      "trip_num": 8
    },
    {
      "delay": null,
      "departure_time": "12:38:00",
      "old": false,
      "stop_lat": 50.01407,
      "stop_lon": 19.94809,
      "stop_name": "Kurdwanów P+R",
      "stop_num": "08",
      "stop_sequence": 1,
      "stopping": false,
      "time": null,
      "trip_id": "block_149_trip_9_service_5",
      "trip_num": 9
    },
    {
      "delay": null,
      "departure_time": "12:39:00",
      "old": false,
      "stop_lat": 50.01511,
      "stop_lon": 19.94435,
      "stop_name": "Turowicza",
      "stop_num": "02",
      "stop_sequence": 2,
      "stopping": false,
      "time": null,
      "trip_id": "block_149_trip_9_service_5",
      "trip_num": 9
    },
    {
      "delay": null,
      "departure_time": "12:41:00",
      "old": false,
      "stop_lat": 50.01779,
      "stop_lon": 19.93633,
      "stop_name": "Sanktuarium Bożego Miłosierdzia",
      "stop_num": "02",
      "stop_sequence": 3,
      "stopping": false,
      "time": null,
      "trip_id": "block_149_trip_9_service_5",
      "trip_num": 9
    },
    {
      "delay": null,
      "departure_time": "12:43:00",
      "old": false,
      "stop_lat": 50.022103,
      "stop_lon": 19.932601,
      "stop_name": "Łagiewniki SKA",
      "stop_num": "02",
      "stop_sequence": 4,
      "stopping": false,
      "time": null,
      "trip_id": "block_149_trip_9_service_5",
      "trip_num": 9
    },
    {
      "delay": null,
      "departure_time": "12:46:00",
      "old": false,
      "stop_lat": 50.030486,
      "stop_lon": 19.937053,
      "stop_name": "Łagiewniki",
      "stop_num": "02",
      "stop_sequence": 5,
      "stopping": false,
      "time": null,
      "trip_id": "block_149_trip_9_service_5",
      "trip_num": 9
    },
    {
      "delay": null,
      "departure_time": "12:47:00",
      "old": false,
      "stop_lat": 50.03295,
      "stop_lon": 19.938389,
      "stop_name": "Rzemieślnicza",
      "stop_num": "02",
      "stop_sequence": 6,
      "stopping": false,
      "time": null,
      "trip_id": "block_149_trip_9_service_5",
      "trip_num": 9
    },
    {
      "delay": null,
      "departure_time": "12:48:00",
      "old": false,
      "stop_lat": 50.035927,
      "stop_lon": 19.940363,
      "stop_name": "Rondo Matecznego",
      "stop_num": "02",
      "stop_sequence": 7,
      "stopping": false,
      "time": null,
      "trip_id": "block_149_trip_9_service_5",
      "trip_num": 9
    },
    {
      "delay": null,
      "departure_time": "12:49:00",
      "old": false,
      "stop_lat": 50.041629,
      "stop_lon": 19.943262,
      "stop_name": "Smolki",
      "stop_num": "02",
      "stop_sequence": 8,
      "stopping": false,
      "time": null,
      "trip_id": "block_149_trip_9_service_5",
      "trip_num": 9
    },
    {
      "delay": null,
      "departure_time": "12:51:00",
      "old": false,
      "stop_lat": 50.043604,
      "stop_lon": 19.946683,
      "stop_name": "Korona",
      "stop_num": "01",
      "stop_sequence": 9,
      "stopping": false,
      "time": null,
      "trip_id": "block_149_trip_9_service_5",
      "trip_num": 9
    },
    {
      "delay": null,
      "departure_time": "12:53:00",
      "old": false,
      "stop_lat": 50.048114,
      "stop_lon": 19.943448,
      "stop_name": "Plac Wolnica",
      "stop_num": "02",
      "stop_sequence": 10,
      "stopping": false,
      "time": null,
      "trip_id": "block_149_trip_9_service_5",
      "trip_num": 9
    },
    {
      "delay": null,
      "departure_time": "12:55:00",
      "old": false,
      "stop_lat": 50.050842,
      "stop_lon": 19.942415,
      "stop_name": "Stradom",
      "stop_num": "04",
      "stop_sequence": 11,
      "stopping": false,
      "time": null,
      "trip_id": "block_149_trip_9_service_5",
      "trip_num": 9
    },
    {
      "delay": null,
      "departure_time": "12:58:00",
      "old": false,
      "stop_lat": 50.057227,
      "stop_lon": 19.946086,
      "stop_name": "Starowiślna",
      "stop_num": "03",
      "stop_sequence": 12,
      "stopping": false,
      "time": null,
      "trip_id": "block_149_trip_9_service_5",
      "trip_num": 9
    },
    {
      "delay": null,
      "departure_time": "12:59:00",
      "old": false,
      "stop_lat": 50.058639,
      "stop_lon": 19.948875,
      "stop_name": "Hala Targowa",
      "stop_num": "01",
      "stop_sequence": 13,
      "stopping": false,
      "time": null,
      "trip_id": "block_149_trip_9_service_5",
      "trip_num": 9
    },
    {
      "delay": null,
      "departure_time": "13:02:00",
      "old": false,
      "stop_lat": 50.058426,
      "stop_lon": 19.959244,
      "stop_name": "Rondo Grzegórzeckie",
      "stop_num": "03",
      "stop_sequence": 14,
      "stopping": false,
      "time": null,
      "trip_id": "block_149_trip_9_service_5",
      "trip_num": 9
    },
    {
      "delay": null,
      "departure_time": "13:04:00",
      "old": false,
      "stop_lat": 50.065759,
      "stop_lon": 19.959864,
      "stop_name": "Rondo Mogilskie",
      "stop_num": "02",
      "stop_sequence": 15,
      "stopping": false,
      "time": null,
      "trip_id": "block_149_trip_9_service_5",
      "trip_num": 9
    },
    {
      "delay": null,
      "departure_time": "13:05:00",
      "old": false,
      "stop_lat": 50.066523,
      "stop_lon": 19.970519,
      "stop_name": "Cystersów",
      "stop_num": "01",
      "stop_sequence": 16,
      "stopping": false,
      "time": null,
      "trip_id": "block_149_trip_9_service_5",
      "trip_num": 9
    },
    {
      "delay": null,
      "departure_time": "13:07:00",
      "old": false,
      "stop_lat": 50.067841,
      "stop_lon": 19.977991,
      "stop_name": "Białucha",
      "stop_num": "01",
      "stop_sequence": 17,
      "stopping": false,
      "time": null,
      "trip_id": "block_149_trip_9_service_5",
      "trip_num": 9
    },
    {
      "delay": null,
      "departure_time": "13:10:00",
      "old": false,
      "stop_lat": 50.07352,
      "stop_lon": 19.990472,
      "stop_name": "Muzeum Lotnictwa Polskiego",
      "stop_num": "01",
      "stop_sequence": 18,
      "stopping": false,
      "time": null,
      "trip_id": "block_149_trip_9_service_5",
      "trip_num": 9
    },
    {
      "delay": null,
      "departure_time": "13:11:00",
      "old": false,
      "stop_lat": 50.073967,
      "stop_lon": 19.99881,
      "stop_name": "AKF / PK",
      "stop_num": "01",
      "stop_sequence": 19,
      "stopping": false,
      "time": null,
      "trip_id": "block_149_trip_9_service_5",
      "trip_num": 9
    },
    {
      "delay": null,
      "departure_time": "13:13:00",
      "old": false,
      "stop_lat": 50.074273,
      "stop_lon": 20.004747,
      "stop_name": "Stella-Sawickiego",
      "stop_num": "01",
      "stop_sequence": 20,
      "stopping": false,
      "time": null,
      "trip_id": "block_149_trip_9_service_5",
      "trip_num": 9
    },
    {
      "delay": null,
      "departure_time": "13:14:00",
      "old": false,
      "stop_lat": 50.07399,
      "stop_lon": 20.011459,
      "stop_name": "Czyżyny",
      "stop_num": "01",
      "stop_sequence": 21,
      "stopping": false,
      "time": null,
      "trip_id": "block_149_trip_9_service_5",
      "trip_num": 9
    },
    {
      "delay": null,
      "departure_time": "13:17:00",
      "old": false,
      "stop_lat": 50.0733,
      "stop_lon": 20.01888,
      "stop_name": "Rondo Czyżyńskie",
      "stop_num": "01",
      "stop_sequence": 22,
      "stopping": false,
      "time": null,
      "trip_id": "block_149_trip_9_service_5",
      "trip_num": 9
    },
    {
      "delay": null,
      "departure_time": "13:18:00",
      "old": false,
      "stop_lat": 50.072198,
      "stop_lon": 20.0298,
      "stop_name": "Os. Kolorowe",
      "stop_num": "01",
      "stop_sequence": 23,
      "stopping": false,
      "time": null,
      "trip_id": "block_149_trip_9_service_5",
      "trip_num": 9
    },
    {
      "delay": null,
      "departure_time": "13:21:00",
      "old": false,
      "stop_lat": 50.071283,
      "stop_lon": 20.038494,
      "stop_name": "Plac Centralny im. R.Reagana",
      "stop_num": "04",
      "stop_sequence": 24,
      "stopping": false,
      "time": null,
      "trip_id": "block_149_trip_9_service_5",
      "trip_num": 9
    },
    {
      "delay": null,
      "departure_time": "13:22:00",
      "old": false,
      "stop_lat": 50.069813,
      "stop_lon": 20.045465,
      "stop_name": "Os. Na Skarpie",
      "stop_num": "01",
      "stop_sequence": 25,
      "stopping": false,
      "time": null,
      "trip_id": "block_149_trip_9_service_5",
      "trip_num": 9
    },
    {
      "delay": null,
      "departure_time": "13:24:00",
      "old": false,
      "stop_lat": 50.068607,
      "stop_lon": 20.052165,
      "stop_name": "Klasztorna",
      "stop_num": "01",
      "stop_sequence": 26,
      "stopping": false,
      "time": null,
      "trip_id": "block_149_trip_9_service_5",
      "trip_num": 9
    },
    {
      "delay": null,
      "departure_time": "13:25:00",
      "old": false,
      "stop_lat": 50.067467,
      "stop_lon": 20.060033,
      "stop_name": "Suche Stawy",
      "stop_num": "01",
      "stop_sequence": 27,
      "stopping": false,
      "time": null,
      "trip_id": "block_149_trip_9_service_5",
      "trip_num": 9
    },
    {
      "delay": null,
      "departure_time": "13:26:00",
      "old": false,
      "stop_lat": 50.067743,
      "stop_lon": 20.064949,
      "stop_name": "Bardosa",
      "stop_num": "01",
      "stop_sequence": 28,
      "stopping": false,
      "time": null,
      "trip_id": "block_149_trip_9_service_5",
      "trip_num": 9
    },
    {
      "delay": null,
      "departure_time": "13:28:00",
      "old": false,
      "stop_lat": 50.066659,
      "stop_lon": 20.070794,
      "stop_name": "Fort Mogiła (nż)",
      "stop_num": "01",
      "stop_sequence": 29,
      "stopping": false,
      "time": null,
      "trip_id": "block_149_trip_9_service_5",
      "trip_num": 9
    },
    {
      "delay": null,
      "departure_time": "13:29:00",
      "old": false,
      "stop_lat": 50.064955,
      "stop_lon": 20.074756,
      "stop_name": "Brama nr 4 (nż)",
      "stop_num": "01",
      "stop_sequence": 30,
      "stopping": false,
      "time": null,
      "trip_id": "block_149_trip_9_service_5",
      "trip_num": 9
    },
    {
      "delay": null,
      "departure_time": "13:30:00",
      "old": false,
      "stop_lat": 50.06462,
      "stop_lon": 20.08447,
      "stop_name": "Giedroycia (nż)",
      "stop_num": "01",
      "stop_sequence": 31,
      "stopping": false,
      "time": null,
      "trip_id": "block_149_trip_9_service_5",
      "trip_num": 9
    },
    {
      "delay": null,
      "departure_time": "13:31:00",
      "old": false,
      "stop_lat": 50.069176,
      "stop_lon": 20.09178,
      "stop_name": "Brama nr 5 (nż)",
      "stop_num": "01",
      "stop_sequence": 32,
      "stopping": false,
      "time": null,
      "trip_id": "block_149_trip_9_service_5",
      "trip_num": 9
    },
    {
      "delay": null,
      "departure_time": "13:32:00",
      "old": false,
      "stop_lat": 50.069815,
      "stop_lon": 20.09469,
      "stop_name": "Meksyk (nż)",
      "stop_num": "01",
      "stop_sequence": 33,
      "stopping": false,
      "time": null,
      "trip_id": "block_149_trip_9_service_5",
      "trip_num": 9
    },
    {
      "delay": null,
      "departure_time": "13:33:00",
      "old": false,
      "stop_lat": 50.071926,
      "stop_lon": 20.104695,
      "stop_name": "Koksochemia (nż)",
      "stop_num": "01",
      "stop_sequence": 34,
      "stopping": false,
      "time": null,
      "trip_id": "block_149_trip_9_service_5",
      "trip_num": 9
    },
    {
      "delay": null,
      "departure_time": "13:35:00",
      "old": false,
      "stop_lat": 50.072893,
      "stop_lon": 20.11689,
      "stop_name": "Pleszów",
      "stop_num": "01",
      "stop_sequence": 35,
      "stopping": false,
      "time": null,
      "trip_id": "block_149_trip_9_service_5",
      "trip_num": 9
    },
    {
      "delay": null,
      "departure_time": "13:52:00",
      "old": false,
      "stop_lat": 50.072893,
      "stop_lon": 20.11689,
      "stop_name": "Pleszów",
      "stop_num": "01",
      "stop_sequence": 1,
      "stopping": false,
      "time": null,
      "trip_id": "block_149_trip_10_service_5",
      "trip_num": 10
    },
    {
      "delay": null,
      "departure_time": "13:53:00",
      "old": false,
      "stop_lat": 50.071926,
      "stop_lon": 20.104459,
      "stop_name": "Koksochemia (nż)",
      "stop_num": "02",
      "stop_sequence": 2,
      "stopping": false,
      "time": null,
      "trip_id": "block_149_trip_10_service_5",
      "trip_num": 10
    },
    {
      "delay": null,
      "departure_time": "13:54:00",
      "old": false,
      "stop_lat": 50.069892,
      "stop_lon": 20.095243,
      "stop_name": "Meksyk (nż)",
      "stop_num": "02",
      "stop_sequence": 3,
      "stopping": false,
      "time": null,
      "trip_id": "block_149_trip_10_service_5",
      "trip_num": 10
    },
    {
      "delay": null,
      "departure_time": "13:55:00",
      "old": false,
      "stop_lat": 50.069071,
      "stop_lon": 20.091584,
      "stop_name": "Brama nr 5 (nż)",
      "stop_num": "02",
      "stop_sequence": 4,
      "stopping": false,
      "time": null,
      "trip_id": "block_149_trip_10_service_5",
      "trip_num": 10
    },
    {
      "delay": null,
      "departure_time": "13:56:00",
      "old": false,
      "stop_lat": 50.06473,
      "stop_lon": 20.08479,
      "stop_name": "Giedroycia (nż)",
      "stop_num": "02",
      "stop_sequence": 5,
      "stopping": false,
      "time": null,
      "trip_id": "block_149_trip_10_service_5",
      "trip_num": 10
    },
    {
      "delay": null,
      "departure_time": "13:57:00",
      "old": false,
      "stop_lat": 50.064899,
      "stop_lon": 20.075212,
      "stop_name": "Brama nr 4 (nż)",
      "stop_num": "02",
      "stop_sequence": 6,
      "stopping": false,
      "time": null,
      "trip_id": "block_149_trip_10_service_5",
      "trip_num": 10
    },
    {
      "delay": null,
      "departure_time": "13:58:00",
      "old": false,
      "stop_lat": 50.066394,
      "stop_lon": 20.071325,
      "stop_name": "Fort Mogiła (nż)",
      "stop_num": "02",
      "stop_sequence": 7,
      "stopping": false,
      "time": null,
      "trip_id": "block_149_trip_10_service_5",
      "trip_num": 10
    },
    {
      "delay": null,
      "departure_time": "14:00:00",
      "old": false,
      "stop_lat": 50.067772,
      "stop_lon": 20.064912,
      "stop_name": "Bardosa",
      "stop_num": "02",
      "stop_sequence": 8,
      "stopping": false,
      "time": null,
      "trip_id": "block_149_trip_10_service_5",
      "trip_num": 10
    },
    {
      "delay": null,
      "departure_time": "14:01:00",
      "old": false,
      "stop_lat": 50.067515,
      "stop_lon": 20.059695,
      "stop_name": "Suche Stawy",
      "stop_num": "02",
      "stop_sequence": 9,
      "stopping": false,
      "time": null,
      "trip_id": "block_149_trip_10_service_5",
      "trip_num": 10
    },
    {
      "delay": null,
      "departure_time": "14:02:00",
      "old": false,
      "stop_lat": 50.068478,
      "stop_lon": 20.053009,
      "stop_name": "Klasztorna",
      "stop_num": "02",
      "stop_sequence": 10,
      "stopping": false,
      "time": null,
      "trip_id": "block_149_trip_10_service_5",
      "trip_num": 10
    },
    {
      "delay": null,
      "departure_time": "14:03:00",
      "old": false,
      "stop_lat": 50.069704,
      "stop_lon": 20.046218,
      "stop_name": "Os. Na Skarpie",
      "stop_num": "02",
      "stop_sequence": 11,
      "stopping": false,
      "time": null,
      "trip_id": "block_149_trip_10_service_5",
      "trip_num": 10
    },
    {
      "delay": null,
      "departure_time": "14:06:00",
      "old": false,
      "stop_lat": 50.071704,
      "stop_lon": 20.035631,
      "stop_name": "Plac Centralny im. R.Reagana",
      "stop_num": "01",
      "stop_sequence": 12,
      "stopping": false,
      "time": null,
      "trip_id": "block_149_trip_10_service_5",
      "trip_num": 10
    },
    {
      "delay": null,
      "departure_time": "14:07:00",
      "old": false,
      "stop_lat": 50.072371,
      "stop_lon": 20.028517,
      "stop_name": "Os. Kolorowe",
      "stop_num": "02",
      "stop_sequence": 13,
      "stopping": false,
      "time": null,
      "trip_id": "block_149_trip_10_service_5",
      "trip_num": 10
    },
    {
      "delay": null,
      "departure_time": "14:10:00",
      "old": false,
      "stop_lat": 50.07358,
      "stop_lon": 20.01606,
      "stop_name": "Rondo Czyżyńskie",
      "stop_num": "02",
      "stop_sequence": 14,
      "stopping": false,
      "time": null,
      "trip_id": "block_149_trip_10_service_5",
      "trip_num": 10
    },
    {
      "delay": null,
      "departure_time": "14:11:00",
      "old": false,
      "stop_lat": 50.074038,
      "stop_lon": 20.011272,
      "stop_name": "Czyżyny",
      "stop_num": "02",
      "stop_sequence": 15,
      "stopping": false,
      "time": null,
      "trip_id": "block_149_trip_10_service_5",
      "trip_num": 10
    },
    {
      "delay": null,
      "departure_time": "14:12:00",
      "old": false,
      "stop_lat": 50.074302,
      "stop_lon": 20.00459,
      "stop_name": "Stella-Sawickiego",
      "stop_num": "02",
      "stop_sequence": 16,
      "stopping": false,
      "time": null,
      "trip_id": "block_149_trip_10_service_5",
      "trip_num": 10
    },
    {
      "delay": null,
      "departure_time": "14:13:00",
      "old": false,
      "stop_lat": 50.074015,
      "stop_lon": 19.998685,
      "stop_name": "AKF / PK",
      "stop_num": "02",
      "stop_sequence": 17,
      "stopping": false,
      "time": null,
      "trip_id": "block_149_trip_10_service_5",
      "trip_num": 10
    },
    {
      "delay": null,
      "departure_time": "14:14:00",
      "old": false,
      "stop_lat": 50.073539,
      "stop_lon": 19.990254,
      "stop_name": "Muzeum Lotnictwa Polskiego",
      "stop_num": "02",
      "stop_sequence": 18,
      "stopping": false,
      "time": null,
      "trip_id": "block_149_trip_10_service_5",
      "trip_num": 10
    },
    {
      "delay": null,
      "departure_time": "14:17:00",
      "old": false,
      "stop_lat": 50.067597,
      "stop_lon": 19.977192,
      "stop_name": "Białucha",
      "stop_num": "02",
      "stop_sequence": 19,
      "stopping": false,
      "time": null,
      "trip_id": "block_149_trip_10_service_5",
      "trip_num": 10
    },
    {
      "delay": null,
      "departure_time": "14:19:00",
      "old": false,
      "stop_lat": 50.06654,
      "stop_lon": 19.969149,
      "stop_name": "Cystersów",
      "stop_num": "02",
      "stop_sequence": 20,
      "stopping": false,
      "time": null,
      "trip_id": "block_149_trip_10_service_5",
      "trip_num": 10
    },
    {
      "delay": null,
      "departure_time": "14:21:00",
      "old": false,
      "stop_lat": 50.064865,
      "stop_lon": 19.959303,
      "stop_name": "Rondo Mogilskie",
      "stop_num": "03",
      "stop_sequence": 21,
      "stopping": false,
      "time": null,
      "trip_id": "block_149_trip_10_service_5",
      "trip_num": 10
    },
    {
      "delay": null,
      "departure_time": "14:24:00",
      "old": false,
      "stop_lat": 50.057558,
      "stop_lon": 19.957748,
      "stop_name": "Rondo Grzegórzeckie",
      "stop_num": "02",
      "stop_sequence": 22,
      "stopping": false,
      "time": null,
      "trip_id": "block_149_trip_10_service_5",
      "trip_num": 10
    },
    {
      "delay": null,
      "departure_time": "14:26:00",
      "old": false,
      "stop_lat": 50.058678,
      "stop_lon": 19.948657,
      "stop_name": "Hala Targowa",
      "stop_num": "02",
      "stop_sequence": 23,
      "stopping": false,
      "time": null,
      "trip_id": "block_149_trip_10_service_5",
      "trip_num": 10
    },
    {
      "delay": null,
      "departure_time": "14:27:00",
      "old": false,
      "stop_lat": 50.057262,
      "stop_lon": 19.946032,
      "stop_name": "Starowiślna",
      "stop_num": "04",
      "stop_sequence": 24,
      "stopping": false,
      "time": null,
      "trip_id": "block_149_trip_10_service_5",
      "trip_num": 10
    },
    {
      "delay": null,
      "departure_time": "14:29:00",
      "old": false,
      "stop_lat": 50.052258,
      "stop_lon": 19.942061,
      "stop_name": "Stradom",
      "stop_num": "03",
      "stop_sequence": 25,
      "stopping": false,
      "time": null,
      "trip_id": "block_149_trip_10_service_5",
      "trip_num": 10
    },
    {
      "delay": null,
      "departure_time": "14:31:00",
      "old": false,
      "stop_lat": 50.048028,
      "stop_lon": 19.943426,
      "stop_name": "Plac Wolnica",
      "stop_num": "01",
      "stop_sequence": 26,
      "stopping": false,
      "time": null,
      "trip_id": "block_149_trip_10_service_5",
      "trip_num": 10
    },
    {
      "delay": null,
      "departure_time": "14:33:00",
      "old": false,
      "stop_lat": 50.044032,
      "stop_lon": 19.94678,
      "stop_name": "Korona",
      "stop_num": "03",
      "stop_sequence": 27,
      "stopping": false,
      "time": null,
      "trip_id": "block_149_trip_10_service_5",
      "trip_num": 10
    },
    {
      "delay": null,
      "departure_time": "14:34:00",
      "old": false,
      "stop_lat": 50.041496,
      "stop_lon": 19.943119,
      "stop_name": "Smolki",
      "stop_num": "01",
      "stop_sequence": 28,
      "stopping": false,
      "time": null,
      "trip_id": "block_149_trip_10_service_5",
      "trip_num": 10
    },
    {
      "delay": null,
      "departure_time": "14:36:00",
      "old": false,
      "stop_lat": 50.036959,
      "stop_lon": 19.940795,
      "stop_name": "Rondo Matecznego",
      "stop_num": "01",
      "stop_sequence": 29,
      "stopping": false,
      "time": null,
      "trip_id": "block_149_trip_10_service_5",
      "trip_num": 10
    },
    {
      "delay": null,
      "departure_time": "14:38:00",
      "old": false,
      "stop_lat": 50.033644,
      "stop_lon": 19.938697,
      "stop_name": "Rzemieślnicza",
      "stop_num": "01",
      "stop_sequence": 30,
      "stopping": false,
      "time": null,
      "trip_id": "block_149_trip_10_service_5",
      "trip_num": 10
    },
    {
      "delay": null,
      "departure_time": "14:40:00",
      "old": false,
      "stop_lat": 50.030477,
      "stop_lon": 19.936964,
      "stop_name": "Łagiewniki",
      "stop_num": "01",
      "stop_sequence": 31,
      "stopping": false,
      "time": null,
      "trip_id": "block_149_trip_10_service_5",
      "trip_num": 10
    },
    {
      "delay": null,
      "departure_time": "14:42:00",
      "old": false,
      "stop_lat": 50.024577,
      "stop_lon": 19.933922,
      "stop_name": "Łagiewniki ZUS",
      "stop_num": "01",
      "stop_sequence": 32,
      "stopping": false,
      "time": null,
      "trip_id": "block_149_trip_10_service_5",
      "trip_num": 10
    },
    {
      "delay": null,
      "departure_time": "14:44:00",
      "old": false,
      "stop_lat": 50.02111,
      "stop_lon": 19.93288,
      "stop_name": "Łagiewniki SKA",
      "stop_num": "03",
      "stop_sequence": 33,
      "stopping": false,
      "time": null,
      "trip_id": "block_149_trip_10_service_5",
      "trip_num": 10
    },