{
  "stop_times": [
    {
      "delay": null,
      "departure_time": "05:31:00",
      "old": false,
      "stop_lat": 50.029498,
      "stop_lon": 19.935946,
      "stop_name": "Łagiewniki",
      "stop_num": "04",
      "stop_sequence": 2,
      "stopping": false,
      "time": null,
      "trip_id": "block_766_trip_1_service_4",
      "trip_num": 1
    },
    {
      "delay": null,
      "departure_time": "05:33:00",
      "old": false,
      "stop_lat": 50.030486,
      "stop_lon": 19.937053,
      "stop_name": "Łagiewniki",
      "stop_num": "02",
      "stop_sequence": 3,
      "stopping": false,
      "time": null,
      "trip_id": "block_766_trip_1_service_4",
      "trip_num": 1
    },
    {
      "delay": null,
      "departure_time": "05:34:00",
      "old": false,
      "stop_lat": 50.03295,
      "stop_lon": 19.938389,
      "stop_name": "Rzemieślnicza",
      "stop_num": "02",
      "stop_sequence": 4,
      "stopping": false,
      "time": null,
      "trip_id": "block_766_trip_1_service_4",
      "trip_num": 1
    },
    {
      "delay": null,
      "departure_time": "05:35:00",
      "old": false,
      "stop_lat": 50.035927,
      "stop_lon": 19.940363,
      "stop_name": "Rondo Matecznego",
      "stop_num": "02",
      "stop_sequence": 5,
      "stopping": false,
      "time": null,
      "trip_id": "block_766_trip_1_service_4",
      "trip_num": 1
    },
    {
      "delay": null,
      "departure_time": "05:36:00",
      "old": false,
      "stop_lat": 50.041629,
      "stop_lon": 19.943262,
      "stop_name": "Smolki",
      "stop_num": "02",
      "stop_sequence": 6,
      "stopping": false,
      "time": null,
      "trip_id": "block_766_trip_1_service_4",
      "trip_num": 1
    },
    {
      "delay": null,
      "departure_time": "05:38:00",
      "old": false,
      "stop_lat": 50.043604,
      "stop_lon": 19.946683,
      "stop_name": "Korona",
      "stop_num": "01",
      "stop_sequence": 7,
      "stopping": false,
      "time": null,
      "trip_id": "block_766_trip_1_service_4",
      "trip_num": 1
    },
    {
      "delay": null,
      "departure_time": "05:40:00",
      "old": false,
      "stop_lat": 50.045136,
      "stop_lon": 19.954882,
      "stop_name": "Limanowskiego",
      "stop_num": "01",
      "stop_sequence": 8,
      "stopping": false,
      "time": null,
      "trip_id": "block_766_trip_1_service_4",
      "trip_num": 1
    },
    {
      "delay": null,
      "departure_time": "05:42:00",
      "old": false,
      "stop_lat": 50.042438,
      "stop_lon": 19.960723,
      "stop_name": "Podgórze SKA",
      "stop_num": "01",
      "stop_sequence": 9,
      "stopping": false,
      "time": null,
      "trip_id": "block_766_trip_1_service_4",
      "trip_num": 1
    },
    {
      "delay": null,
      "departure_time": "05:43:00",
      "old": false,
      "stop_lat": 50.038989,
      "stop_lon": 19.964548,
      "stop_name": "Cmentarz Podgórski",
      "stop_num": "01",
      "stop_sequence": 10,
      "stopping": false,
      "time": null,
      "trip_id": "block_766_trip_1_service_4",
      "trip_num": 1
    },
    {
      "delay": null,
      "departure_time": "05:45:00",
      "old": false,
      "stop_lat": 50.033435,
      "stop_lon": 19.970294,
      "stop_name": "Dworcowa",
      "stop_num": "01",
      "stop_sequence": 11,
      "stopping": false,
      "time": null,
      "trip_id": "block_766_trip_1_service_4",
      "trip_num": 1
    },
    {
      "delay": null,
      "departure_time": "05:47:00",
      "old": false,
      "stop_lat": 50.027229,
      "stop_lon": 19.976567,
      "stop_name": "Kabel",
      "stop_num": "01",
      "stop_sequence": 12,
      "stopping": false,
      "time": null,
      "trip_id": "block_766_trip_1_service_4",
      "trip_num": 1
    },
    {
      "delay": null,
      "departure_time": "05:50:00",
      "old": false,
      "stop_lat": 50.023027,
      "stop_lon": 19.981791,
      "stop_name": "Bieżanowska",
      "stop_num": "01",
      "stop_sequence": 13,
      "stopping": false,
      "time": null,
      "trip_id": "block_766_trip_1_service_4",
      "trip_num": 1
    },
    {
      "delay": null,
      "departure_time": "05:51:00",
      "old": false,
      "stop_lat": 50.019364,
      "stop_lon": 19.988113,
      "stop_name": "Wlotowa",
      "stop_num": "01",
      "stop_sequence": 14,
      "stopping": false,
      "time": null,
      "trip_id": "block_766_trip_1_service_4",
      "trip_num": 1
    },
    {
      "delay": null,
      "departure_time": "05:52:00",
      "old": false,
      "stop_lat": 50.017526,
      "stop_lon": 19.991105,
      "stop_name": "Prokocim",
      "stop_num": "01",
      "stop_sequence": 15,
      "stopping": false,
      "time": null,
      "trip_id": "block_766_trip_1_service_4",
      "trip_num": 1
    },
    {
      "delay": null,
      "departure_time": "05:54:00",
      "old": false,
      "stop_lat": 50.014443,
      "stop_lon": 19.998952,
      "stop_name": "Prokocim Szpital",
      "stop_num": "01",
      "stop_sequence": 16,
      "stopping": false,
      "time": null,
      "trip_id": "block_766_trip_1_service_4",
      "trip_num": 1
    },
    {
      "delay": null,
      "departure_time": "05:56:00",
      "old": false,
      "stop_lat": 50.016599,
      "stop_lon": 20.007159,
      "stop_name": "Teligi",
      "stop_num": "01",
      "stop_sequence": 17,
      "stopping": false,
      "time": null,
      "trip_id": "block_766_trip_1_service_4",
      "trip_num": 1
    },
    {
      "delay": null,
      "departure_time": "05:57:00",
      "old": false,
      "stop_lat": 50.016128,
      "stop_lon": 20.012098,
      "stop_name": "Nowy Prokocim",
      "stop_num": "01",
      "stop_sequence": 18,
      "stopping": false,
      "time": null,
      "trip_id": "block_766_trip_1_service_4",
      "trip_num": 1
    },
    {
      "delay": null,
      "departure_time": "05:58:00",
      "old": false,
      "stop_lat": 50.016057,
      "stop_lon": 20.019317,
      "stop_name": "Ćwiklińskiej",
      "stop_num": "01",
      "stop_sequence": 19,
      "stopping": false,
      "time": null,
      "trip_id": "block_766_trip_1_service_4",
      "trip_num": 1
    },
    {
      "delay": null,
      "departure_time": "05:59:00",
      "old": false,
      "stop_lat": 50.015608,
      "stop_lon": 20.023053,
      "stop_name": "Nowy Bieżanów P+R",
      "stop_num": "01",
      "stop_sequence": 20,
      "stopping": false,
      "time": null,
      "trip_id": "block_766_trip_1_service_4",
      "trip_num": 1
    },
    {
      "delay": null,
      "departure_time": "06:18:00",
      "old": false,
      "stop_lat": 50.015608,
      "stop_lon": 20.023053,
      "stop_name": "Nowy Bieżanów P+R",
      "stop_num": "01",
      "stop_sequence": 1,
      "stopping": false,
      "time": null,
      "trip_id": "block_766_trip_2_service_4",
      "trip_num": 2
    },
    {
      "delay": null,
      "departure_time": "06:19:00",
      "old": false,
      "stop_lat": 50.015966,
      "stop_lon": 20.019968,
      "stop_name": "Ćwiklińskiej",
      "stop_num": "02",
      "stop_sequence": 2,
      "stopping": false,
      "time": null,
      "trip_id": "block_766_trip_2_service_4",
      "trip_num": 2
    },
    {
      "delay": null,
      "departure_time": "06:20:00",
      "old": false,
      "stop_lat": 50.016318,
      "stop_lon": 20.013226,
      "stop_name": "Nowy Prokocim",
      "stop_num": "02",
      "stop_sequence": 3,
      "stopping": false,
      "time": null,
      "trip_id": "block_766_trip_2_service_4",
      "trip_num": 2
    },
    {
      "delay": null,
      "departure_time": "06:21:00",
      "old": false,
      "stop_lat": 50.016511,
      "stop_lon": 20.007916,
      "stop_name": "Teligi",
      "stop_num": "02",
      "stop_sequence": 4,
      "stopping": false,
      "time": null,
      "trip_id": "block_766_trip_2_service_4",
      "trip_num": 2
    },
    {
      "delay": null,
      "departure_time": "06:22:00",
      "old": false,
      "stop_lat": 50.014585,
      "stop_lon": 20.000171,
      "stop_name": "Prokocim Szpital",
      "stop_num": "02",
      "stop_sequence": 5,
      "stopping": false,
      "time": null,
      "trip_id": "block_766_trip_2_service_4",
      "trip_num": 2
    },
    {
      "delay": null,
      "departure_time": "06:24:00",
      "old": false,
      "stop_lat": 50.017646,
      "stop_lon": 19.990988,
      "stop_name": "Prokocim",
      "stop_num": "02",
      "stop_sequence": 6,
      "stopping": false,
      "time": null,
      "trip_id": "block_766_trip_2_service_4",
      "trip_num": 2
    },
    {
      "delay": null,
      "departure_time": "06:25:00",
      "old": false,
      "stop_lat": 50.019553,
      "stop_lon": 19.987851,
      "stop_name": "Wlotowa",
      "stop_num": "02",
      "stop_sequence": 7,
      "stopping": false,
      "time": null,
      "trip_id": "block_766_trip_2_service_4",
      "trip_num": 2
    },
    {
      "delay": null,
      "departure_time": "06:27:00",
      "old": false,
      "stop_lat": 50.023119,
      "stop_lon": 19.981692,
      "stop_name": "Bieżanowska",
      "stop_num": "02",
      "stop_sequence": 8,
      "stopping": false,
      "time": null,
      "trip_id": "block_766_trip_2_service_4",
      "trip_num": 2
    },
    {
      "delay": null,
      "departure_time": "06:28:00",
      "old": false,
      "stop_lat": 50.026621,
      "stop_lon": 19.977231,
      "stop_name": "Kabel",
      "stop_num": "02",
      "stop_sequence": 9,
      "stopping": false,
      "time": null,
      "trip_id": "block_766_trip_2_service_4",
      "trip_num": 2
    },
    {
      "delay": null,
      "departure_time": "06:30:00",
      "old": false,
      "stop_lat": 50.032673,
      "stop_lon": 19.971078,
      "stop_name": "Dworcowa",
      "stop_num": "02",
      "stop_sequence": 10,
      "stopping": false,
      "time": null,
      "trip_id": "block_766_trip_2_service_4",
      "trip_num": 2
    },
    {
      "delay": null,
      "departure_time": "06:32:00",
      "old": false,
      "stop_lat": 50.038686,
      "stop_lon": 19.964919,
      "stop_name": "Cmentarz Podgórski",
      "stop_num": "02",
      "stop_sequence": 11,
      "stopping": false,
      "time": null,
      "trip_id": "block_766_trip_2_service_4",
      "trip_num": 2
    },
    {
      "delay": null,
      "departure_time": "06:34:00",
      "old": false,
      "stop_lat": 50.04184,
      "stop_lon": 19.961425,
      "stop_name": "Podgórze SKA",
      "stop_num": "02",
      "stop_sequence": 12,
      "stopping": false,
      "time": null,
      "trip_id": "block_766_trip_2_service_4",
      "trip_num": 2
    },
    {
      "delay": null,
      "departure_time": "06:35:00",
      "old": false,
      "stop_lat": 50.045,
      "stop_lon": 19.955911,
      "stop_name": "Limanowskiego",
      "stop_num": "02",
      "stop_sequence": 13,
      "stopping": false,
      "time": null,
      "trip_id": "block_766_trip_2_service_4",
      "trip_num": 2
    },
    {
      "delay": null,
      "departure_time": "06:37:00",
      "old": false,
      "stop_lat": 50.044052,
      "stop_lon": 19.947497,
      "stop_name": "Korona",
      "stop_num": "02",
      "stop_sequence": 14,
      "stopping": false,
      "time": null,
      "trip_id": "block_766_trip_2_service_4",
      "trip_num": 2
    },
    {
      "delay": null,
      "departure_time": "06:39:00",
      "old": false,
      "stop_lat": 50.048114,
      "stop_lon": 19.943448,
      "stop_name": "Plac Wolnica",
      "stop_num": "02",
      "stop_sequence": 15,
      "stopping": false,
      "time": null,
      "trip_id": "block_766_trip_2_service_4",
      "trip_num": 2
    },
    {
      "delay": null,
      "departure_time": "06:41:00",
      "old": false,
      "stop_lat": 50.050842,
      "stop_lon": 19.942415,
      "stop_name": "Stradom",
      "stop_num": "04",
      "stop_sequence": 16,
      "stopping": false,
      "time": null,
      "trip_id": "block_766_trip_2_service_4",
      "trip_num": 2
    },
    {
      "delay": null,
      "departure_time": "06:43:00",
      "old": false,
      "stop_lat": 50.05449,
      "stop_lon": 19.93963,
      "stop_name": "Wawel",
      "stop_num": "01",
      "stop_sequence": 17,
      "stopping": false,
      "time": null,
      "trip_id": "block_766_trip_2_service_4",
      "trip_num": 2
    },
    {
      "delay": null,
      "departure_time": "06:44:00",
      "old": false,
      "stop_lat": 50.058627,
      "stop_lon": 19.940988,
      "stop_name": "św. Gertrudy",
      "stop_num": "01",
      "stop_sequence": 18,
      "stopping": false,
      "time": null,
      "trip_id": "block_766_trip_2_service_4",
      "trip_num": 2
    },
    {
      "delay": null,
      "departure_time": "06:45:00",
      "old": false,
      "stop_lat": 50.05912,
      "stop_lon": 19.93824,
      "stop_name": "Plac Wszystkich Świętych",
      "stop_num": "01",
      "stop_sequence": 19,
      "stopping": false,
      "time": null,
      "trip_id": "block_766_trip_2_service_4",
      "trip_num": 2
    },
    {
      "delay": null,
      "departure_time": "06:47:00",
      "old": false,
      "stop_lat": 50.05903,
      "stop_lon": 19.93387,
      "stop_name": "Filharmonia",
      "stop_num": "01",
      "stop_sequence": 20,
      "stopping": false,
      "time": null,
      "trip_id": "block_766_trip_2_service_4",
      "trip_num": 2
    },
    {
      "delay": null,
      "departure_time": "06:49:00",
      "old": false,
      "stop_lat": 50.055498,
      "stop_lon": 19.928109,
      "stop_name": "Jubilat",
      "stop_num": "01",
      "stop_sequence": 21,
      "stopping": false,
      "time": null,
      "trip_id": "block_766_trip_2_service_4",
      "trip_num": 2
    },
    {
      "delay": null,
      "departure_time": "06:51:00",
      "old": false,
      "stop_lat": 50.053451,
      "stop_lon": 19.921873,
      "stop_name": "Komorowskiego",
      "stop_num": "01",
      "stop_sequence": 22,
      "stopping": false,
      "time": null,
      "trip_id": "block_766_trip_2_service_4",
      "trip_num": 2
    },
    {
      "delay": null,
      "departure_time": "06:52:00",
      "old": false,
      "stop_lat": 50.05263,
      "stop_lon": 19.917407,
      "stop_name": "Salwator",
      "stop_num": "03",
      "stop_sequence": 23,
      "stopping": false,
      "time": null,
      "trip_id": "block_766_trip_2_service_4",
      "trip_num": 2
    },
    {
      "delay": null,
      "departure_time": "06:53:00",
      "old": false,
      "stop_lat": 50.052708,
      "stop_lon": 19.913739,
      "stop_name": "Salwator",
      "stop_num": "01",
      "stop_sequence": 24,
      "stopping": false,
      "time": null,
      "trip_id": "block_766_trip_2_service_4",
      "trip_num": 2
    },
    {
      "delay": null,
      "departure_time": "07:10:00",
      "old": false,
      "stop_lat": 50.052708,
      "stop_lon": 19.913739,
      "stop_name": "Salwator",
      "stop_num": "01",
      "stop_sequence": 1,
      "stopping": false,
      "time": null,
      "trip_id": "block_766_trip_3_service_4",
      "trip_num": 3
    },
    {
      "delay": null,
      "departure_time": "07:11:00",
      "old": false,
      "stop_lat": 50.052724,
      "stop_lon": 19.915028,
      "stop_name": "Salwator",
      "stop_num": "02",
      "stop_sequence": 2,
      "stopping": false,
      "time": null,
      "trip_id": "block_766_trip_3_service_4",
      "trip_num": 3
    },
    {
      "delay": null,
      "departure_time": "07:12:00",
      "old": false,
      "stop_lat": 50.053384,
      "stop_lon": 19.921893,
      "stop_name": "Komorowskiego",
      "stop_num": "02",
      "stop_sequence": 3,
      "stopping": false,
      "time": null,
      "trip_id": "block_766_trip_3_service_4",
      "trip_num": 3
    },
    {
      "delay": null,
      "departure_time": "07:14:00",
      "old": false,
      "stop_lat": 50.054999,
      "stop_lon": 19.927052,
      "stop_name": "Jubilat",
      "stop_num": "02",
      "stop_sequence": 4,
      "stopping": false,
      "time": null,
      "trip_id": "block_766_trip_3_service_4",
      "trip_num": 3
    },
    {
      "delay": null,
      "departure_time": "07:17:00",
      "old": false,
      "stop_lat": 50.058666,
      "stop_lon": 19.933001,
      "stop_name": "Filharmonia",
      "stop_num": "02",
      "stop_sequence": 5,
      "stopping": false,
      "time": null,
      "trip_id": "block_766_trip_3_service_4",
      "trip_num": 3
    },
    {
      "delay": null,
      "departure_time": "07:18:00",
      "old": false,
      "stop_lat": 50.059113,
      "stop_lon": 19.937497,
      "stop_name": "Plac Wszystkich Świętych",
      "stop_num": "02",
      "stop_sequence": 6,
      "stopping": false,
      "time": null,
      "trip_id": "block_766_trip_3_service_4",
      "trip_num": 3
    },
    {
      "delay": null,
      "departure_time": "07:20:00",
      "old": false,
      "stop_lat": 50.058486,
      "stop_lon": 19.940838,
      "stop_name": "św. Gertrudy",
      "stop_num": "02",
      "stop_sequence": 7,
      "stopping": false,
      "time": null,
      "trip_id": "block_766_trip_3_service_4",
      "trip_num": 3
    },
    {
      "delay": null,
      "departure_time": "07:21:00",
      "old": false,
      "stop_lat": 50.054324,
      "stop_lon": 19.939295,
      "stop_name": "Wawel",
      "stop_num": "02",
      "stop_sequence": 8,
      "stopping": false,
      "time": null,
      "trip_id": "block_766_trip_3_service_4",
      "trip_num": 3
    },
    {
      "delay": null,
      "departure_time": "07:23:00",
      "old": false,
      "stop_lat": 50.052086,
      "stop_lon": 19.941166,
      "stop_name": "Stradom",
      "stop_num": "02",
      "stop_sequence": 9,
      "stopping": false,
      "time": null,
      "trip_id": "block_766_trip_3_service_4",
      "trip_num": 3
    },
    {
      "delay": null,
      "departure_time": "07:25:00",
      "old": false,
      "stop_lat": 50.048028,
      "stop_lon": 19.943426,
      "stop_name": "Plac Wolnica",
      "stop_num": "01",
      "stop_sequence": 10,
      "stopping": false,
      "time": null,
      "trip_id": "block_766_trip_3_service_4",
      "trip_num": 3
    },
    {
      "delay": null,
      "departure_time": "07:27:00",
      "old": false,
      "stop_lat": 50.044032,
      "stop_lon": 19.94678,
      "stop_name": "Korona",
      "stop_num": "03",
      "stop_sequence": 11,
      "stopping": false,
      "time": null,
      "trip_id": "block_766_trip_3_service_4",
      "trip_num": 3
    },
    {
      "delay": null,
      "departure_time": "07:29:00",
      "old": false,
      "stop_lat": 50.045136,
      "stop_lon": 19.954882,
      "stop_name": "Limanowskiego",
      "stop_num": "01",
      "stop_sequence": 12,
      "stopping": false,
      "time": null,
      "trip_id": "block_766_trip_3_service_4",
      "trip_num": 3
    },
    {
      "delay": null,
      "departure_time": "07:31:00",
      "old": false,
      "stop_lat": 50.042438,
      "stop_lon": 19.960723,
      "stop_name": "Podgórze SKA",
      "stop_num": "01",
      "stop_sequence": 13,
      "stopping": false,
      "time": null,
      "trip_id": "block_766_trip_3_service_4",
      "trip_num": 3
    },
    {
      "delay": null,
      "departure_time": "07:32:00",
      "old": false,
      "stop_lat": 50.038989,
      "stop_lon": 19.964548,
      "stop_name": "Cmentarz Podgórski",
      "stop_num": "01",
      "stop_sequence": 14,
      "stopping": false,
      "time": null,
      "trip_id": "block_766_trip_3_service_4",
      "trip_num": 3
    },
    {
      "delay": null,
      "departure_time": "07:34:00",
      "old": false,
      "stop_lat": 50.033435,
      "stop_lon": 19.970294,
      "stop_name": "Dworcowa",
      "stop_num": "01",
      "stop_sequence": 15,
      "stopping": false,
      "time": null,
      "trip_id": "block_766_trip_3_service_4",
      "trip_num": 3
    },
    {
      "delay": null,
      "departure_time": "07:36:00",
      "old": false,
      "stop_lat": 50.027229,
      "stop_lon": 19.976567,
      "stop_name": "Kabel",
      "stop_num": "01",
      "stop_sequence": 16,
      "stopping": false,
      "time": null,
      "trip_id": "block_766_trip_3_service_4",
      "trip_num": 3
    },
    {
      "delay": null,
      "departure_time": "07:39:00",
      "old": false,
      "stop_lat": 50.023027,
      "stop_lon": 19.981791,
      "stop_name": "Bieżanowska",
      "stop_num": "01",
      "stop_sequence": 17,
      "stopping": false,
      "time": null,
      "trip_id": "block_766_trip_3_service_4",
      "trip_num": 3
    },
    {
      "delay": null,
      "departure_time": "07:40:00",
      "old": false,
      "stop_lat": 50.019364,
      "stop_lon": 19.988113,
      "stop_name": "Wlotowa",
      "stop_num": "01",
      "stop_sequence": 18,
      "stopping": false,
      "time": null,
      "trip_id": "block_766_trip_3_service_4",
      "trip_num": 3
    },
    {
      "delay": null,
      "departure_time": "07:41:00",
      "old": false,
      "stop_lat": 50.017526,
      "stop_lon": 19.991105,
      "stop_name": "Prokocim",
      "stop_num": "01",
      "stop_sequence": 19,
      "stopping": false,
      "time": null,
      "trip_id": "block_766_trip_3_service_4",
      "trip_num": 3
    },
    {
      "delay": null,
      "departure_time": "07:43:00",
      "old": false,
      "stop_lat": 50.014443,
      "stop_lon": 19.998952,
      "stop_name": "Prokocim Szpital",
      "stop_num": "01",
      "stop_sequence": 20,
      "stopping": false,
      "time": null,
      "trip_id": "block_766_trip_3_service_4",
      "trip_num": 3
    },
    {
      "delay": null,
      "departure_time": "07:45:00",
      "old": false,
      "stop_lat": 50.016599,
      "stop_lon": 20.007159,
      "stop_name": "Teligi",
      "stop_num": "01",
      "stop_sequence": 21,
      "stopping": false,
      "time": null,
      "trip_id": "block_766_trip_3_service_4",
      "trip_num": 3
    },
    {
      "delay": null,
      "departure_time": "07:46:00",
      "old": false,
      "stop_lat": 50.016128,
      "stop_lon": 20.012098,
      "stop_name": "Nowy Prokocim",
      "stop_num": "01",
      "stop_sequence": 22,
      "stopping": false,
      "time": null,
      "trip_id": "block_766_trip_3_service_4",
      "trip_num": 3
    },
    {
      "delay": null,
      "departure_time": "07:47:00",
      "old": false,
      "stop_lat": 50.016057,
      "stop_lon": 20.019317,
      "stop_name": "Ćwiklińskiej",
      "stop_num": "01",
      "stop_sequence": 23,
      "stopping": false,
      "time": null,
      "trip_id": "block_766_trip_3_service_4",
      "trip_num": 3
    },
    {
      "delay": null,
      "departure_time": "07:48:00",
      "old": false,
      "stop_lat": 50.015608,
      "stop_lon": 20.023053,
      "stop_name": "Nowy Bieżanów P+R",
      "stop_num": "01",
      "stop_sequence": 24,
      "stopping": false,
      "time": null,
      "trip_id": "block_766_trip_3_service_4",
      "trip_num": 3
    },
    {
      "delay": null,
      "departure_time": "08:04:00",
      "old": false,
      "stop_lat": 50.015608,
      "stop_lon": 20.023053,
      "stop_name": "Nowy Bieżanów P+R",
      "stop_num": "01",
      "stop_sequence": 1,
      "stopping": false,
      "time": null,
      "trip_id": "block_766_trip_4_service_4",
      "trip_num": 4
    },
    {
      "delay": null,
      "departure_time": "08:05:00",
      "old": false,
      "stop_lat": 50.015966,
      "stop_lon": 20.019968,
      "stop_name": "Ćwiklińskiej",
      "stop_num": "02",
      "stop_sequence": 2,
      "stopping": false,
      "time": null,
      "trip_id": "block_766_trip_4_service_4",
      "trip_num": 4
    },
    {
      "delay": null,
      "departure_time": "08:06:00",
      "old": false,
      "stop_lat": 50.016318,
      "stop_lon": 20.013226,
      "stop_name": "Nowy Prokocim",
      "stop_num": "02",
      "stop_sequence": 3,
      "stopping": false,
      "time": null,
      "trip_id": "block_766_trip_4_service_4",
      "trip_num": 4
    },
    {
      "delay": null,
      "departure_time": "08:07:00",
      "old": false,
      "stop_lat": 50.016511,
      "stop_lon": 20.007916,
      "stop_name": "Teligi",
      "stop_num": "02",
      "stop_sequence": 4,
      "stopping": false,
      "time": null,
      "trip_id": "block_766_trip_4_service_4",
      "trip_num": 4
    },
    {
      "delay": null,
      "departure_time": "08:08:00",
      "old": false,
      "stop_lat": 50.014585,
      "stop_lon": 20.000171,
      "stop_name": "Prokocim Szpital",
      "stop_num": "02",
      "stop_sequence": 5,
      "stopping": false,
      "time": null,
      "trip_id": "block_766_trip_4_service_4",
      "trip_num": 4
    },
    {
      "delay": null,
      "departure_time": "08:10:00",
      "old": false,
      "stop_lat": 50.017646,
      "stop_lon": 19.990988,
      "stop_name": "Prokocim",
      "stop_num": "02",
      "stop_sequence": 6,
      "stopping": false,
      "time": null,
      "trip_id": "block_766_trip_4_service_4",
      "trip_num": 4
    },
    {
      "delay": null,
      "departure_time": "08:11:00",
      "old": false,
      "stop_lat": 50.019553,
      "stop_lon": 19.987851,
      "stop_name": "Wlotowa",
      "stop_num": "02",
      "stop_sequence": 7,
      "stopping": false,
      "time": null,
      "trip_id": "block_766_trip_4_service_4",
      "trip_num": 4
    },
    {
      "delay": null,
      "departure_time": "08:13:00",
      "old": false,
      "stop_lat": 50.023119,
      "stop_lon": 19.981692,
      "stop_name": "Bieżanowska",
      "stop_num": "02",
      "stop_sequence": 8,
      "stopping": false,
      "time": null,
      "trip_id": "block_766_trip_4_service_4",
      "trip_num": 4
    },
    {
      "delay": null,
      "departure_time": "08:14:00",
      "old": false,
      "stop_lat": 50.026621,
      "stop_lon": 19.977231,
      "stop_name": "Kabel",
      "stop_num": "02",
      "stop_sequence": 9,
      "stopping": false,
      "time": null,
      "trip_id": "block_766_trip_4_service_4",
      "trip_num": 4
    },
    {
      "delay": null,
      "departure_time": "08:16:00",
      "old": false,
      "stop_lat": 50.032673,
      "stop_lon": 19.971078,
      "stop_name": "Dworcowa",
      "stop_num": "02",
      "stop_sequence": 10,
      "stopping": false,
      "time": null,
      "trip_id": "block_766_trip_4_service_4",
      "trip_num": 4
    },
    {
      "delay": null,
      "departure_time": "08:18:00",
      "old": false,
      "stop_lat": 50.038686,
      "stop_lon": 19.964919,
      "stop_name": "Cmentarz Podgórski",
      "stop_num": "02",
      "stop_sequence": 11,
      "stopping": false,
      "time": null,
      "trip_id": "block_766_trip_4_service_4",
      "trip_num": 4
    },
    {
      "delay": null,
      "departure_time": "08:20:00",
      "old": false,
      "stop_lat": 50.04184,
      "stop_lon": 19.961425,
      "stop_name": "Podgórze SKA",
      "stop_num": "02",
      "stop_sequence": 12,
      "stopping": false,
      "time": null,
      "trip_id": "block_766_trip_4_service_4",
      "trip_num": 4
    },
    {
      "delay": null,
      "departure_time": "08:21:00",
      "old": false,
      "stop_lat": 50.045,
      "stop_lon": 19.955911,
      "stop_name": "Limanowskiego",
      "stop_num": "02",
      "stop_sequence": 13,
      "stopping": false,
      "time": null,
      "trip_id": "block_766_trip_4_service_4",
      "trip_num": 4
    },
    {
      "delay": null,
      "departure_time": "08:23:00",
      "old": false,
      "stop_lat": 50.044052,
      "stop_lon": 19.947497,
      "stop_name": "Korona",
      "stop_num": "02",
      "stop_sequence": 14,
      "stopping": false,
      "time": null,
      "trip_id": "block_766_trip_4_service_4",
      "trip_num": 4
    },
    {
      "delay": null,
      "departure_time": "08:25:00",
      "old": false,
      "stop_lat": 50.048114,
      "stop_lon": 19.943448,
      "stop_name": "Plac Wolnica",
      "stop_num": "02",
      "stop_sequence": 15,
      "stopping": false,
      "time": null,
      "trip_id": "block_766_trip_4_service_4",
      "trip_num": 4
    },
    {
      "delay": null,
      "departure_time": "08:27:00",
      "old": false,
      "stop_lat": 50.050842,
      "stop_lon": 19.942415,
      "stop_name": "Stradom",
      "stop_num": "04",
      "stop_sequence": 16,
      "stopping": false,
      "time": null,
      "trip_id": "block_766_trip_4_service_4",
      "trip_num": 4
    },
    {
      "delay": null,
      "departure_time": "08:29:00",
      "old": false,
      "stop_lat": 50.05449,
      "stop_lon": 19.93963,
      "stop_name": "Wawel",
      "stop_num": "01",
      "stop_sequence": 17,
      "stopping": false,
      "time": null,
      "trip_id": "block_766_trip_4_service_4",
      "trip_num": 4
    },
    {
      "delay": null,
      "departure_time": "08:30:00",
      "old": false,
      "stop_lat": 50.058627,
      "stop_lon": 19.940988,
      "stop_name": "św. Gertrudy",
      "stop_num": "01",
      "stop_sequence": 18,
      "stopping": false,
      "time": null,
      "trip_id": "block_766_trip_4_service_4",
      "trip_num": 4
    },
    {
      "delay": null,
      "departure_time": "08:32:00",
      "old": false,
      "stop_lat": 50.05912,
      "stop_lon": 19.93824,
      "stop_name": "Plac Wszystkich Świętych",
      "stop_num": "01",
      "stop_sequence": 19,
      "stopping": false,
      "time": null,
      "trip_id": "block_766_trip_4_service_4",
      "trip_num": 4
    },
    {
      "delay": null,
      "departure_time": "08:34:00",
      "old": false,
      "stop_lat": 50.05903,
      "stop_lon": 19.93387,
      "stop_name": "Filharmonia",
      "stop_num": "01",
      "stop_sequence": 20,
      "stopping": false,
      "time": null,
      "trip_id": "block_766_trip_4_service_4",
      "trip_num": 4
    },
    {
      "delay": null,
      "departure_time": "08:36:00",
      "old": false,
      "stop_lat": 50.055498,
      "stop_lon": 19.928109,
      "stop_name": "Jubilat",
      "stop_num": "01",
      "stop_sequence": 21,
      "stopping": false,
      "time": null,
      "trip_id": "block_766_trip_4_service_4",
      "trip_num": 4
    },
    {
      "delay": null,
      "departure_time": "08:38:00",
      "old": false,
      "stop_lat": 50.053451,
      "stop_lon": 19.921873,
      "stop_name": "Komorowskiego",
      "stop_num": "01",
      "stop_sequence": 22,
      "stopping": false,
      "time": null,
      "trip_id": "block_766_trip_4_service_4",
      "trip_num": 4
    },
    {
      "delay": null,
      "departure_time": "08:39:00",
      "old": false,
      "stop_lat": 50.05263,
      "stop_lon": 19.917407,
      "stop_name": "Salwator",
      "stop_num": "03",
      "stop_sequence": 23,
      "stopping": false,
      "time": null,
      "trip_id": "block_766_trip_4_service_4",
      "trip_num": 4
    },
    {
      "delay": null,
      "departure_time": "08:40:00",
      "old": false,
      "stop_lat": 50.052708,
      "stop_lon": 19.913739,
      "stop_name": "Salwator",
      "stop_num": "01",
      "stop_sequence": 24,
      "stopping": false,
      "time": null,
      "trip_id": "block_766_trip_4_service_4",
      "trip_num": 4
    },
    {
      "delay": null,
      "departure_time": "08:55:00",
      "old": false,
      "stop_lat": 50.052708,
      "stop_lon": 19.913739,
      "stop_name": "Salwator",
      "stop_num": "01",
      "stop_sequence": 1,
      "stopping": false,
      "time": null,
      "trip_id": "block_766_trip_5_service_4",
      "trip_num": 5
    },
    {
      "delay": null,
      "departure_time": "08:56:00",
      "old": false,
      "stop_lat": 50.052724,
      "stop_lon": 19.915028,
      "stop_name": "Salwator",
      "stop_num": "02",
      "stop_sequence": 2,
      "stopping": false,
      "time": null,
      "trip_id": "block_766_trip_5_service_4",
      "trip_num": 5
    },
    {
      "delay": null,
      "departure_time": "08:57:00",
      "old": false,
      "stop_lat": 50.053384,
      "stop_lon": 19.921893,
      "stop_name": "Komorowskiego",
      "stop_num": "02",
      "stop_sequence": 3,
      "stopping": false,
      "time": null,
      "trip_id": "block_766_trip_5_service_4",
      "trip_num": 5
    },
    {
      "delay": null,
      "departure_time": "08:59:00",
      "old": false,
      "stop_lat": 50.054999,
      "stop_lon": 19.927052,
      "stop_name": "Jubilat",
      "stop_num": "02",
      "stop_sequence": 4,
      "stopping": false,
      "time": null,
      "trip_id": "block_766_trip_5_service_4",
      "trip_num": 5
    },
    {
      "delay": null,
      "departure_time": "09:02:00",
      "old": false,
      "stop_lat": 50.058666,
      "stop_lon": 19.933001,
      "stop_name": "Filharmonia",
      "stop_num": "02",
      "stop_sequence": 5,
      "stopping": false,
      "time": null,
      "trip_id": "block_766_trip_5_service_4",
      "trip_num": 5
    },
    {
      "delay": null,
      "departure_time": "09:03:00",
      "old": false,
      "stop_lat": 50.059113,
      "stop_lon": 19.937497,
      "stop_name": "Plac Wszystkich Świętych",
      "stop_num": "02",
      "stop_sequence": 6,
      "stopping": false,
      "time": null,
      "trip_id": "block_766_trip_5_service_4",
      "trip_num": 5
    },
    {
      "delay": null,
      "departure_time": "09:05:00",
      "old": false,
      "stop_lat": 50.058486,
      "stop_lon": 19.940838,
      "stop_name": "św. Gertrudy",
      "stop_num": "02",
      "stop_sequence": 7,
      "stopping": false,
      "time": null,
      "trip_id": "block_766_trip_5_service_4",
      "trip_num": 5
    },
    {
      "delay": null,
      "departure_time": "09:06:00",
      "old": false,
      "stop_lat": 50.054324,
      "stop_lon": 19.939295,
      "stop_name": "Wawel",
      "stop_num": "02",
      "stop_sequence": 8,
      "stopping": false,
      "time": null,
      "trip_id": "block_766_trip_5_service_4",
      "trip_num": 5
    },
    {
      "delay": null,
      "departure_time": "09:08:00",
      "old": false,
      "stop_lat": 50.052086,
      "stop_lon": 19.941166,
      "stop_name": "Stradom",
      "stop_num": "02",
      "stop_sequence": 9,
      "stopping": false,
      "time": null,
      "trip_id": "block_766_trip_5_service_4",
      "trip_num": 5
    },
    {
      "delay": null,
      "departure_time": "09:10:00",
      "old": false,
      "stop_lat": 50.048028,
      "stop_lon": 19.943426,
      "stop_name": "Plac Wolnica",
      "stop_num": "01",
      "stop_sequence": 10,
      "stopping": false,
      "time": null,
      "trip_id": "block_766_trip_5_service_4",
      "trip_num": 5
    },
    {
      "delay": null,
      "departure_time": "09:12:00",
      "old": false,
      "stop_lat": 50.044032,
      "stop_lon": 19.94678,
      "stop_name": "Korona",
      "stop_num": "03",
      "stop_sequence": 11,
      "stopping": false,
      "time": null,
      "trip_id": "block_766_trip_5_service_4",
      "trip_num": 5
    },
    {
      "delay": null,
      "departure_time": "09:14:00",
      "old": false,
      "stop_lat": 50.045136,
      "stop_lon": 19.954882,
      "stop_name": "Limanowskiego",
      "stop_num": "01",
      "stop_sequence": 12,
      "stopping": false,
      "time": null,
      "trip_id": "block_766_trip_5_service_4",
      "trip_num": 5
    },
    {
      "delay": null,
      "departure_time": "09:16:00",
      "old": false,
      "stop_lat": 50.042438,
      "stop_lon": 19.960723,
      "stop_name": "Podgórze SKA",
      "stop_num": "01",
      "stop_sequence": 13,
      "stopping": false,
      "time": null,
      "trip_id": "block_766_trip_5_service_4",
      "trip_num": 5
    },
    {
      "delay": null,
      "departure_time": "09:17:00",
      "old": false,
      "stop_lat": 50.038989,
      "stop_lon": 19.964548,
      "stop_name": "Cmentarz Podgórski",
      "stop_num": "01",
      "stop_sequence": 14,
      "stopping": false,
      "time": null,
      "trip_id": "block_766_trip_5_service_4",
      "trip_num": 5
    },
    {
      "delay": null,
      "departure_time": "09:19:00",
      "old": false,
      "stop_lat": 50.033435,
      "stop_lon": 19.970294,
      "stop_name": "Dworcowa",
      "stop_num": "01",
      "stop_sequence": 15,
      "stopping": false,
      "time": null,
      "trip_id": "block_766_trip_5_service_4",
      "trip_num": 5
    },
    {
      "delay": null,
      "departure_time": "09:21:00",
      "old": false,
      "stop_lat": 50.027229,
      "stop_lon": 19.976567,
      "stop_name": "Kabel",
      "stop_num": "01",
      "stop_sequence": 16,
      "stopping": false,
      "time": null,
      "trip_id": "block_766_trip_5_service_4",
      "trip_num": 5
    },
    {
      "delay": null,
      "departure_time": "09:24:00",
      "old": false,
      "stop_lat": 50.023027,
      "stop_lon": 19.981791,
      "stop_name": "Bieżanowska",
      "stop_num": "01",
      "stop_sequence": 17,
      "stopping": false,
      "time": null,
      "trip_id": "block_766_trip_5_service_4",
      "trip_num": 5
    },
    {
      "delay": null,
      "departure_time": "09:25:00",
      "old": false,
      "stop_lat": 50.019364,
      "stop_lon": 19.988113,
      "stop_name": "Wlotowa",
      "stop_num": "01",
      "stop_sequence": 18,
      "stopping": false,
      "time": null,
      "trip_id": "block_766_trip_5_service_4",
      "trip_num": 5
    },
    {
      "delay": null,
      "departure_time": "09:26:00",
      "old": false,
      "stop_lat": 50.017526,
      "stop_lon": 19.991105,
      "stop_name": "Prokocim",
      "stop_num": "01",
      "stop_sequence": 19,
      "stopping": false,
      "time": null,
      "trip_id": "block_766_trip_5_service_4",
      "trip_num": 5
    },
    {
      "delay": null,
      "departure_time": "09:28:00",
      "old": false,
      "stop_lat": 50.014443,
      "stop_lon": 19.998952,
      "stop_name": "Prokocim Szpital",
      "stop_num": "01",
      "stop_sequence": 20,
      "stopping": false,
      "time": null,
      "trip_id": "block_766_trip_5_service_4",
      "trip_num": 5
    },
    {
      "delay": null,
      "departure_time": "09:30:00",
      "old": false,
      "stop_lat": 50.016599,
      "stop_lon": 20.007159,
      "stop_name": "Teligi",
      "stop_num": "01",
      "stop_sequence": 21,
      "stopping": false,
      "time": null,
      "trip_id": "block_766_trip_5_service_4",
      "trip_num": 5
    },
    {
      "delay": null,
      "departure_time": "09:31:00",
      "old": false,
      "stop_lat": 50.016128,
      "stop_lon": 20.012098,
      "stop_name": "Nowy Prokocim",
      "stop_num": "01",
      "stop_sequence": 22,
      "stopping": false,
      "time": null,
      "trip_id": "block_766_trip_5_service_4",
      "trip_num": 5
    },
    {
      "delay": null,
      "departure_time": "09:32:00",
      "old": false,
      "stop_lat": 50.016057,
      "stop_lon": 20.019317,
      "stop_name": "Ćwiklińskiej",
      "stop_num": "01",
      "stop_sequence": 23,
      "stopping": false,
      "time": null,
      "trip_id": "block_766_trip_5_service_4",
      "trip_num": 5
    },
    {
      "delay": null,
      "departure_time": "09:33:00",
      "old": false,
      "stop_lat": 50.015608,
      "stop_lon": 20.023053,
      "stop_name": "Nowy Bieżanów P+R",
      "stop_num": "01",
      "stop_sequence": 24,
      "stopping": false,
      "time": null,
      "trip_id": "block_766_trip_5_service_4",
      "trip_num": 5
    },
    {
      "delay": null,
      "departure_time": "09:56:00",
      "old": false,
      "stop_lat": 50.015608,
      "stop_lon": 20.023053,
      "stop_name": "Nowy Bieżanów P+R",
      "stop_num": "01",
      "stop_sequence": 1,
      "stopping": false,
      "time": null,
      "trip_id": "block_766_trip_6_service_4",
      "trip_num": 6
    },
    {
      "delay": null,
      "departure_time": "09:57:00",
      "old": false,
      "stop_lat": 50.015966,
      "stop_lon": 20.019968,
      "stop_name": "Ćwiklińskiej",
      "stop_num": "02",
      "stop_sequence": 2,
      "stopping": false,
      "time": null,
      "trip_id": "block_766_trip_6_service_4",
      "trip_num": 6
    },
    {
      "delay": null,
      "departure_time": "09:58:00",
      "old": false,
      "stop_lat": 50.016318,
      "stop_lon": 20.013226,
      "stop_name": "Nowy Prokocim",
      "stop_num": "02",
      "stop_sequence": 3,
      "stopping": false,
      "time": null,
      "trip_id": "block_766_trip_6_service_4",
      "trip_num": 6
    },
    {
      "delay": null,
      "departure_time": "09:59:00",
      "old": false,
      "stop_lat": 50.016511,
      "stop_lon": 20.007916,
      "stop_name": "Teligi",
      "stop_num": "02",
      "stop_sequence": 4,
      "stopping": false,
      "time": null,
      "trip_id": "block_766_trip_6_service_4",
      "trip_num": 6
    },
    {
      "delay": null,
      "departure_time": "10:00:00",
      "old": false,
      "stop_lat": 50.014585,
      "stop_lon": 20.000171,
      "stop_name": "Prokocim Szpital",
      "stop_num": "02",
      "stop_sequence": 5,
      "stopping": false,
      "time": null,
      "trip_id": "block_766_trip_6_service_4",
      "trip_num": 6
    },
    {
      "delay": null,
      "departure_time": "10:02:00",
      "old": false,
      "stop_lat": 50.017646,
      "stop_lon": 19.990988,
      "stop_name": "Prokocim",
      "stop_num": "02",
      "stop_sequence": 6,
      "stopping": false,
      "time": null,
      "trip_id": "block_766_trip_6_service_4",
      "trip_num": 6
    },
    {
      "delay": null,
      "departure_time": "10:03:00",
      "old": false,
      "stop_lat": 50.019553,
      "stop_lon": 19.987851,
      "stop_name": "Wlotowa",
      "stop_num": "02",
      "stop_sequence": 7,
      "stopping": false,
      "time": null,
      "trip_id": "block_766_trip_6_service_4",
      "trip_num": 6
    },
    {
      "delay": null,
      "departure_time": "10:05:00",
      "old": false,
      "stop_lat": 50.023119,
      "stop_lon": 19.981692,
      "stop_name": "Bieżanowska",
      "stop_num": "02",
      "stop_sequence": 8,
      "stopping": false,
      "time": null,
      "trip_id": "block_766_trip_6_service_4",
      "trip_num": 6
    },
    {
      "delay": null,
      "departure_time": "10:06:00",
      "old": false,
      "stop_lat": 50.026621,
      "stop_lon": 19.977231,
      "stop_name": "Kabel",
      "stop_num": "02",
      "stop_sequence": 9,
      "stopping": false,
      "time": null,
      "trip_id": "block_766_trip_6_service_4",
      "trip_num": 6
    },
    {
      "delay": null,
      "departure_time": "10:08:00",
      "old": false,
      "stop_lat": 50.032673,
      "stop_lon": 19.971078,
      "stop_name": "Dworcowa",
      "stop_num": "02",
      "stop_sequence": 10,
      "stopping": false,
      "time": null,
      "trip_id": "block_766_trip_6_service_4",
      "trip_num": 6
    },
    {
      "delay": null,
      "departure_time": "10:10:00",
      "old": false,
      "stop_lat": 50.038686,
      "stop_lon": 19.964919,
      "stop_name": "Cmentarz Podgórski",
      "stop_num": "02",
      "stop_sequence": 11,
      "stopping": false,
      "time": null,
      "trip_id": "block_766_trip_6_service_4",
      "trip_num": 6
    },
    {
      "delay": null,
      "departure_time": "10:12:00",
      "old": false,
      "stop_lat": 50.04184,
      "stop_lon": 19.961425,
      "stop_name": "Podgórze SKA",
      "stop_num": "02",
      "stop_sequence": 12,
      "stopping": false,
      "time": null,
      "trip_id": "block_766_trip_6_service_4",
      "trip_num": 6
    },
    {
      "delay": null,
      "departure_time": "10:13:00",
      "old": false,
      "stop_lat": 50.045,
      "stop_lon": 19.955911,
      "stop_name": "Limanowskiego",
      "stop_num": "02",
      "stop_sequence": 13,
      "stopping": false,
      "time": null,
      "trip_id": "block_766_trip_6_service_4",
      "trip_num": 6
    },
    {
      "delay": null,
      "departure_time": "10:15:00",
      "old": false,
      "stop_lat": 50.044052,
      "stop_lon": 19.947497,
      "stop_name": "Korona",
      "stop_num": "02",
      "stop_sequence": 14,
      "stopping": false,
      "time": null,
      "trip_id": "block_766_trip_6_service_4",
      "trip_num": 6
    },
    {
      "delay": null,
      "departure_time": "10:17:00",
      "old": false,
      "stop_lat": 50.048114,
      "stop_lon": 19.943448,
      "stop_name": "Plac Wolnica",
      "stop_num": "02",
      "stop_sequence": 15,
      "stopping": false,
      "time": null,
      "trip_id": "block_766_trip_6_service_4",
      "trip_num": 6
    },
    {
      "delay": null,
      "departure_time": "10:19:00",
      "old": false,
      "stop_lat": 50.050842,
      "stop_lon": 19.942415,
      "stop_name": "Stradom",
      "stop_num": "04",
      "stop_sequence": 16,
      "stopping": false,
      "time": null,
      "trip_id": "block_766_trip_6_service_4",
      "trip_num": 6
    },
    {
      "delay": null,
      "departure_time": "10:21:00",
      "old": false,
      "stop_lat": 50.05449,
      "stop_lon": 19.93963,
      "stop_name": "Wawel",
      "stop_num": "01",
      "stop_sequence": 17,
      "stopping": false,
      "time": null,
      "trip_id": "block_766_trip_6_service_4",
      "trip_num": 6
    },
    {
      "delay": null,
      "departure_time": "10:22:00",
      "old": false,
      "stop_lat": 50.058627,
      "stop_lon": 19.940988,
      "stop_name": "św. Gertrudy",
      "stop_num": "01",
      "stop_sequence": 18,
      "stopping": false,
      "time": null,
      "trip_id": "block_766_trip_6_service_4",
      "trip_num": 6
    },
    {
      "delay": null,
      "departure_time": "10:24:00",
      "old": false,
      "stop_lat": 50.05912,
      "stop_lon": 19.93824,
      "stop_name": "Plac Wszystkich Świętych",
      "stop_num": "01",
      "stop_sequence": 19,
      "stopping": false,
      "time": null,
      "trip_id": "block_766_trip_6_service_4",
      "trip_num": 6
    },
    {
      "delay": null,
      "departure_time": "10:26:00",
      "old": false,
      "stop_lat": 50.05903,
      "stop_lon": 19.93387,
      "stop_name": "Filharmonia",
      "stop_num": "01",
      "stop_sequence": 20,
      "stopping": false,
      "time": null,
      "trip_id": "block_766_trip_6_service_4",
      "trip_num": 6
    },
    {
      "delay": null,
      "departure_time": "10:28:00",
      "old": false,
      "stop_lat": 50.055498,
      "stop_lon": 19.928109,
      "stop_name": "Jubilat",
      "stop_num": "01",
      "stop_sequence": 21,
      "stopping": false,
      "time": null,
      "trip_id": "block_766_trip_6_service_4",
      "trip_num": 6
    },
    {
      "delay": null,
      "departure_time": "10:30:00",
      "old": false,
      "stop_lat": 50.053451,
      "stop_lon": 19.921873,
      "stop_name": "Komorowskiego",
      "stop_num": "01",
      "stop_sequence": 22,
      "stopping": false,
      "time": null,
      "trip_id": "block_766_trip_6_service_4",
      "trip_num": 6
    },
    {
      "delay": null,
      "departure_time": "10:31:00",
      "old": false,
      "stop_lat": 50.05263,
      "stop_lon": 19.917407,
      "stop_name": "Salwator",
      "stop_num": "03",
      "stop_sequence": 23,
      "stopping": false,
      "time": null,
      "trip_id": "block_766_trip_6_service_4",
      "trip_num": 6
    },
    {
      "delay": null,
      "departure_time": "10:32:00",
      "old": false,
      "stop_lat": 50.052708,
      "stop_lon": 19.913739,
      "stop_name": "Salwator",
      "stop_num": "01",
      "stop_sequence": 24,
      "stopping": false,
      "time": null,
      "trip_id": "block_766_trip_6_service_4",
      "trip_num": 6
    },
    {
      "delay": null,
      "departure_time": "10:40:00",
      "old": false,
      "stop_lat": 50.052708,
      "stop_lon": 19.913739,
      "stop_name": "Salwator",
      "stop_num": "01",
      "stop_sequence": 1,
      "stopping": false,
      "time": null,
      "trip_id": "block_766_trip_7_service_4",
      "trip_num": 7
    },
    {
      "delay": null,
      "departure_time": "10:41:00",
      "old": false,
      "stop_lat": 50.052724,
      "stop_lon": 19.915028,
      "stop_name": "Salwator",
      "stop_num": "02",
      "stop_sequence": 2,
      "stopping": false,
      "time": null,
      "trip_id": "block_766_trip_7_service_4",
      "trip_num": 7
    },
    {
      "delay": null,
      "departure_time": "10:42:00",
      "old": false,
      "stop_lat": 50.053384,
      "stop_lon": 19.921893,
      "stop_name": "Komorowskiego",
      "stop_num": "02",
      "stop_sequence": 3,
      "stopping": false,
      "time": null,
      "trip_id": "block_766_trip_7_service_4",
      "trip_num": 7
    },
    {
      "delay": null,
      "departure_time": "10:44:00",
      "old": false,
      "stop_lat": 50.054999,
      "stop_lon": 19.927052,
      "stop_name": "Jubilat",
      "stop_num": "02",
      "stop_sequence": 4,
      "stopping": false,
      "time": null,
      "trip_id": "block_766_trip_7_service_4",
      "trip_num": 7
    },
    {
      "delay": null,
      "departure_time": "10:47:00",
      "old": false,
      "stop_lat": 50.058666,
      "stop_lon": 19.933001,
      "stop_name": "Filharmonia",
      "stop_num": "02",
      "stop_sequence": 5,
      "stopping": false,
      "time": null,
      "trip_id": "block_766_trip_7_service_4",
      "trip_num": 7
    },
    {
      "delay": null,
      "departure_time": "10:48:00",
      "old": false,
      "stop_lat": 50.059113,
      "stop_lon": 19.937497,
      "stop_name": "Plac Wszystkich Świętych",
      "stop_num": "02",
      "stop_sequence": 6,
      "stopping": false,
      "time": null,
      "trip_id": "block_766_trip_7_service_4",
      "trip_num": 7
    },
    {
      "delay": null,
      "departure_time": "10:50:00",
      "old": false,
      "stop_lat": 50.058486,
      "stop_lon": 19.940838,
      "stop_name": "św. Gertrudy",
      "stop_num": "02",
      "stop_sequence": 7,
      "stopping": false,
      "time": null,
      "trip_id": "block_766_trip_7_service_4",
      "trip_num": 7
    },
    {
      "delay": null,
      "departure_time": "10:51:00",
      "old": false,
      "stop_lat": 50.054324,
      "stop_lon": 19.939295,
      "stop_name": "Wawel",
      "stop_num": "02",
      "stop_sequence": 8,
      "stopping": false,
      "time": null,
      "trip_id": "block_766_trip_7_service_4",
      "trip_num": 7
    },
    {
      "delay": null,
      "departure_time": "10:53:00",
      "old": false,
      "stop_lat": 50.052086,
      "stop_lon": 19.941166,
      "stop_name": "Stradom",
      "stop_num": "02",
      "stop_sequence": 9,
      "stopping": false,
      "time": null,
      "trip_id": "block_766_trip_7_service_4",
      "trip_num": 7
    },
    {
      "delay": null,
      "departure_time": "10:55:00",
      "old": false,
      "stop_lat": 50.048028,
      "stop_lon": 19.943426,
      "stop_name": "Plac Wolnica",
      "stop_num": "01",
      "stop_sequence": 10,
      "stopping": false,
      "time": null,
      "trip_id": "block_766_trip_7_service_4",
      "trip_num": 7
    },
    {
      "delay": null,
      "departure_time": "10:57:00",
      "old": false,
      "stop_lat": 50.044032,
      "stop_lon": 19.94678,
      "stop_name": "Korona",
      "stop_num": "03",
      "stop_sequence": 11,
      "stopping": false,
      "time": null,
      "trip_id": "block_766_trip_7_service_4",
      "trip_num": 7
    },
    {
      "delay": null,
      "departure_time": "10:59:00",
      "old": false,
      "stop_lat": 50.045136,
      "stop_lon": 19.954882,
      "stop_name": "Limanowskiego",
      "stop_num": "01",
      "stop_sequence": 12,
      "stopping": false,
      "time": null,
      "trip_id": "block_766_trip_7_service_4",
      "trip_num": 7
    },
    {
      "delay": null,
      "departure_time": "11:01:00",
      "old": false,
      "stop_lat": 50.042438,
      "stop_lon": 19.960723,
      "stop_name": "Podgórze SKA",
      "stop_num": "01",
      "stop_sequence": 13,
      "stopping": false,
      "time": null,
      "trip_id": "block_766_trip_7_service_4",
      "trip_num": 7
    },
    {
      "delay": null,
      "departure_time": "11:02:00",
      "old": false,
      "stop_lat": 50.038989,
      "stop_lon": 19.964548,
      "stop_name": "Cmentarz Podgórski",
      "stop_num": "01",
      "stop_sequence": 14,
      "stopping": false,
      "time": null,
      "trip_id": "block_766_trip_7_service_4",
      "trip_num": 7
    },
    {
      "delay": null,
      "departure_time": "11:04:00",
      "old": false,
      "stop_lat": 50.033435,
      "stop_lon": 19.970294,
      "stop_name": "Dworcowa",
      "stop_num": "01",
      "stop_sequence": 15,
      "stopping": false,
      "time": null,
      "trip_id": "block_766_trip_7_service_4",
      "trip_num": 7
    },
    {
      "delay": null,
      "departure_time": "11:06:00",
      "old": false,
      "stop_lat": 50.027229,
      "stop_lon": 19.976567,
      "stop_name": "Kabel",
      "stop_num": "01",
      "stop_sequence": 16,
      "stopping": false,
      "time": null,
      "trip_id": "block_766_trip_7_service_4",
      "trip_num": 7
    },
    {
      "delay": null,
      "departure_time": "11:09:00",
      "old": false,
      "stop_lat": 50.023027,
      "stop_lon": 19.981791,
      "stop_name": "Bieżanowska",
      "stop_num": "01",
      "stop_sequence": 17,
      "stopping": false,
      "time": null,
      "trip_id": "block_766_trip_7_service_4",
      "trip_num": 7
    },
    {
      "delay": null,
      "departure_time": "11:10:00",
      "old": false,
      "stop_lat": 50.019364,
      "stop_lon": 19.988113,
      "stop_name": "Wlotowa",
      "stop_num": "01",
      "stop_sequence": 18,
      "stopping": false,
      "time": null,
      "trip_id": "block_766_trip_7_service_4",
      "trip_num": 7
    },
    {
      "delay": null,
      "departure_time": "11:11:00",
      "old": false,
      "stop_lat": 50.017526,
      "stop_lon": 19.991105,
      "stop_name": "Prokocim",
      "stop_num": "01",
      "stop_sequence": 19,
      "stopping": false,
      "time": null,
      "trip_id": "block_766_trip_7_service_4",
      "trip_num": 7
    },
    {
      "delay": null,
      "departure_time": "11:13:00",
      "old": false,
      "stop_lat": 50.014443,
      "stop_lon": 19.998952,
      "stop_name": "Prokocim Szpital",
      "stop_num": "01",
      "stop_sequence": 20,
      "stopping": false,
      "time": null,
      "trip_id": "block_766_trip_7_service_4",
      "trip_num": 7
    },
    {
      "delay": null,
      "departure_time": "11:15:00",
      "old": false,
      "stop_lat": 50.016599,
      "stop_lon": 20.007159,
      "stop_name": "Teligi",
      "stop_num": "01",
      "stop_sequence": 21,
      "stopping": false,
      "time": null,
      "trip_id": "block_766_trip_7_service_4",
      "trip_num": 7
    },
    {
      "delay": null,
      "departure_time": "11:16:00",
      "old": false,
      "stop_lat": 50.016128,
      "stop_lon": 20.012098,
      "stop_name": "Nowy Prokocim",
      "stop_num": "01",
      "stop_sequence": 22,
      "stopping": false,
      "time": null,
      "trip_id": "block_766_trip_7_service_4",
      "trip_num": 7
    },
    {
      "delay": null,
      "departure_time": "11:17:00",
      "old": false,
      "stop_lat": 50.016057,
      "stop_lon": 20.019317,
      "stop_name": "Ćwiklińskiej",
      "stop_num": "01",
      "stop_sequence": 23,
      "stopping": false,
      "time": null,
      "trip_id": "block_766_trip_7_service_4",
      "trip_num": 7
    },
    {
      "delay": null,
      "departure_time": "11:18:00",
      "old": false,
      "stop_lat": 50.015608,
      "stop_lon": 20.023053,
      "stop_name": "Nowy Bieżanów P+R",
      "stop_num": "01",
      "stop_sequence": 24,
      "stopping": false,
      "time": null,
      "trip_id": "block_766_trip_7_service_4",
      "trip_num": 7
    },
    {
      "delay": null,
      "departure_time": "11:41:00",
      "old": false,
      "stop_lat": 50.015608,
      "stop_lon": 20.023053,
      "stop_name": "Nowy Bieżanów P+R",
      "stop_num": "01",
      "stop_sequence": 1,
      "stopping": false,
      "time": null,
      "trip_id": "block_766_trip_8_service_4",
      "trip_num": 8
    },
    {
      "delay": null,
      "departure_time": "11:42:00",
      "old": false,
      "stop_lat": 50.015966,
      "stop_lon": 20.019968,
      "stop_name": "Ćwiklińskiej",
      "stop_num": "02",
      "stop_sequence": 2,
      "stopping": false,
      "time": null,
      "trip_id": "block_766_trip_8_service_4",
      "trip_num": 8
    },
    {
      "delay": null,
      "departure_time": "11:43:00",
      "old": false,
      "stop_lat": 50.016318,
      "stop_lon": 20.013226,
      "stop_name": "Nowy Prokocim",
      "stop_num": "02",
      "stop_sequence": 3,
      "stopping": false,
      "time": null,
      "trip_id": "block_766_trip_8_service_4",
      "trip_num": 8
    },
    {
      "delay": null,
      "departure_time": "11:44:00",
      "old": false,
      "stop_lat": 50.016511,
      "stop_lon": 20.007916,
      "stop_name": "Teligi",
      "stop_num": "02",
      "stop_sequence": 4,
      "stopping": false,
      "time": null,
      "trip_id": "block_766_trip_8_service_4",
      "trip_num": 8
    },
    {
      "delay": null,
      "departure_time": "11:45:00",
      "old": false,
      "stop_lat": 50.014585,
      "stop_lon": 20.000171,
      "stop_name": "Prokocim Szpital",
      "stop_num": "02",
      "stop_sequence": 5,
      "stopping": false,
      "time": null,
      "trip_id": "block_766_trip_8_service_4",
      "trip_num": 8
    },
    {
      "delay": null,
      "departure_time": "11:47:00",
      "old": false,
      "stop_lat": 50.017646,
      "stop_lon": 19.990988,
      "stop_name": "Prokocim",
      "stop_num": "02",
      "stop_sequence": 6,
      "stopping": false,
      "time": null,
      "trip_id": "block_766_trip_8_service_4",
      "trip_num": 8
    },
    {
      "delay": null,
      "departure_time": "11:48:00",
      "old": false,
      "stop_lat": 50.019553,
      "stop_lon": 19.987851,
      "stop_name": "Wlotowa",
      "stop_num": "02",
      "stop_sequence": 7,
      "stopping": false,
      "time": null,
      "trip_id": "block_766_trip_8_service_4",
      "trip_num": 8
    },
    {
      "delay": null,
      "departure_time": "11:50:00",
      "old": false,
      "stop_lat": 50.023119,
      "stop_lon": 19.981692,
      "stop_name": "Bieżanowska",
      "stop_num": "02",
      "stop_sequence": 8,
      "stopping": false,
      "time": null,
      "trip_id": "block_766_trip_8_service_4",
      "trip_num": 8
    },
    {
      "delay": null,
      "departure_time": "11:51:00",
      "old": false,
      "stop_lat": 50.026621,
      "stop_lon": 19.977231,
      "stop_name": "Kabel",
      "stop_num": "02",
      "stop_sequence": 9,
      "stopping": false,
      "time": null,
      "trip_id": "block_766_trip_8_service_4",
      "trip_num": 8
    },
    {
      "delay": null,
      "departure_time": "11:53:00",
      "old": false,
      "stop_lat": 50.032673,
      "stop_lon": 19.971078,
      "stop_name": "Dworcowa",
      "stop_num": "02",
      "stop_sequence": 10,
      "stopping": false,
      "time": null,
      "trip_id": "block_766_trip_8_service_4",
      "trip_num": 8
    },
    {
      "delay": null,
      "departure_time": "11:55:00",
      "old": false,
      "stop_lat": 50.038686,
      "stop_lon": 19.964919,
      "stop_name": "Cmentarz Podgórski",
      "stop_num": "02",
      "stop_sequence": 11,
      "stopping": false,
      "time": null,
      "trip_id": "block_766_trip_8_service_4",
      "trip_num": 8
    },
    {
      "delay": null,
      "departure_time": "11:57:00",
      "old": false,
      "stop_lat": 50.04184,
      "stop_lon": 19.961425,
      "stop_name": "Podgórze SKA",
      "stop_num": "02",
      "stop_sequence": 12,
      "stopping": false,
      "time": null,
      "trip_id": "block_766_trip_8_service_4",
      "trip_num": 8
    },
    {
      "delay": null,
      "departure_time": "11:58:00",
      "old": false,
      "stop_lat": 50.045,
      "stop_lon": 19.955911,
      "stop_name": "Limanowskiego",
      "stop_num": "02",
      "stop_sequence": 13,
      "stopping": false,
      "time": null,
      "trip_id": "block_766_trip_8_service_4",
      "trip_num": 8
    },
    {
      "delay": null,
      "departure_time": "12:00:00",
      "old": false,
      "stop_lat": 50.044052,
      "stop_lon": 19.947497,
      "stop_name": "Korona",
      "stop_num": "02",
      "stop_sequence": 14,
      "stopping": false,
      "time": null,
      "trip_id": "block_766_trip_8_service_4",
      "trip_num": 8
    },
    {
      "delay": null,
      "departure_time": "12:02:00",
      "old": false,
      "stop_lat": 50.048114,
      "stop_lon": 19.943448,
      "stop_name": "Plac Wolnica",
      "stop_num": "02",
      "stop_sequence": 15,
      "stopping": false,
      "time": null,
      "trip_id": "block_766_trip_8_service_4",
      "trip_num": 8
    },
    {
      "delay": null,
      "departure_time": "12:04:00",
      "old": false,
      "stop_lat": 50.050842,
      "stop_lon": 19.942415,
      "stop_name": "Stradom",
      "stop_num": "04",
      "stop_sequence": 16,
      "stopping": false,
      "time": null,
      "trip_id": "block_766_trip_8_service_4",
      "trip_num": 8
    },
    {
      "delay": null,
      "departure_time": "12:06:00",
      "old": false,
      "stop_lat": 50.05449,
      "stop_lon": 19.93963,
      "stop_name": "Wawel",
      "stop_num": "01",
      "stop_sequence": 17,
      "stopping": false,
      "time": null,
      "trip_id": "block_766_trip_8_service_4",
      "trip_num": 8
    },
    {
      "delay": null,
      "departure_time": "12:07:00",
      "old": false,
      "stop_lat": 50.058627,
      "stop_lon": 19.940988,
      "stop_name": "św. Gertrudy",
      "stop_num": "01",
      "stop_sequence": 18,
      "stopping": false,
      "time": null,
      "trip_id": "block_766_trip_8_service_4",
      "trip_num": 8
    },
    {
      "delay": null,
      "departure_time": "12:09:00",
      "old": false,
      "stop_lat": 50.05912,
      "stop_lon": 19.93824,
      "stop_name": "Plac Wszystkich Świętych",
      "stop_num": "01",
      "stop_sequence": 19,
      "stopping": false,
      "time": null,
      "trip_id": "block_766_trip_8_service_4",
      "trip_num": 8
    },
    {
      "delay": null,
      "departure_time": "12:11:00",
      "old": false,
      "stop_lat": 50.05903,
      "stop_lon": 19.93387,
      "stop_name": "Filharmonia",
      "stop_num": "01",
      "stop_sequence": 20,
      "stopping": false,
      "time": null,
      "trip_id": "block_766_trip_8_service_4",
      "trip_num": 8
    },
    {
      "delay": null,
      "departure_time": "12:13:00",
      "old": false,
      "stop_lat": 50.055498,
      "stop_lon": 19.928109,
      "stop_name": "Jubilat",
      "stop_num": "01",
      "stop_sequence": 21,
      "stopping": false,
      "time": null,
      "trip_id": "block_766_trip_8_service_4",
      "trip_num": 8
    },
    {
      "delay": null,
      "departure_time": "12:15:00",
      "old": false,
      "stop_lat": 50.053451,
      "stop_lon": 19.921873,
      "stop_name": "Komorowskiego",
      "stop_num": "01",
      "stop_sequence": 22,
      "stopping": false,
      "time": null,
      "trip_id": "block_766_trip_8_service_4",
      "trip_num": 8
    },
    {
      "delay": null,
      "departure_time": "12:16:00",
      "old": false,
      "stop_lat": 50.05263,
      "stop_lon": 19.917407,
      "stop_name": "Salwator",
      "stop_num": "03",
      "stop_sequence": 23,
      "stopping": false,
      "time": null,
      "trip_id": "block_766_trip_8_service_4",
      "trip_num": 8
    },
    {
      "delay": null,
      "departure_time": "12:17:00",
      "old": false,
      "stop_lat": 50.052708,
      "stop_lon": 19.913739,
      "stop_name": "Salwator",
      "stop_num": "01",
      "stop_sequence": 24,
      "stopping": false,
      "time": null,
      "trip_id": "block_766_trip_8_service_4",
      "trip_num": 8
    },
    {
      "delay": null,
      "departure_time": "12:25:00",
      "old": false,
      "stop_lat": 50.052708,
      "stop_lon": 19.913739,
      "stop_name": "Salwator",
      "stop_num": "01",
      "stop_sequence": 1,
      "stopping": false,
      "time": null,
      "trip_id": "block_766_trip_9_service_4",
      "trip_num": 9
    },
    {
      "delay": null,
      "departure_time": "12:26:00",
      "old": false,
      "stop_lat": 50.052724,
      "stop_lon": 19.915028,
      "stop_name": "Salwator",
      "stop_num": "02",
      "stop_sequence": 2,
      "stopping": false,
      "time": null,
      "trip_id": "block_766_trip_9_service_4",
      "trip_num": 9
    },
    {
      "delay": null,
      "departure_time": "12:27:00",
      "old": false,
      "stop_lat": 50.053384,
      "stop_lon": 19.921893,
      "stop_name": "Komorowskiego",
      "stop_num": "02",
      "stop_sequence": 3,
      "stopping": false,
      "time": null,
      "trip_id": "block_766_trip_9_service_4",
      "trip_num": 9
    },
    {
      "delay": null,
      "departure_time": "12:29:00",
      "old": false,
      "stop_lat": 50.054999,
      "stop_lon": 19.927052,
      "stop_name": "Jubilat",
      "stop_num": "02",
      "stop_sequence": 4,
      "stopping": false,
      "time": null,
      "trip_id": "block_766_trip_9_service_4",
      "trip_num": 9
    },
    {
      "delay": null,
      "departure_time": "12:32:00",
      "old": false,
      "stop_lat": 50.058666,
      "stop_lon": 19.933001,
      "stop_name": "Filharmonia",
      "stop_num": "02",
      "stop_sequence": 5,
      "stopping": false,
      "time": null,
      "trip_id": "block_766_trip_9_service_4",
      "trip_num": 9
    },
    {
      "delay": null,
      "departure_time": "12:33:00",
      "old": false,
      "stop_lat": 50.059113,
      "stop_lon": 19.937497,
      "stop_name": "Plac Wszystkich Świętych",
      "stop_num": "02",
      "stop_sequence": 6,
      "stopping": false,
      "time": null,
      "trip_id": "block_766_trip_9_service_4",
      "trip_num": 9
    },
    {
      "delay": null,
      "departure_time": "12:35:00",
      "old": false,
      "stop_lat": 50.058486,
      "stop_lon": 19.940838,
      "stop_name": "św. Gertrudy",
      "stop_num": "02",
      "stop_sequence": 7,
      "stopping": false,
      "time": null,
      "trip_id": "block_766_trip_9_service_4",
      "trip_num": 9
    },
    {
      "delay": null,
      "departure_time": "12:36:00",
      "old": false,
      "stop_lat": 50.054324,
      "stop_lon": 19.939295,
      "stop_name": "Wawel",
      "stop_num": "02",
      "stop_sequence": 8,
      "stopping": false,
      "time": null,
      "trip_id": "block_766_trip_9_service_4",
      "trip_num": 9
    },
    {
      "delay": null,
      "departure_time": "12:38:00",
      "old": false,
      "stop_lat": 50.052086,
      "stop_lon": 19.941166,
      "stop_name": "Stradom",
      "stop_num": "02",
      "stop_sequence": 9,
      "stopping": false,
      "time": null,
      "trip_id": "block_766_trip_9_service_4",
      "trip_num": 9
    },
    {
      "delay": null,
      "departure_time": "12:40:00",
      "old": false,
      "stop_lat": 50.048028,
      "stop_lon": 19.943426,
      "stop_name": "Plac Wolnica",
      "stop_num": "01",
      "stop_sequence": 10,
      "stopping": false,
      "time": null,
      "trip_id": "block_766_trip_9_service_4",
      "trip_num": 9
    },
    {
      "delay": null,
      "departure_time": "12:42:00",
      "old": false,
      "stop_lat": 50.044032,
      "stop_lon": 19.94678,
      "stop_name": "Korona",
      "stop_num": "03",
      "stop_sequence": 11,
      "stopping": false,
      "time": null,
      "trip_id": "block_766_trip_9_service_4",
      "trip_num": 9
    },
    {
      "delay": null,
      "departure_time": "12:44:00",
      "old": false,
      "stop_lat": 50.045136,
      "stop_lon": 19.954882,
      "stop_name": "Limanowskiego",
      "stop_num": "01",
      "stop_sequence": 12,
      "stopping": false,
      "time": null,
      "trip_id": "block_766_trip_9_service_4",
      "trip_num": 9
    },
    {
      "delay": null,
      "departure_time": "12:46:00",
      "old": false,
      "stop_lat": 50.042438,
      "stop_lon": 19.960723,
      "stop_name": "Podgórze SKA",
      "stop_num": "01",
      "stop_sequence": 13,
      "stopping": false,
      "time": null,
      "trip_id": "block_766_trip_9_service_4",
      "trip_num": 9
    },
    {
      "delay": null,
      "departure_time": "12:47:00",
      "old": false,
      "stop_lat": 50.038989,
      "stop_lon": 19.964548,
      "stop_name": "Cmentarz Podgórski",
      "stop_num": "01",
      "stop_sequence": 14,
      "stopping": false,
      "time": null,
      "trip_id": "block_766_trip_9_service_4",
      "trip_num": 9
    },
    {
      "delay": null,
      "departure_time": "12:49:00",
      "old": false,
      "stop_lat": 50.033435,
      "stop_lon": 19.970294,
      "stop_name": "Dworcowa",
      "stop_num": "01",
      "stop_sequence": 15,
      "stopping": false,
      "time": null,
      "trip_id": "block_766_trip_9_service_4",
      "trip_num": 9
    },
    {
      "delay": null,
      "departure_time": "12:51:00",
      "old": false,
      "stop_lat": 50.027229,
      "stop_lon": 19.976567,
      "stop_name": "Kabel",
      "stop_num": "01",
      "stop_sequence": 16,
      "stopping": false,
      "time": null,
      "trip_id": "block_766_trip_9_service_4",
      "trip_num": 9
    },
    {
      "delay": null,
      "departure_time": "12:54:00",
      "old": false,
      "stop_lat": 50.023027,
      "stop_lon": 19.981791,
      "stop_name": "Bieżanowska",
      "stop_num": "01",
      "stop_sequence": 17,
      "stopping": false,
      "time": null,
      "trip_id": "block_766_trip_9_service_4",
      "trip_num": 9
    },
    {
      "delay": null,
      "departure_time": "12:55:00",
      "old": false,
      "stop_lat": 50.019364,
      "stop_lon": 19.988113,
      "stop_name": "Wlotowa",
      "stop_num": "01",
      "stop_sequence": 18,
      "stopping": false,
      "time": null,
      "trip_id": "block_766_trip_9_service_4",
      "trip_num": 9
    },
    {
      "delay": null,
      "departure_time": "12:56:00",
      "old": false,
      "stop_lat": 50.017526,
      "stop_lon": 19.991105,
      "stop_name": "Prokocim",
      "stop_num": "01",
      "stop_sequence": 19,
      "stopping": false,
      "time": null,
      "trip_id": "block_766_trip_9_service_4",
      "trip_num": 9
    },
    {
      "delay": null,
      "departure_time": "12:58:00",
      "old": false,
      "stop_lat": 50.014443,
      "stop_lon": 19.998952,
      "stop_name": "Prokocim Szpital",
      "stop_num": "01",
      "stop_sequence": 20,
      "stopping": false,
      "time": null,
      "trip_id": "block_766_trip_9_service_4",
      "trip_num": 9
    },
    {
      "delay": null,
      "departure_time": "13:00:00",
      "old": false,
      "stop_lat": 50.016599,
      "stop_lon": 20.007159,
      "stop_name": "Teligi",
      "stop_num": "01",
      "stop_sequence": 21,
      "stopping": false,
      "time": null,
      "trip_id": "block_766_trip_9_service_4",
      "trip_num": 9
    },
    {
      "delay": null,
      "departure_time": "13:01:00",
      "old": false,
      "stop_lat": 50.016128,
      "stop_lon": 20.012098,
      "stop_name": "Nowy Prokocim",
      "stop_num": "01",
      "stop_sequence": 22,
      "stopping": false,
      "time": null,
      "trip_id": "block_766_trip_9_service_4",
      "trip_num": 9
    },
    {
      "delay": null,
      "departure_time": "13:02:00",
      "old": false,
      "stop_lat": 50.016057,
      "stop_lon": 20.019317,
      "stop_name": "Ćwiklińskiej",
      "stop_num": "01",
      "stop_sequence": 23,
      "stopping": false,
      "time": null,
      "trip_id": "block_766_trip_9_service_4",
      "trip_num": 9
    },
    {
      "delay": null,
      "departure_time": "13:03:00",
      "old": false,
      "stop_lat": 50.015608,
      "stop_lon": 20.023053,
      "stop_name": "Nowy Bieżanów P+R",
      "stop_num": "01",
      "stop_sequence": 24,
      "stopping": false,
      "time": null,
      "trip_id": "block_766_trip_9_service_4",
      "trip_num": 9
    },
    {
      "delay": null,
      "departure_time": "13:26:00",
      "old": false,
      "stop_lat": 50.015608,
      "stop_lon": 20.023053,
      "stop_name": "Nowy Bieżanów P+R",
      "stop_num": "01",
      "stop_sequence": 1,
      "stopping": false,
      "time": null,
      "trip_id": "block_766_trip_10_service_4",
      "trip_num": 10
    },
    {
      "delay": null,
      "departure_time": "13:27:00",
      "old": false,
      "stop_lat": 50.015966,
      "stop_lon": 20.019968,
      "stop_name": "Ćwiklińskiej",
      "stop_num": "02",
      "stop_sequence": 2,
      "stopping": false,
      "time": null,
      "trip_id": "block_766_trip_10_service_4",
      "trip_num": 10
    },
    {
      "delay": null,
      "departure_time": "13:28:00",
      "old": false,
      "stop_lat": 50.016318,
      "stop_lon": 20.013226,
      "stop_name": "Nowy Prokocim",
      "stop_num": "02",
      "stop_sequence": 3,
      "stopping": false,
      "time": null,
      "trip_id": "block_766_trip_10_service_4",
      "trip_num": 10
    },
    {
      "delay": null,
      "departure_time": "13:29:00",
      "old": false,
      "stop_lat": 50.016511,
      "stop_lon": 20.007916,
      "stop_name": "Teligi",
      "stop_num": "02",
      "stop_sequence": 4,
      "stopping": false,
      "time": null,
      "trip_id": "block_766_trip_10_service_4",
      "trip_num": 10
    },
    {
      "delay": null,
      "departure_time": "13:30:00",
      "old": false,
      "stop_lat": 50.014585,
      "stop_lon": 20.000171,
      "stop_name": "Prokocim Szpital",
      "stop_num": "02",
      "stop_sequence": 5,
      "stopping": false,
      "time": null,
      "trip_id": "block_766_trip_10_service_4",
      "trip_num": 10
    },
    {
      "delay": null,
      "departure_time": "13:32:00",
      "old": false,
      "stop_lat": 50.017646,
      "stop_lon": 19.990988,
      "stop_name": "Prokocim",
      "stop_num": "02",
      "stop_sequence": 6,
      "stopping": false,
      "time": null,
      "trip_id": "block_766_trip_10_service_4",
      "trip_num": 10
    },
    {
      "delay": null,
      "departure_time": "13:33:00",
      "old": false,
      "stop_lat": 50.019553,
      "stop_lon": 19.987851,
      "stop_name": "Wlotowa",
      "stop_num": "02",
      "stop_sequence": 7,
      "stopping": false,
      "time": null,
      "trip_id": "block_766_trip_10_service_4",
      "trip_num": 10
    },
    {
      "delay": null,
      "departure_time": "13:35:00",
      "old": false,
      "stop_lat": 50.023119,
      "stop_lon": 19.981692,
      "stop_name": "Bieżanowska",
      "stop_num": "02",
      "stop_sequence": 8,
      "stopping": false,
      "time": null,
      "trip_id": "block_766_trip_10_service_4",
      "trip_num": 10
    },
    {
      "delay": null,
      "departure_time": "13:36:00",
      "old": false,
      "stop_lat": 50.026621,
      "stop_lon": 19.977231,
      "stop_name": "Kabel",
      "stop_num": "02",
      "stop_sequence": 9,
      "stopping": false,
      "time": null,
      "trip_id": "block_766_trip_10_service_4",
      "trip_num": 10
    },
    {
      "delay": null,
      "departure_time": "13:38:00",
      "old": false,
      "stop_lat": 50.032673,
      "stop_lon": 19.971078,
      "stop_name": "Dworcowa",
      "stop_num": "02",
      "stop_sequence": 10,
      "stopping": false,
      "time": null,
      "trip_id": "block_766_trip_10_service_4",
      "trip_num": 10
    },
    {
      "delay": null,
      "departure_time": "13:40:00",
      "old": false,
      "stop_lat": 50.038686,
      "stop_lon": 19.964919,
      "stop_name": "Cmentarz Podgórski",
      "stop_num": "02",
      "stop_sequence": 11,
      "stopping": false,
      "time": null,
      "trip_id": "block_766_trip_10_service_4",
      "trip_num": 10
    },
    {
      "delay": null,
      "departure_time": "13:42:00",
      "old": false,
      "stop_lat": 50.04184,
      "stop_lon": 19.961425,
      "stop_name": "Podgórze SKA",
      "stop_num": "02",
      "stop_sequence": 12,
      "stopping": false,
      "time": null,
      "trip_id": "block_766_trip_10_service_4",
      "trip_num": 10
    },
    {
      "delay": null,
      "departure_time": "13:43:00",
      "old": false,
      "stop_lat": 50.045,
      "stop_lon": 19.955911,
      "stop_name": "Limanowskiego",
      "stop_num": "02",
      "stop_sequence": 13,
      "stopping": false,
      "time": null,
      "trip_id": "block_766_trip_10_service_4",
      "trip_num": 10
    },
    {
      "delay": null,
      "departure_time": "13:45:00",
      "old": false,
      "stop_lat": 50.044052,
      "stop_lon": 19.947497,
      "stop_name": "Korona",
      "stop_num": "02",
      "stop_sequence": 14,
      "stopping": false,
      "time": null,
      "trip_id": "block_766_trip_10_service_4",
      "trip_num": 10
    },
    {
      "delay": null,
      "departure_time": "13:47:00",
      "old": false,
      "stop_lat": 50.048114,
      "stop_lon": 19.943448,
      "stop_name": "Plac Wolnica",
      "stop_num": "02",
      "stop_sequence": 15,
      "stopping": false,
      "time": null,
      "trip_id": "block_766_trip_10_service_4",
      "trip_num": 10
    },
    {
      "delay": null,
      "departure_time": "13:49:00",
      "old": false,
      "stop_lat": 50.050842,
      "stop_lon": 19.942415,
      "stop_name": "Stradom",
      "stop_num": "04",
      "stop_sequence": 16,
      "stopping": false,
      "time": null,
      "trip_id": "block_766_trip_10_service_4",
      "trip_num": 10
    },
    {
      "delay": null,
      "departure_time": "13:51:00",
      "old": false,
      "stop_lat": 50.05449,
      "stop_lon": 19.93963,
      "stop_name": "Wawel",
      "stop_num": "01",
      "stop_sequence": 17,
      "stopping": false,
      "time": null,
      "trip_id": "block_766_trip_10_service_4",
      "trip_num": 10
    },
    {
      "delay": null,
      "departure_time": "13:52:00",
      "old": false,
      "stop_lat": 50.058627,
      "stop_lon": 19.940988,
      "stop_name": "św. Gertrudy",
      "stop_num": "01",
      "stop_sequence": 18,
      "stopping": false,
      "time": null,
      "trip_id": "block_766_trip_10_service_4",
      "trip_num": 10
    },
    {
      "delay": null,
      "departure_time": "13:54:00",
      "old": false,
      "stop_lat": 50.05912,
      "stop_lon": 19.93824,
      "stop_name": "Plac Wszystkich Świętych",
      "stop_num": "01",
      "stop_sequence": 19,
      "stopping": false,
      "time": null,
      "trip_id": "block_766_trip_10_service_4",
      "trip_num": 10
    },
    {
      "delay": null,
      "departure_time": "13:56:00",
      "old": false,
      "stop_lat": 50.05903,
      "stop_lon": 19.93387,
      "stop_name": "Filharmonia",
      "stop_num": "01",
      "stop_sequence": 20,
      "stopping": false,
      "time": null,
      "trip_id": "block_766_trip_10_service_4",
      "trip_num": 10
    },
    {
      "delay": null,
      "departure_time": "13:58:00",
      "old": false,
      "stop_lat": 50.055498,
      "stop_lon": 19.928109,
      "stop_name": "Jubilat",
      "stop_num": "01",
      "stop_sequence": 21,
      "stopping": false,
      "time": null,
      "trip_id": "block_766_trip_10_service_4",
      "trip_num": 10
    },
    {
      "delay": null,
      "departure_time": "14:00:00",
      "old": false,
      "stop_lat": 50.053451,
      "stop_lon": 19.921873,
      "stop_name": "Komorowskiego",
      "stop_num": "01",
      "stop_sequence": 22,
      "stopping": false,
      "time": null,
      "trip_id": "block_766_trip_10_service_4",
      "trip_num": 10
    },
    {
      "delay": null,
      "departure_time": "14:01:00",
      "old": false,
      "stop_lat": 50.05263,
      "stop_lon": 19.917407,
      "stop_name": "Salwator",
      "stop_num": "03",
      "stop_sequence": 23,
      "stopping": false,
      "time": null,
      "trip_id": "block_766_trip_10_service_4",
      "trip_num": 10
    },
    {
      "delay": null,
      "departure_time": "14:02:00",
      "old": false,
      "stop_lat": 50.052708,
      "stop_lon": 19.913739,
      "stop_name": "Salwator",
      "stop_num": "01",
      "stop_sequence": 24,
      "stopping": false,
      "time": null,
      "trip_id": "block_766_trip_10_service_4",
      "trip_num": 10
    },
    {
      "delay": null,
      "departure_time": "14:18:00",
      "old": false,
      "stop_lat": 50.052708,
      "stop_lon": 19.913739,
      "stop_name": "Salwator",
      "stop_num": "01",
      "stop_sequence": 1,
      "stopping": false,
      "time": null,
      "trip_id": "block_766_trip_11_service_4",
      "trip_num": 11
    },
    {
      "delay": null,
      "departure_time": "14:19:00",
      "old": false,
      "stop_lat": 50.052724,
      "stop_lon": 19.915028,
      "stop_name": "Salwator",
      "stop_num": "02",
      "stop_sequence": 2,
      "stopping": false,
      "time": null,
      "trip_id": "block_766_trip_11_service_4",
      "trip_num": 11
    },
    {
      "delay": null,
      "departure_time": "14:20:00",
      "old": false,
      "stop_lat": 50.053384,
      "stop_lon": 19.921893,
      "stop_name": "Komorowskiego",
      "stop_num": "02",
      "stop_sequence": 3,
      "stopping": false,
      "time": null,
      "trip_id": "block_766_trip_11_service_4",
      "trip_num": 11
    },
    {
      "delay": null,
      "departure_time": "14:22:00",
      "old": false,
      "stop_lat": 50.054999,
      "stop_lon": 19.927052,
      "stop_name": "Jubilat",
      "stop_num": "02",
      "stop_sequence": 4,
      "stopping": false,
      "time": null,
      "trip_id": "block_766_trip_11_service_4",
      "trip_num": 11
    },
    {
      "delay": null,
      "departure_time": "14:25:00",
      "old": false,
      "stop_lat": 50.058666,
      "stop_lon": 19.933001,
      "stop_name": "Filharmonia",
      "stop_num": "02",
      "stop_sequence": 5,
      "stopping": false,
      "time": null,
      "trip_id": "block_766_trip_11_service_4",
      "trip_num": 11
    },
    {
      "delay": null,
      "departure_time": "14:26:00",
      "old": false,
      "stop_lat": 50.059113,
      "stop_lon": 19.937497,
      "stop_name": "Plac Wszystkich Świętych",
      "stop_num": "02",
      "stop_sequence": 6,
      "stopping": false,
      "time": null,
      "trip_id": "block_766_trip_11_service_4",
      "trip_num": 11
    },
    {
      "delay": null,
      "departure_time": "14:28:00",
      "old": false,
      "stop_lat": 50.058486,
      "stop_lon": 19.940838,
      "stop_name": "św. Gertrudy",
      "stop_num": "02",
      "stop_sequence": 7,
      "stopping": false,
      "time": null,
      "trip_id": "block_766_trip_11_service_4",
      "trip_num": 11
    },
    {
      "delay": null,
      "departure_time": "14:29:00",
      "old": false,
      "stop_lat": 50.054324,
      "stop_lon": 19.939295,
      "stop_name": "Wawel",
      "stop_num": "02",
      "stop_sequence": 8,
      "stopping": false,
      "time": null,
      "trip_id": "block_766_trip_11_service_4",
      "trip_num": 11
    },
    {
      "delay": null,
      "departure_time": "14:31:00",
      "old": false,
      "stop_lat": 50.052086,
      "stop_lon": 19.941166,
      "stop_name": "Stradom",
      "stop_num": "02",
      "stop_sequence": 9,
      "stopping": false,
      "time": null,
      "trip_id": "block_766_trip_11_service_4",
      "trip_num": 11
    },
    {
      "delay": null,
      "departure_time": "14:33:00",
      "old": false,
      "stop_lat": 50.048028,
      "stop_lon": 19.943426,
      "stop_name": "Plac Wolnica",
      "stop_num": "01",
      "stop_sequence": 10,
      "stopping": false,
      "time": null,
      "trip_id": "block_766_trip_11_service_4",
      "trip_num": 11
    },
    {
      "delay": null,
      "departure_time": "14:35:00",
      "old": false,
      "stop_lat": 50.044032,
      "stop_lon": 19.94678,
      "stop_name": "Korona",
      "stop_num": "03",
      "stop_sequence": 11,
      "stopping": false,
      "time": null,
      "trip_id": "block_766_trip_11_service_4",
      "trip_num": 11
    },
    {
      "delay": null,
      "departure_time": "14:37:00",
      "old": false,
      "stop_lat": 50.045136,
      "stop_lon": 19.954882,
      "stop_name": "Limanowskiego",
      "stop_num": "01",
      "stop_sequence": 12,
      "stopping": false,
      "time": null,
      "trip_id": "block_766_trip_11_service_4",
      "trip_num": 11
    },
    {
      "delay": null,
      "departure_time": "14:40:00",
      "old": false,
      "stop_lat": 50.042438,
      "stop_lon": 19.960723,
      "stop_name": "Podgórze SKA",
      "stop_num": "01",
      "stop_sequence": 13,
      "stopping": false,
      "time": null,
      "trip_id": "block_766_trip_11_service_4",
      "trip_num": 11
    },
    {
      "delay": null,
      "departure_time": "14:41:00",
      "old": false,
      "stop_lat": 50.038989,
      "stop_lon": 19.964548,
      "stop_name": "Cmentarz Podgórski",
      "stop_num": "01",
      "stop_sequence": 14,
      "stopping": false,
      "time": null,
      "trip_id": "block_766_trip_11_service_4",
      "trip_num": 11
    },
    {
      "delay": null,
      "departure_time": "14:43:00",
      "old": false,
      "stop_lat": 50.033435,
      "stop_lon": 19.970294,
      "stop_name": "Dworcowa",
      "stop_num": "01",
      "stop_sequence": 15,
      "stopping": false,
      "time": null,
      "trip_id": "block_766_trip_11_service_4",
      "trip_num": 11
    },
    {
      "delay": null,
      "departure_time": "14:45:00",
      "old": false,
      "stop_lat": 50.027229,
      "stop_lon": 19.976567,
      "stop_name": "Kabel",
      "stop_num": "01",
      "stop_sequence": 16,
      "stopping": false,
      "time": null,
      "trip_id": "block_766_trip_11_service_4",
      "trip_num": 11
    },
    {
      "delay": null,
      "departure_time": "14:48:00",
      "old": false,
      "stop_lat": 50.023027,
      "stop_lon": 19.981791,
      "stop_name": "Bieżanowska",
      "stop_num": "01",
      "stop_sequence": 17,
      "stopping": false,
      "time": null,
      "trip_id": "block_766_trip_11_service_4",
      "trip_num": 11
    },
    {
      "delay": null,
      "departure_time": "14:49:00",
      "old": false,
      "stop_lat": 50.019364,
      "stop_lon": 19.988113,
      "stop_name": "Wlotowa",
      "stop_num": "01",
      "stop_sequence": 18,
      "stopping": false,
      "time": null,
      "trip_id": "block_766_trip_11_service_4",
      "trip_num": 11
    },
    {
      "delay": null,
      "departure_time": "14:50:00",
      "old": false,
      "stop_lat": 50.017526,
      "stop_lon": 19.991105,
      "stop_name": "Prokocim",
      "stop_num": "01",
      "stop_sequence": 19,
      "stopping": false,
      "time": null,
      "trip_id": "block_766_trip_11_service_4",
      "trip_num": 11
    },
    {
      "delay": null,
      "departure_time": "14:52:00",
      "old": false,
      "stop_lat": 50.014443,
      "stop_lon": 19.998952,
      "stop_name": "Prokocim Szpital",
      "stop_num": "01",
      "stop_sequence": 20,
      "stopping": false,
      "time": null,
      "trip_id": "block_766_trip_11_service_4",
      "trip_num": 11
    },
    {
      "delay": null,
      "departure_time": "14:54:00",
      "old": false,
      "stop_lat": 50.016599,
      "stop_lon": 20.007159,
      "stop_name": "Teligi",
      "stop_num": "01",
      "stop_sequence": 21,
      "stopping": false,
      "time": null,
      "trip_id": "block_766_trip_11_service_4",
      "trip_num": 11
    },
    {
      "delay": null,
      "departure_time": "14:55:00",
      "old": false,
      "stop_lat": 50.016128,
      "stop_lon": 20.012098,
      "stop_name": "Nowy Prokocim",
      "stop_num": "01",
      "stop_sequence": 22,
      "stopping": false,
      "time": null,
      "trip_id": "block_766_trip_11_service_4",
      "trip_num": 11
    },
    {
      "delay": null,
      "departure_time": "14:56:00",
      "old": false,
      "stop_lat": 50.016057,
      "stop_lon": 20.019317,
      "stop_name": "Ćwiklińskiej",
      "stop_num": "01",
      "stop_sequence": 23,
      "stopping": false,
      "time": null,
      "trip_id": "block_766_trip_11_service_4",
      "trip_num": 11
    },
    {
      "delay": null,
      "departure_time": "14:57:00",
      "old": false,
      "stop_lat": 50.015608,
      "stop_lon": 20.023053,
      "stop_name": "Nowy Bieżanów P+R",
      "stop_num": "01",
      "stop_sequence": 24,
      "stopping": false,
      "time": null,
      "trip_id": "block_766_trip_11_service_4",
      "trip_num": 11
    },
    {
      "delay": null,
      "departure_time": "15:11:00",
      "old": false,
      "stop_lat": 50.015608,
      "stop_lon": 20.023053,
      "stop_name": "Nowy Bieżanów P+R",
      "stop_num": "01",
      "stop_sequence": 1,
      "stopping": false,
      "time": null,
      "trip_id": "block_766_trip_12_service_4",
      "trip_num": 12
    },
    {
      "delay": null,
      "departure_time": "15:12:00",
      "old": false,
      "stop_lat": 50.015966,
      "stop_lon": 20.019968,
      "stop_name": "Ćwiklińskiej",
      "stop_num": "02",
      "stop_sequence": 2,
      "stopping": false,
      "time": null,
      "trip_id": "block_766_trip_12_service_4",
      "trip_num": 12
    },
    {
      "delay": null,
      "departure_time": "15:13:00",
      "old": false,
      "stop_lat": 50.016318,
      "stop_lon": 20.013226,
      "stop_name": "Nowy Prokocim",
      "stop_num": "02",
      "stop_sequence": 3,
      "stopping": false,
      "time": null,
      "trip_id": "block_766_trip_12_service_4",
      "trip_num": 12
    },
    {
      "delay": null,
      "departure_time": "15:14:00",
      "old": false,
      "stop_lat": 50.016511,
      "stop_lon": 20.007916,
      "stop_name": "Teligi",
      "stop_num": "02",
      "stop_sequence": 4,
      "stopping": false,
      "time": null,
      "trip_id": "block_766_trip_12_service_4",
      "trip_num": 12
    },
    {
      "delay": null,
      "departure_time": "15:15:00",
      "old": false,
      "stop_lat": 50.014585,
      "stop_lon": 20.000171,
      "stop_name": "Prokocim Szpital",
      "stop_num": "02",
      "stop_sequence": 5,
      "stopping": false,
      "time": null,
      "trip_id": "block_766_trip_12_service_4",
      "trip_num": 12
    },
    {
      "delay": null,
      "departure_time": "15:17:00",
      "old": false,
      "stop_lat": 50.017646,
      "stop_lon": 19.990988,
      "stop_name": "Prokocim",
      "stop_num": "02",
      "stop_sequence": 6,
      "stopping": false,
      "time": null,
      "trip_id": "block_766_trip_12_service_4",
      "trip_num": 12
    },
    {
      "delay": null,
      "departure_time": "15:18:00",
      "old": false,
      "stop_lat": 50.019553,
      "stop_lon": 19.987851,
      "stop_name": "Wlotowa",
      "stop_num": "02",
      "stop_sequence": 7,
      "stopping": false,
      "time": null,
      "trip_id": "block_766_trip_12_service_4",
      "trip_num": 12
    },
    {
      "delay": null,
      "departure_time": "15:20:00",
      "old": false,
      "stop_lat": 50.023119,
      "stop_lon": 19.981692,
      "stop_name": "Bieżanowska",
      "stop_num": "02",
      "stop_sequence": 8,
      "stopping": false,
      "time": null,
      "trip_id": "block_766_trip_12_service_4",
      "trip_num": 12
    },
    {
      "delay": null,
      "departure_time": "15:21:00",
      "old": false,
      "stop_lat": 50.026621,
      "stop_lon": 19.977231,
      "stop_name": "Kabel",
      "stop_num": "02",
      "stop_sequence": 9,
      "stopping": false,
      "time": null,
      "trip_id": "block_766_trip_12_service_4",
      "trip_num": 12
    },
    {
      "delay": null,
      "departure_time": "15:23:00",
      "old": false,
      "stop_lat": 50.032673,
      "stop_lon": 19.971078,
      "stop_name": "Dworcowa",
      "stop_num": "02",
      "stop_sequence": 10,
      "stopping": false,
      "time": null,
      "trip_id": "block_766_trip_12_service_4",
      "trip_num": 12
    },
    {
      "delay": null,
      "departure_time": "15:25:00",
      "old": false,
      "stop_lat": 50.038686,
      "stop_lon": 19.964919,
      "stop_name": "Cmentarz Podgórski",
      "stop_num": "02",
      "stop_sequence": 11,
      "stopping": false,
      "time": null,
      "trip_id": "block_766_trip_12_service_4",
      "trip_num": 12
    },
    {
      "delay": null,
      "departure_time": "15:27:00",
      "old": false,
      "stop_lat": 50.04184,
      "stop_lon": 19.961425,
      "stop_name": "Podgórze SKA",
      "stop_num": "02",
      "stop_sequence": 12,
      "stopping": false,
      "time": null,
      "trip_id": "block_766_trip_12_service_4",
      "trip_num": 12
    },
    {
      "delay": null,
      "departure_time": "15:28:00",
      "old": false,
      "stop_lat": 50.045,
      "stop_lon": 19.955911,
      "stop_name": "Limanowskiego",
      "stop_num": "02",
      "stop_sequence": 13,
      "stopping": false,
      "time": null,
      "trip_id": "block_766_trip_12_service_4",
      "trip_num": 12
    },
    {
      "delay": null,
      "departure_time": "15:30:00",
      "old": false,
      "stop_lat": 50.044052,
      "stop_lon": 19.947497,
      "stop_name": "Korona",
      "stop_num": "02",
      "stop_sequence": 14,
      "stopping": false,
      "time": null,
      "trip_id": "block_766_trip_12_service_4",
      "trip_num": 12
    },
    {
      "delay": null,
      "departure_time": "15:32:00",
      "old": false,
      "stop_lat": 50.048114,
      "stop_lon": 19.943448,
      "stop_name": "Plac Wolnica",
      "stop_num": "02",
      "stop_sequence": 15,
      "stopping": false,
      "time": null,
      "trip_id": "block_766_trip_12_service_4",
      "trip_num": 12
    },
    {
      "delay": null,
      "departure_time": "15:34:00",
      "old": false,
      "stop_lat": 50.050842,
      "stop_lon": 19.942415,
      "stop_name": "Stradom",
      "stop_num": "04",
      "stop_sequence": 16,
      "stopping": false,
      "time": null,
      "trip_id": "block_766_trip_12_service_4",
      "trip_num": 12
    },
    {
      "delay": null,
      "departure_time": "15:36:00",
      "old": false,
      "stop_lat": 50.05449,
      "stop_lon": 19.93963,
      "stop_name": "Wawel",
      "stop_num": "01",
      "stop_sequence": 17,
      "stopping": false,
      "time": null,
      "trip_id": "block_766_trip_12_service_4",
      "trip_num": 12
    },
    {
      "delay": null,
      "departure_time": "15:37:00",
      "old": false,
      "stop_lat": 50.058627,
      "stop_lon": 19.940988,
      "stop_name": "św. Gertrudy",
      "stop_num": "01",
      "stop_sequence": 18,
      "stopping": false,
      "time": null,
      "trip_id": "block_766_trip_12_service_4",
      "trip_num": 12
    },
    {
      "delay": null,
      "departure_time": "15:39:00",
      "old": false,
      "stop_lat": 50.05912,
      "stop_lon": 19.93824,
      "stop_name": "Plac Wszystkich Świętych",
      "stop_num": "01",
      "stop_sequence": 19,
      "stopping": false,
      "time": null,
      "trip_id": "block_766_trip_12_service_4",
      "trip_num": 12
    },
    {
      "delay": null,
      "departure_time": "15:41:00",
      "old": false,
      "stop_lat": 50.05903,
      "stop_lon": 19.93387,
      "stop_name": "Filharmonia",
      "stop_num": "01",
      "stop_sequence": 20,
      "stopping": false,
      "time": null,
      "trip_id": "block_766_trip_12_service_4",
      "trip_num": 12
    },
    {
      "delay": null,
      "departure_time": "15:43:00",
      "old": false,
      "stop_lat": 50.055498,
      "stop_lon": 19.928109,
      "stop_name": "Jubilat",
      "stop_num": "01",
      "stop_sequence": 21,
      "stopping": false,
      "time": null,
      "trip_id": "block_766_trip_12_service_4",
      "trip_num": 12
    },
    {
      "delay": null,
      "departure_time": "15:45:00",
      "old": false,
      "stop_lat": 50.053451,
      "stop_lon": 19.921873,
      "stop_name": "Komorowskiego",
      "stop_num": "01",
      "stop_sequence": 22,
      "stopping": false,
      "time": null,
      "trip_id": "block_766_trip_12_service_4",
      "trip_num": 12
    },
    {
      "delay": null,
      "departure_time": "15:46:00",
      "old": false,
      "stop_lat": 50.05263,
      "stop_lon": 19.917407,
      "stop_name": "Salwator",
      "stop_num": "03",
      "stop_sequence": 23,
      "stopping": false,
      "time": null,
      "trip_id": "block_766_trip_12_service_4",
      "trip_num": 12
    },
    {
      "delay": null,
      "departure_time": "15:47:00",
      "old": false,
      "stop_lat": 50.052708,
      "stop_lon": 19.913739,
      "stop_name": "Salwator",
      "stop_num": "01",
      "stop_sequence": 24,
      "stopping": false,
      "time": null,
      "trip_id": "block_766_trip_12_service_4",
      "trip_num": 12
    },
    {
      "delay": null,
      "departure_time": "16:03:00",
      "old": false,
      "stop_lat": 50.052708,
      "stop_lon": 19.913739,
      "stop_name": "Salwator",
      "stop_num": "01",
      "stop_sequence": 1,
      "stopping": false,
      "time": null,
      "trip_id": "block_766_trip_13_service_4",
      "trip_num": 13
    },
    {
      "delay": null,
      "departure_time": "16:04:00",
      "old": false,
      "stop_lat": 50.052724,
      "stop_lon": 19.915028,
      "stop_name": "Salwator",
      "stop_num": "02",
      "stop_sequence": 2,
      "stopping": false,
      "time": null,
      "trip_id": "block_766_trip_13_service_4",
      "trip_num": 13
    },
    {
      "delay": null,
      "departure_time": "16:05:00",
      "old": false,
      "stop_lat": 50.053384,
      "stop_lon": 19.921893,
      "stop_name": "Komorowskiego",
      "stop_num": "02",
      "stop_sequence": 3,
      "stopping": false,
      "time": null,
      "trip_id": "block_766_trip_13_service_4",
      "trip_num": 13
    },
    {
      "delay": null,
      "departure_time": "16:07:00",
      "old": false,
      "stop_lat": 50.054999,
      "stop_lon": 19.927052,
      "stop_name": "Jubilat",
      "stop_num": "02",
      "stop_sequence": 4,
      "stopping": false,
      "time": null,
      "trip_id": "block_766_trip_13_service_4",
      "trip_num": 13
    },
    {
      "delay": null,
      "departure_time": "16:10:00",
      "old": false,
      "stop_lat": 50.058666,
      "stop_lon": 19.933001,
      "stop_name": "Filharmonia",
      "stop_num": "02",
      "stop_sequence": 5,
      "stopping": false,
      "time": null,
      "trip_id": "block_766_trip_13_service_4",
      "trip_num": 13
    },
    {
      "delay": null,
      "departure_time": "16:11:00",
      "old": false,
      "stop_lat": 50.059113,
      "stop_lon": 19.937497,
      "stop_name": "Plac Wszystkich Świętych",
      "stop_num": "02",
      "stop_sequence": 6,
      "stopping": false,
      "time": null,
      "trip_id": "block_766_trip_13_service_4",
      "trip_num": 13
    },
    {
      "delay": null,
      "departure_time": "16:13:00",
      "old": false,
      "stop_lat": 50.058486,
      "stop_lon": 19.940838,
      "stop_name": "św. Gertrudy",
      "stop_num": "02",
      "stop_sequence": 7,
      "stopping": false,
      "time": null,
      "trip_id": "block_766_trip_13_service_4",
      "trip_num": 13
    },