{
  "stop_times": [
    {
      "delay": null,
      "departure_time": "05:58:00",
      "old": false,
      "stop_lat": 50.029498,
      "stop_lon": 19.935946,
      "stop_name": "Łagiewniki",
      "stop_num": "04",
      "stop_sequence": 2,
      "stopping": false,
      "time": null,
      "trip_id": "block_687_trip_1_service_4",
      "trip_num": 1
    },
    {
      "delay": null,
      "departure_time": "06:00:00",
      "old": false,
      "stop_lat": 50.030486,
      "stop_lon": 19.937053,
      "stop_name": "Łagiewniki",
      "stop_num": "02",
      "stop_sequence": 3,
      "stopping": false,
      "time": null,
      "trip_id": "block_687_trip_1_service_4",
      "trip_num": 1
    },
    {
      "delay": null,
      "departure_time": "06:01:00",
      "old": false,
      "stop_lat": 50.03295,
      "stop_lon": 19.938389,
      "stop_name": "Rzemieślnicza",
      "stop_num": "02",
      "stop_sequence": 4,
      "stopping": false,
      "time": null,
      "trip_id": "block_687_trip_1_service_4",
      "trip_num": 1
    },
    {
      "delay": null,
      "departure_time": "06:02:00",
      "old": false,
      "stop_lat": 50.035927,
      "stop_lon": 19.940363,
      "stop_name": "Rondo Matecznego",
      "stop_num": "02",
      "stop_sequence": 5,
      "stopping": false,
      "time": null,
      "trip_id": "block_687_trip_1_service_4",
      "trip_num": 1
    },
    {
      "delay": null,
      "departure_time": "06:03:00",
      "old": false,
      "stop_lat": 50.041629,
      "stop_lon": 19.943262,
      "stop_name": "Smolki",
      "stop_num": "02",
      "stop_sequence": 6,
      "stopping": false,
      "time": null,
      "trip_id": "block_687_trip_1_service_4",
      "trip_num": 1
    },
    {
      "delay": null,
      "departure_time": "06:05:00",
      "old": false,
      "stop_lat": 50.043604,
      "stop_lon": 19.946683,
      "stop_name": "Korona",
      "stop_num": "01",
      "stop_sequence": 7,
      "stopping": false,
      "time": null,
      "trip_id": "block_687_trip_1_service_4",
      "trip_num": 1
    },
    {
      "delay": null,
      "departure_time": "06:07:00",
      "old": false,
      "stop_lat": 50.048114,
      "stop_lon": 19.943448,
      "stop_name": "Plac Wolnica",
      "stop_num": "02",
      "stop_sequence": 8,
      "stopping": false,
      "time": null,
      "trip_id": "block_687_trip_1_service_4",
      "trip_num": 1
    },
    {
      "delay": null,
      "departure_time": "06:09:00",
      "old": false,
      "stop_lat": 50.050842,
      "stop_lon": 19.942415,
      "stop_name": "Stradom",
      "stop_num": "04",
      "stop_sequence": 9,
      "stopping": false,
      "time": null,
      "trip_id": "block_687_trip_1_service_4",
      "trip_num": 1
    },
    {
      "delay": null,
      "departure_time": "06:11:00",
      "old": false,
      "stop_lat": 50.05449,
      "stop_lon": 19.93963,
      "stop_name": "Wawel",
      "stop_num": "01",
      "stop_sequence": 10,
      "stopping": false,
      "time": null,
      "trip_id": "block_687_trip_1_service_4",
      "trip_num": 1
    },
    {
      "delay": null,
      "departure_time": "06:12:00",
      "old": false,
      "stop_lat": 50.058627,
      "stop_lon": 19.940988,
      "stop_name": "św. Gertrudy",
      "stop_num": "01",
      "stop_sequence": 11,
      "stopping": false,
      "time": null,
      "trip_id": "block_687_trip_1_service_4",
      "trip_num": 1
    },
    {
      "delay": null,
      "departure_time": "06:13:00",
      "old": false,
      "stop_lat": 50.05912,
      "stop_lon": 19.93824,
      "stop_name": "Plac Wszystkich Świętych",
      "stop_num": "01",
      "stop_sequence": 12,
      "stopping": false,
      "time": null,
      "trip_id": "block_687_trip_1_service_4",
      "trip_num": 1
    },
    {
      "delay": null,
      "departure_time": "06:15:00",
      "old": false,
      "stop_lat": 50.05903,
      "stop_lon": 19.93387,
      "stop_name": "Filharmonia",
      "stop_num": "01",
      "stop_sequence": 13,
      "stopping": false,
      "time": null,
      "trip_id": "block_687_trip_1_service_4",
      "trip_num": 1
    },
    {
      "delay": null,
      "departure_time": "06:17:00",
      "old": false,
      "stop_lat": 50.055498,
      "stop_lon": 19.928109,
      "stop_name": "Jubilat",
      "stop_num": "01",
      "stop_sequence": 14,
      "stopping": false,
      "time": null,
      "trip_id": "block_687_trip_1_service_4",
      "trip_num": 1
    },
    {
      "delay": null,
      "departure_time": "06:19:00",
      "old": false,
      "stop_lat": 50.053451,
      "stop_lon": 19.921873,
      "stop_name": "Komorowskiego",
      "stop_num": "01",
      "stop_sequence": 15,
      "stopping": false,
      "time": null,
      "trip_id": "block_687_trip_1_service_4",
      "trip_num": 1
    },
    {
      "delay": null,
      "departure_time": "06:20:00",
      "old": false,
      "stop_lat": 50.05263,
      "stop_lon": 19.917407,
      "stop_name": "Salwator",
      "stop_num": "03",
      "stop_sequence": 16,
      "stopping": false,
      "time": null,
      "trip_id": "block_687_trip_1_service_4",
      "trip_num": 1
    },
    {
      "delay": null,
      "departure_time": "06:21:00",
      "old": false,
      "stop_lat": 50.052708,
      "stop_lon": 19.913739,
      "stop_name": "Salwator",
      "stop_num": "01",
      "stop_sequence": 17,
      "stopping": false,
      "time": null,
      "trip_id": "block_687_trip_1_service_4",
      "trip_num": 1
    },
    {
      "delay": null,
      "departure_time": "06:38:00",
      "old": false,
      "stop_lat": 50.052708,
      "stop_lon": 19.913739,
      "stop_name": "Salwator",
      "stop_num": "01",
      "stop_sequence": 1,
      "stopping": false,
      "time": null,
      "trip_id": "block_687_trip_2_service_4",
      "trip_num": 2
    },
    {
      "delay": null,
      "departure_time": "06:39:00",
      "old": false,
      "stop_lat": 50.052724,
      "stop_lon": 19.915028,
      "stop_name": "Salwator",
      "stop_num": "02",
      "stop_sequence": 2,
      "stopping": false,
      "time": null,
      "trip_id": "block_687_trip_2_service_4",
      "trip_num": 2
    },
    {
      "delay": null,
      "departure_time": "06:40:00",
      "old": false,
      "stop_lat": 50.053384,
      "stop_lon": 19.921893,
      "stop_name": "Komorowskiego",
      "stop_num": "02",
      "stop_sequence": 3,
      "stopping": false,
      "time": null,
      "trip_id": "block_687_trip_2_service_4",
      "trip_num": 2
    },
    {
      "delay": null,
      "departure_time": "06:42:00",
      "old": false,
      "stop_lat": 50.054999,
      "stop_lon": 19.927052,
      "stop_name": "Jubilat",
      "stop_num": "02",
      "stop_sequence": 4,
      "stopping": false,
      "time": null,
      "trip_id": "block_687_trip_2_service_4",
      "trip_num": 2
    },
    {
      "delay": null,
      "departure_time": "06:45:00",
      "old": false,
      "stop_lat": 50.058666,
      "stop_lon": 19.933001,
      "stop_name": "Filharmonia",
      "stop_num": "02",
      "stop_sequence": 5,
      "stopping": false,
      "time": null,
      "trip_id": "block_687_trip_2_service_4",
      "trip_num": 2
    },
    {
      "delay": null,
      "departure_time": "06:46:00",
      "old": false,
      "stop_lat": 50.059113,
      "stop_lon": 19.937497,
      "stop_name": "Plac Wszystkich Świętych",
      "stop_num": "02",
      "stop_sequence": 6,
      "stopping": false,
      "time": null,
      "trip_id": "block_687_trip_2_service_4",
      "trip_num": 2
    },
    {
      "delay": null,
      "departure_time": "06:48:00",
      "old": false,
      "stop_lat": 50.059339,
      "stop_lon": 19.941821,
      "stop_name": "Poczta Główna",
      "stop_num": "03",
      "stop_sequence": 7,
      "stopping": false,
      "time": null,
      "trip_id": "block_687_trip_2_service_4",
      "trip_num": 2
    },
    {
      "delay": null,
      "departure_time": "06:51:00",
      "old": false,
      "stop_lat": 50.057227,
      "stop_lon": 19.946086,
      "stop_name": "Starowiślna",
      "stop_num": "03",
      "stop_sequence": 8,
      "stopping": false,
      "time": null,
      "trip_id": "block_687_trip_2_service_4",
      "trip_num": 2
    },
    {
      "delay": null,
      "departure_time": "06:52:00",
      "old": false,
      "stop_lat": 50.058639,
      "stop_lon": 19.948875,
      "stop_name": "Hala Targowa",
      "stop_num": "01",
      "stop_sequence": 9,
      "stopping": false,
      "time": null,
      "trip_id": "block_687_trip_2_service_4",
      "trip_num": 2
    },
    {
      "delay": null,
      "departure_time": "06:56:00",
      "old": false,
      "stop_lat": 50.057888,
      "stop_lon": 19.960296,
      "stop_name": "Rondo Grzegórzeckie",
      "stop_num": "01",
      "stop_sequence": 10,
      "stopping": false,
      "time": null,
      "trip_id": "block_687_trip_2_service_4",
      "trip_num": 2
    },
    {
      "delay": null,
      "departure_time": "06:57:00",
      "old": false,
      "stop_lat": 50.058858,
      "stop_lon": 19.962529,
      "stop_name": "Teatr Variété",
      "stop_num": "01",
      "stop_sequence": 11,
      "stopping": false,
      "time": null,
      "trip_id": "block_687_trip_2_service_4",
      "trip_num": 2
    },
    {
      "delay": null,
      "departure_time": "06:58:00",
      "old": false,
      "stop_lat": 50.060001,
      "stop_lon": 19.966793,
      "stop_name": "Nullo",
      "stop_num": "01",
      "stop_sequence": 12,
      "stopping": false,
      "time": null,
      "trip_id": "block_687_trip_2_service_4",
      "trip_num": 2
    },
    {
      "delay": null,
      "departure_time": "06:59:00",
      "old": false,
      "stop_lat": 50.060437,
      "stop_lon": 19.970172,
      "stop_name": "Fabryczna",
      "stop_num": "01",
      "stop_sequence": 13,
      "stopping": false,
      "time": null,
      "trip_id": "block_687_trip_2_service_4",
      "trip_num": 2
    },
    {
      "delay": null,
      "departure_time": "07:00:00",
      "old": false,
      "stop_lat": 50.05959,
      "stop_lon": 19.976363,
      "stop_name": "Ofiar Dąbia",
      "stop_num": "01",
      "stop_sequence": 14,
      "stopping": false,
      "time": null,
      "trip_id": "block_687_trip_2_service_4",
      "trip_num": 2
    },
    {
      "delay": null,
      "departure_time": "07:01:00",
      "old": false,
      "stop_lat": 50.060724,
      "stop_lon": 19.979185,
      "stop_name": "Dąbie",
      "stop_num": "01",
      "stop_sequence": 15,
      "stopping": false,
      "time": null,
      "trip_id": "block_687_trip_2_service_4",
      "trip_num": 2
    },
    {
      "delay": null,
      "departure_time": "07:03:00",
      "old": false,
      "stop_lat": 50.064188,
      "stop_lon": 19.988978,
      "stop_name": "TAURON Arena Kraków al. Pokoju",
      "stop_num": "01",
      "stop_sequence": 16,
      "stopping": false,
      "time": null,
      "trip_id": "block_687_trip_2_service_4",
      "trip_num": 2
    },
    {
      "delay": null,
      "departure_time": "07:05:00",
      "old": false,
      "stop_lat": 50.065658,
      "stop_lon": 19.997488,
      "stop_name": "Ogród Doświadczeń",
      "stop_num": "01",
      "stop_sequence": 17,
      "stopping": false,
      "time": null,
      "trip_id": "block_687_trip_2_service_4",
      "trip_num": 2
    },
    {
      "delay": null,
      "departure_time": "07:07:00",
      "old": false,
      "stop_lat": 50.067352,
      "stop_lon": 20.005379,
      "stop_name": "Rondo 308. Dywizjonu",
      "stop_num": "01",
      "stop_sequence": 18,
      "stopping": false,
      "time": null,
      "trip_id": "block_687_trip_2_service_4",
      "trip_num": 2
    },
    {
      "delay": null,
      "departure_time": "07:08:00",
      "old": false,
      "stop_lat": 50.0692,
      "stop_lon": 20.012191,
      "stop_name": "Gałczyńskiego",
      "stop_num": "01",
      "stop_sequence": 19,
      "stopping": false,
      "time": null,
      "trip_id": "block_687_trip_2_service_4",
      "trip_num": 2
    },
    {
      "delay": null,
      "departure_time": "07:11:00",
      "old": false,
      "stop_lat": 50.074193,
      "stop_lon": 20.018028,
      "stop_name": "Rondo Czyżyńskie",
      "stop_num": "03",
      "stop_sequence": 20,
      "stopping": false,
      "time": null,
      "trip_id": "block_687_trip_2_service_4",
      "trip_num": 2
    },
    {
      "delay": null,
      "departure_time": "07:12:00",
      "old": false,
      "stop_lat": 50.0757,
      "stop_lon": 20.02058,
      "stop_name": "Bieńczycka",
      "stop_num": "02",
      "stop_sequence": 21,
      "stopping": false,
      "time": null,
      "trip_id": "block_687_trip_2_service_4",
      "trip_num": 2
    },
    {
      "delay": null,
      "departure_time": "07:15:00",
      "old": false,
      "stop_lat": 50.080062,
      "stop_lon": 20.028408,
      "stop_name": "Rondo Kocmyrzowskie im. Ks. Gorzelanego",
      "stop_num": "03",
      "stop_sequence": 22,
      "stopping": false,
      "time": null,
      "trip_id": "block_687_trip_2_service_4",
      "trip_num": 2
    },
    {
      "delay": null,
      "departure_time": "07:16:00",
      "old": false,
      "stop_lat": 50.081863,
      "stop_lon": 20.032035,
      "stop_name": "Teatr Ludowy",
      "stop_num": "02",
      "stop_sequence": 23,
      "stopping": false,
      "time": null,
      "trip_id": "block_687_trip_2_service_4",
      "trip_num": 2
    },
    {
      "delay": null,
      "departure_time": "07:17:00",
      "old": false,
      "stop_lat": 50.08492,
      "stop_lon": 20.03772,
      "stop_name": "Cienista",
      "stop_num": "02",
      "stop_sequence": 24,
      "stopping": false,
      "time": null,
      "trip_id": "block_687_trip_2_service_4",
      "trip_num": 2
    },
    {
      "delay": null,
      "departure_time": "07:19:00",
      "old": false,
      "stop_lat": 50.086937,
      "stop_lon": 20.047608,
      "stop_name": "Wańkowicza",
      "stop_num": "02",
      "stop_sequence": 25,
      "stopping": false,
      "time": null,
      "trip_id": "block_687_trip_2_service_4",
      "trip_num": 2
    },
    {
      "delay": null,
      "departure_time": "07:21:00",
      "old": false,
      "stop_lat": 50.08959,
      "stop_lon": 20.059093,
      "stop_name": "Darwina",
      "stop_num": "01",
      "stop_sequence": 26,
      "stopping": false,
      "time": null,
      "trip_id": "block_687_trip_2_service_4",
      "trip_num": 2
    },
    {
      "delay": null,
      "departure_time": "07:22:00",
      "old": false,
      "stop_lat": 50.092298,
      "stop_lon": 20.061609,
      "stop_name": "Jarzębiny",
      "stop_num": "01",
      "stop_sequence": 27,
      "stopping": false,
      "time": null,
      "trip_id": "block_687_trip_2_service_4",
      "trip_num": 2
    },
    {
      "delay": null,
      "departure_time": "07:24:00",
      "old": false,
      "stop_lat": 50.094595,
      "stop_lon": 20.064858,
      "stop_name": "Wzgórza Krzesławickie",
      "stop_num": "01",
      "stop_sequence": 28,
      "stopping": false,
      "time": null,
      "trip_id": "block_687_trip_2_service_4",
      "trip_num": 2
    },
    {
      "delay": null,
      "departure_time": "07:38:00",
      "old": false,
      "stop_lat": 50.094595,
      "stop_lon": 20.064858,
      "stop_name": "Wzgórza Krzesławickie",
      "stop_num": "01",
      "stop_sequence": 1,
      "stopping": false,
      "time": null,
      "trip_id": "block_687_trip_3_service_4",
      "trip_num": 3
    },
    {
      "delay": null,
      "departure_time": "07:39:00",
      "old": false,
      "stop_lat": 50.091985,
      "stop_lon": 20.061099,
      "stop_name": "Jarzębiny",
      "stop_num": "02",
      "stop_sequence": 2,
      "stopping": false,
      "time": null,
      "trip_id": "block_687_trip_3_service_4",
      "trip_num": 3
    },
    {
      "delay": null,
      "departure_time": "07:40:00",
      "old": false,
      "stop_lat": 50.089588,
      "stop_lon": 20.059129,
      "stop_name": "Darwina",
      "stop_num": "02",
      "stop_sequence": 3,
      "stopping": false,
      "time": null,
      "trip_id": "block_687_trip_3_service_4",
      "trip_num": 3
    },
    {
      "delay": null,
      "departure_time": "07:42:00",
      "old": false,
      "stop_lat": 50.086978,
      "stop_lon": 20.04756,
      "stop_name": "Wańkowicza",
      "stop_num": "01",
      "stop_sequence": 4,
      "stopping": false,
      "time": null,
      "trip_id": "block_687_trip_3_service_4",
      "trip_num": 3
    },
    {
      "delay": null,
      "departure_time": "07:43:00",
      "old": false,
      "stop_lat": 50.08539,
      "stop_lon": 20.03852,
      "stop_name": "Cienista",
      "stop_num": "01",
      "stop_sequence": 5,
      "stopping": false,
      "time": null,
      "trip_id": "block_687_trip_3_service_4",
      "trip_num": 3
    },
    {
      "delay": null,
      "departure_time": "07:44:00",
      "old": false,
      "stop_lat": 50.082264,
      "stop_lon": 20.032708,
      "stop_name": "Teatr Ludowy",
      "stop_num": "01",
      "stop_sequence": 6,
      "stopping": false,
      "time": null,
      "trip_id": "block_687_trip_3_service_4",
      "trip_num": 3
    },
    {
      "delay": null,
      "departure_time": "07:47:00",
      "old": false,
      "stop_lat": 50.07905,
      "stop_lon": 20.026486,
      "stop_name": "Rondo Kocmyrzowskie im. Ks. Gorzelanego",
      "stop_num": "02",
      "stop_sequence": 7,
      "stopping": false,
      "time": null,
      "trip_id": "block_687_trip_3_service_4",
      "trip_num": 3
    },
    {
      "delay": null,
      "departure_time": "07:48:00",
      "old": false,
      "stop_lat": 50.075661,
      "stop_lon": 20.02044,
      "stop_name": "Bieńczycka",
      "stop_num": "01",
      "stop_sequence": 8,
      "stopping": false,
      "time": null,
      "trip_id": "block_687_trip_3_service_4",
      "trip_num": 3
    },
    {
      "delay": null,
      "departure_time": "07:51:00",
      "old": false,
      "stop_lat": 50.072758,
      "stop_lon": 20.017068,
      "stop_name": "Rondo Czyżyńskie",
      "stop_num": "04",
      "stop_sequence": 9,
      "stopping": false,
      "time": null,
      "trip_id": "block_687_trip_3_service_4",
      "trip_num": 3
    },
    {
      "delay": null,
      "departure_time": "07:52:00",
      "old": false,
      "stop_lat": 50.069417,
      "stop_lon": 20.012742,
      "stop_name": "Gałczyńskiego",
      "stop_num": "02",
      "stop_sequence": 10,
      "stopping": false,
      "time": null,
      "trip_id": "block_687_trip_3_service_4",
      "trip_num": 3
    },
    {
      "delay": null,
      "departure_time": "07:53:00",
      "old": false,
      "stop_lat": 50.067398,
      "stop_lon": 20.005374,
      "stop_name": "Rondo 308. Dywizjonu",
      "stop_num": "02",
      "stop_sequence": 11,
      "stopping": false,
      "time": null,
      "trip_id": "block_687_trip_3_service_4",
      "trip_num": 3
    },
    {
      "delay": null,
      "departure_time": "07:55:00",
      "old": false,
      "stop_lat": 50.065502,
      "stop_lon": 19.996324,
      "stop_name": "Ogród Doświadczeń",
      "stop_num": "02",
      "stop_sequence": 12,
      "stopping": false,
      "time": null,
      "trip_id": "block_687_trip_3_service_4",
      "trip_num": 3
    },
    {
      "delay": null,
      "departure_time": "07:56:00",
      "old": false,
      "stop_lat": 50.064416,
      "stop_lon": 19.990077,
      "stop_name": "TAURON Arena Kraków al. Pokoju",
      "stop_num": "02",
      "stop_sequence": 13,
      "stopping": false,
      "time": null,
      "trip_id": "block_687_trip_3_service_4",
      "trip_num": 3
    },
    {
      "delay": null,
      "departure_time": "07:58:00",
      "old": false,
      "stop_lat": 50.060709,
      "stop_lon": 19.979012,
      "stop_name": "Dąbie",
      "stop_num": "02",
      "stop_sequence": 14,
      "stopping": false,
      "time": null,
      "trip_id": "block_687_trip_3_service_4",
      "trip_num": 3
    },
    {
      "delay": null,
      "departure_time": "07:59:00",
      "old": false,
      "stop_lat": 50.059629,
      "stop_lon": 19.976271,
      "stop_name": "Ofiar Dąbia",
      "stop_num": "02",
      "stop_sequence": 15,
      "stopping": false,
      "time": null,
      "trip_id": "block_687_trip_3_service_4",
      "trip_num": 3
    },
    {
      "delay": null,
      "departure_time": "08:00:00",
      "old": false,
      "stop_lat": 50.060251,
      "stop_lon": 19.971272,
      "stop_name": "Fabryczna",
      "stop_num": "02",
      "stop_sequence": 16,
      "stopping": false,
      "time": null,
      "trip_id": "block_687_trip_3_service_4",
      "trip_num": 3
    },
    {
      "delay": null,
      "departure_time": "08:01:00",
      "old": false,
      "stop_lat": 50.060173,
      "stop_lon": 19.967382,
      "stop_name": "Nullo",
      "stop_num": "02",
      "stop_sequence": 17,
      "stopping": false,
      "time": null,
      "trip_id": "block_687_trip_3_service_4",
      "trip_num": 3
    },
    {
      "delay": null,
      "departure_time": "08:02:00",
      "old": false,
      "stop_lat": 50.058827,
      "stop_lon": 19.962374,
      "stop_name": "Teatr Variété",
      "stop_num": "02",
      "stop_sequence": 18,
      "stopping": false,
      "time": null,
      "trip_id": "block_687_trip_3_service_4",
      "trip_num": 3
    },
    {
      "delay": null,
      "departure_time": "08:05:00",
      "old": false,
      "stop_lat": 50.057558,
      "stop_lon": 19.957748,
      "stop_name": "Rondo Grzegórzeckie",
      "stop_num": "02",
      "stop_sequence": 19,
      "stopping": false,
      "time": null,
      "trip_id": "block_687_trip_3_service_4",
      "trip_num": 3
    },
    {
      "delay": null,
      "departure_time": "08:07:00",
      "old": false,
      "stop_lat": 50.058678,
      "stop_lon": 19.948657,
      "stop_name": "Hala Targowa",
      "stop_num": "02",
      "stop_sequence": 20,
      "stopping": false,
      "time": null,
      "trip_id": "block_687_trip_3_service_4",
      "trip_num": 3
    },
    {
      "delay": null,
      "departure_time": "08:08:00",
      "old": false,
      "stop_lat": 50.057262,
      "stop_lon": 19.946032,
      "stop_name": "Starowiślna",
      "stop_num": "04",
      "stop_sequence": 21,
      "stopping": false,
      "time": null,
      "trip_id": "block_687_trip_3_service_4",
      "trip_num": 3
    },
    {
      "delay": null,
      "departure_time": "08:10:00",
      "old": false,
      "stop_lat": 50.059205,
      "stop_lon": 19.942571,
      "stop_name": "Poczta Główna",
      "stop_num": "02",
      "stop_sequence": 22,
      "stopping": false,
      "time": null,
      "trip_id": "block_687_trip_3_service_4",
      "trip_num": 3
    },
    {
      "delay": null,
      "departure_time": "08:12:00",
      "old": false,
      "stop_lat": 50.05912,
      "stop_lon": 19.93824,
      "stop_name": "Plac Wszystkich Świętych",
      "stop_num": "01",
      "stop_sequence": 23,
      "stopping": false,
      "time": null,
      "trip_id": "block_687_trip_3_service_4",
      "trip_num": 3
    },
    {
      "delay": null,
      "departure_time": "08:14:00",
      "old": false,
      "stop_lat": 50.05903,
      "stop_lon": 19.93387,
      "stop_name": "Filharmonia",
      "stop_num": "01",
      "stop_sequence": 24,
      "stopping": false,
      "time": null,
      "trip_id": "block_687_trip_3_service_4",
      "trip_num": 3
    },
    {
      "delay": null,
      "departure_time": "08:16:00",
      "old": false,
      "stop_lat": 50.055498,
      "stop_lon": 19.928109,
      "stop_name": "Jubilat",
      "stop_num": "01",
      "stop_sequence": 25,
      "stopping": false,
      "time": null,
      "trip_id": "block_687_trip_3_service_4",
      "trip_num": 3
    },
    {
      "delay": null,
      "departure_time": "08:18:00",
      "old": false,
      "stop_lat": 50.053451,
      "stop_lon": 19.921873,
      "stop_name": "Komorowskiego",
      "stop_num": "01",
      "stop_sequence": 26,
      "stopping": false,
      "time": null,
      "trip_id": "block_687_trip_3_service_4",
      "trip_num": 3
    },
    {
      "delay": null,
      "departure_time": "08:19:00",
      "old": false,
      "stop_lat": 50.05263,
      "stop_lon": 19.917407,
      "stop_name": "Salwator",
      "stop_num": "03",
      "stop_sequence": 27,
      "stopping": false,
      "time": null,
      "trip_id": "block_687_trip_3_service_4",
      "trip_num": 3
    },
    {
      "delay": null,
      "departure_time": "08:20:00",
      "old": false,
      "stop_lat": 50.052708,
      "stop_lon": 19.913739,
      "stop_name": "Salwator",
      "stop_num": "01",
      "stop_sequence": 28,
      "stopping": false,
      "time": null,
      "trip_id": "block_687_trip_3_service_4",
      "trip_num": 3
    },
    {
      "delay": null,
      "departure_time": "08:37:00",
      "old": false,
      "stop_lat": 50.052708,
      "stop_lon": 19.913739,
      "stop_name": "Salwator",
      "stop_num": "01",
      "stop_sequence": 1,
      "stopping": false,
      "time": null,
      "trip_id": "block_687_trip_4_service_4",
      "trip_num": 4
    },
    {
      "delay": null,
      "departure_time": "08:38:00",
      "old": false,
      "stop_lat": 50.052724,
      "stop_lon": 19.915028,
      "stop_name": "Salwator",
      "stop_num": "02",
      "stop_sequence": 2,
      "stopping": false,
      "time": null,
      "trip_id": "block_687_trip_4_service_4",
      "trip_num": 4
    },
    {
      "delay": null,
      "departure_time": "08:39:00",
      "old": false,
      "stop_lat": 50.053384,
      "stop_lon": 19.921893,
      "stop_name": "Komorowskiego",
      "stop_num": "02",
      "stop_sequence": 3,
      "stopping": false,
      "time": null,
      "trip_id": "block_687_trip_4_service_4",
      "trip_num": 4
    },
    {
      "delay": null,
      "departure_time": "08:41:00",
      "old": false,
      "stop_lat": 50.054999,
      "stop_lon": 19.927052,
      "stop_name": "Jubilat",
      "stop_num": "02",
      "stop_sequence": 4,
      "stopping": false,
      "time": null,
      "trip_id": "block_687_trip_4_service_4",
      "trip_num": 4
    },
    {
      "delay": null,
      "departure_time": "08:44:00",
      "old": false,
      "stop_lat": 50.058666,
      "stop_lon": 19.933001,
      "stop_name": "Filharmonia",
      "stop_num": "02",
      "stop_sequence": 5,
      "stopping": false,
      "time": null,
      "trip_id": "block_687_trip_4_service_4",
      "trip_num": 4
    },
    {
      "delay": null,
      "departure_time": "08:45:00",
      "old": false,
      "stop_lat": 50.059113,
      "stop_lon": 19.937497,
      "stop_name": "Plac Wszystkich Świętych",
      "stop_num": "02",
      "stop_sequence": 6,
      "stopping": false,
      "time": null,
      "trip_id": "block_687_trip_4_service_4",
      "trip_num": 4
    },
    {
      "delay": null,
      "departure_time": "08:47:00",
      "old": false,
      "stop_lat": 50.059339,
      "stop_lon": 19.941821,
      "stop_name": "Poczta Główna",
      "stop_num": "03",
      "stop_sequence": 7,
      "stopping": false,
      "time": null,
      "trip_id": "block_687_trip_4_service_4",
      "trip_num": 4
    },
    {
      "delay": null,
      "departure_time": "08:50:00",
      "old": false,
      "stop_lat": 50.057227,
      "stop_lon": 19.946086,
      "stop_name": "Starowiślna",
      "stop_num": "03",
      "stop_sequence": 8,
      "stopping": false,
      "time": null,
      "trip_id": "block_687_trip_4_service_4",
      "trip_num": 4
    },
    {
      "delay": null,
      "departure_time": "08:51:00",
      "old": false,
      "stop_lat": 50.058639,
      "stop_lon": 19.948875,
      "stop_name": "Hala Targowa",
      "stop_num": "01",
      "stop_sequence": 9,
      "stopping": false,
      "time": null,
      "trip_id": "block_687_trip_4_service_4",
      "trip_num": 4
    },
    {
      "delay": null,
      "departure_time": "08:55:00",
      "old": false,
      "stop_lat": 50.057888,
      "stop_lon": 19.960296,
      "stop_name": "Rondo Grzegórzeckie",
      "stop_num": "01",
      "stop_sequence": 10,
      "stopping": false,
      "time": null,
      "trip_id": "block_687_trip_4_service_4",
      "trip_num": 4
    },
    {
      "delay": null,
      "departure_time": "08:56:00",
      "old": false,
      "stop_lat": 50.058858,
      "stop_lon": 19.962529,
      "stop_name": "Teatr Variété",
      "stop_num": "01",
      "stop_sequence": 11,
      "stopping": false,
      "time": null,
      "trip_id": "block_687_trip_4_service_4",
      "trip_num": 4
    },
    {
      "delay": null,
      "departure_time": "08:57:00",
      "old": false,
      "stop_lat": 50.060001,
      "stop_lon": 19.966793,
      "stop_name": "Nullo",
      "stop_num": "01",
      "stop_sequence": 12,
      "stopping": false,
      "time": null,
      "trip_id": "block_687_trip_4_service_4",
      "trip_num": 4
    },
    {
      "delay": null,
      "departure_time": "08:58:00",
      "old": false,
      "stop_lat": 50.060437,
      "stop_lon": 19.970172,
      "stop_name": "Fabryczna",
      "stop_num": "01",
      "stop_sequence": 13,
      "stopping": false,
      "time": null,
      "trip_id": "block_687_trip_4_service_4",
      "trip_num": 4
    },
    {
      "delay": null,
      "departure_time": "08:59:00",
      "old": false,
      "stop_lat": 50.05959,
      "stop_lon": 19.976363,
      "stop_name": "Ofiar Dąbia",
      "stop_num": "01",
      "stop_sequence": 14,
      "stopping": false,
      "time": null,
      "trip_id": "block_687_trip_4_service_4",
      "trip_num": 4
    },
    {
      "delay": null,
      "departure_time": "09:00:00",
      "old": false,
      "stop_lat": 50.060724,
      "stop_lon": 19.979185,
      "stop_name": "Dąbie",
      "stop_num": "01",
      "stop_sequence": 15,
      "stopping": false,
      "time": null,
      "trip_id": "block_687_trip_4_service_4",
      "trip_num": 4
    },
    {
      "delay": null,
      "departure_time": "09:02:00",
      "old": false,
      "stop_lat": 50.064188,
      "stop_lon": 19.988978,
      "stop_name": "TAURON Arena Kraków al. Pokoju",
      "stop_num": "01",
      "stop_sequence": 16,
      "stopping": false,
      "time": null,
      "trip_id": "block_687_trip_4_service_4",
      "trip_num": 4
    },
    {
      "delay": null,
      "departure_time": "09:04:00",
      "old": false,
      "stop_lat": 50.065658,
      "stop_lon": 19.997488,
      "stop_name": "Ogród Doświadczeń",
      "stop_num": "01",
      "stop_sequence": 17,
      "stopping": false,
      "time": null,
      "trip_id": "block_687_trip_4_service_4",
      "trip_num": 4
    },
    {
      "delay": null,
      "departure_time": "09:06:00",
      "old": false,
      "stop_lat": 50.067352,
      "stop_lon": 20.005379,
      "stop_name": "Rondo 308. Dywizjonu",
      "stop_num": "01",
      "stop_sequence": 18,
      "stopping": false,
      "time": null,
      "trip_id": "block_687_trip_4_service_4",
      "trip_num": 4
    },
    {
      "delay": null,
      "departure_time": "09:07:00",
      "old": false,
      "stop_lat": 50.0692,
      "stop_lon": 20.012191,
      "stop_name": "Gałczyńskiego",
      "stop_num": "01",
      "stop_sequence": 19,
      "stopping": false,
      "time": null,
      "trip_id": "block_687_trip_4_service_4",
      "trip_num": 4
    },
    {
      "delay": null,
      "departure_time": "09:10:00",
      "old": false,
      "stop_lat": 50.074193,
      "stop_lon": 20.018028,
      "stop_name": "Rondo Czyżyńskie",
      "stop_num": "03",
      "stop_sequence": 20,
      "stopping": false,
      "time": null,
      "trip_id": "block_687_trip_4_service_4",
      "trip_num": 4
    },
    {
      "delay": null,
      "departure_time": "09:11:00",
      "old": false,
      "stop_lat": 50.0757,
      "stop_lon": 20.02058,
      "stop_name": "Bieńczycka",
      "stop_num": "02",
      "stop_sequence": 21,
      "stopping": false,
      "time": null,
      "trip_id": "block_687_trip_4_service_4",
      "trip_num": 4
    },
    {
      "delay": null,
      "departure_time": "09:14:00",
      "old": false,
      "stop_lat": 50.080062,
      "stop_lon": 20.028408,
      "stop_name": "Rondo Kocmyrzowskie im. Ks. Gorzelanego",
      "stop_num": "03",
      "stop_sequence": 22,
      "stopping": false,
      "time": null,
      "trip_id": "block_687_trip_4_service_4",
      "trip_num": 4
    },
    {
      "delay": null,
      "departure_time": "09:15:00",
      "old": false,
      "stop_lat": 50.081863,
      "stop_lon": 20.032035,
      "stop_name": "Teatr Ludowy",
      "stop_num": "02",
      "stop_sequence": 23,
      "stopping": false,
      "time": null,
      "trip_id": "block_687_trip_4_service_4",
      "trip_num": 4
    },
    {
      "delay": null,
      "departure_time": "09:16:00",
      "old": false,
      "stop_lat": 50.08492,
      "stop_lon": 20.03772,
      "stop_name": "Cienista",
      "stop_num": "02",
      "stop_sequence": 24,
      "stopping": false,
      "time": null,
      "trip_id": "block_687_trip_4_service_4",
      "trip_num": 4
    },
    {
      "delay": null,
      "departure_time": "09:18:00",
      "old": false,
      "stop_lat": 50.086937,
      "stop_lon": 20.047608,
      "stop_name": "Wańkowicza",
      "stop_num": "02",
      "stop_sequence": 25,
      "stopping": false,
      "time": null,
      "trip_id": "block_687_trip_4_service_4",
      "trip_num": 4
    },
    {
      "delay": null,
      "departure_time": "09:20:00",
      "old": false,
      "stop_lat": 50.08959,
      "stop_lon": 20.059093,
      "stop_name": "Darwina",
      "stop_num": "01",
      "stop_sequence": 26,
      "stopping": false,
      "time": null,
      "trip_id": "block_687_trip_4_service_4",
      "trip_num": 4
    },
    {
      "delay": null,
      "departure_time": "09:21:00",
      "old": false,
      "stop_lat": 50.092298,
      "stop_lon": 20.061609,
      "stop_name": "Jarzębiny",
      "stop_num": "01",
      "stop_sequence": 27,
      "stopping": false,
      "time": null,
      "trip_id": "block_687_trip_4_service_4",
      "trip_num": 4
    },
    {
      "delay": null,
      "departure_time": "09:23:00",
      "old": false,
      "stop_lat": 50.094595,
      "stop_lon": 20.064858,
      "stop_name": "Wzgórza Krzesławickie",
      "stop_num": "01",
      "stop_sequence": 28,
      "stopping": false,
      "time": null,
      "trip_id": "block_687_trip_4_service_4",
      "trip_num": 4
    },
    {
      "delay": null,
      "departure_time": "09:38:00",
      "old": false,
      "stop_lat": 50.094595,
      "stop_lon": 20.064858,
      "stop_name": "Wzgórza Krzesławickie",
      "stop_num": "01",
      "stop_sequence": 1,
      "stopping": false,
      "time": null,
      "trip_id": "block_687_trip_5_service_4",
      "trip_num": 5
    },
    {
      "delay": null,
      "departure_time": "09:39:00",
      "old": false,
      "stop_lat": 50.091985,
      "stop_lon": 20.061099,
      "stop_name": "Jarzębiny",
      "stop_num": "02",
      "stop_sequence": 2,
      "stopping": false,
      "time": null,
      "trip_id": "block_687_trip_5_service_4",
      "trip_num": 5
    },
    {
      "delay": null,
      "departure_time": "09:40:00",
      "old": false,
      "stop_lat": 50.089588,
      "stop_lon": 20.059129,
      "stop_name": "Darwina",
      "stop_num": "02",
      "stop_sequence": 3,
      "stopping": false,
      "time": null,
      "trip_id": "block_687_trip_5_service_4",
      "trip_num": 5
    },
    {
      "delay": null,
      "departure_time": "09:42:00",
      "old": false,
      "stop_lat": 50.086978,
      "stop_lon": 20.04756,
      "stop_name": "Wańkowicza",
      "stop_num": "01",
      "stop_sequence": 4,
      "stopping": false,
      "time": null,
      "trip_id": "block_687_trip_5_service_4",
      "trip_num": 5
    },
    {
      "delay": null,
      "departure_time": "09:43:00",
      "old": false,
      "stop_lat": 50.08539,
      "stop_lon": 20.03852,
      "stop_name": "Cienista",
      "stop_num": "01",
      "stop_sequence": 5,
      "stopping": false,
      "time": null,
      "trip_id": "block_687_trip_5_service_4",
      "trip_num": 5
    },
    {
      "delay": null,
      "departure_time": "09:44:00",
      "old": false,
      "stop_lat": 50.082264,
      "stop_lon": 20.032708,
      "stop_name": "Teatr Ludowy",
      "stop_num": "01",
      "stop_sequence": 6,
      "stopping": false,
      "time": null,
      "trip_id": "block_687_trip_5_service_4",
      "trip_num": 5
    },
    {
      "delay": null,
      "departure_time": "09:47:00",
      "old": false,
      "stop_lat": 50.07905,
      "stop_lon": 20.026486,
      "stop_name": "Rondo Kocmyrzowskie im. Ks. Gorzelanego",
      "stop_num": "02",
      "stop_sequence": 7,
      "stopping": false,
      "time": null,
      "trip_id": "block_687_trip_5_service_4",
      "trip_num": 5
    },
    {
      "delay": null,
      "departure_time": "09:48:00",
      "old": false,
      "stop_lat": 50.075661,
      "stop_lon": 20.02044,
      "stop_name": "Bieńczycka",
      "stop_num": "01",
      "stop_sequence": 8,
      "stopping": false,
      "time": null,
      "trip_id": "block_687_trip_5_service_4",
      "trip_num": 5
    },
    {
      "delay": null,
      "departure_time": "09:51:00",
      "old": false,
      "stop_lat": 50.072758,
      "stop_lon": 20.017068,
      "stop_name": "Rondo Czyżyńskie",
      "stop_num": "04",
      "stop_sequence": 9,
      "stopping": false,
      "time": null,
      "trip_id": "block_687_trip_5_service_4",
      "trip_num": 5
    },
    {
      "delay": null,
      "departure_time": "09:52:00",
      "old": false,
      "stop_lat": 50.069417,
      "stop_lon": 20.012742,
      "stop_name": "Gałczyńskiego",
      "stop_num": "02",
      "stop_sequence": 10,
      "stopping": false,
      "time": null,
      "trip_id": "block_687_trip_5_service_4",
      "trip_num": 5
    },
    {
      "delay": null,
      "departure_time": "09:53:00",
      "old": false,
      "stop_lat": 50.067398,
      "stop_lon": 20.005374,
      "stop_name": "Rondo 308. Dywizjonu",
      "stop_num": "02",
      "stop_sequence": 11,
      "stopping": false,
      "time": null,
      "trip_id": "block_687_trip_5_service_4",
      "trip_num": 5
    },
    {
      "delay": null,
      "departure_time": "09:55:00",
      "old": false,
      "stop_lat": 50.065502,
      "stop_lon": 19.996324,
      "stop_name": "Ogród Doświadczeń",
      "stop_num": "02",
      "stop_sequence": 12,
      "stopping": false,
      "time": null,
      "trip_id": "block_687_trip_5_service_4",
      "trip_num": 5
    },
    {
      "delay": null,
      "departure_time": "09:56:00",
      "old": false,
      "stop_lat": 50.064416,
      "stop_lon": 19.990077,
      "stop_name": "TAURON Arena Kraków al. Pokoju",
      "stop_num": "02",
      "stop_sequence": 13,
      "stopping": false,
      "time": null,
      "trip_id": "block_687_trip_5_service_4",
      "trip_num": 5
    },
    {
      "delay": null,
      "departure_time": "09:58:00",
      "old": false,
      "stop_lat": 50.060709,
      "stop_lon": 19.979012,
      "stop_name": "Dąbie",
      "stop_num": "02",
      "stop_sequence": 14,
      "stopping": false,
      "time": null,
      "trip_id": "block_687_trip_5_service_4",
      "trip_num": 5
    },
    {
      "delay": null,
      "departure_time": "09:59:00",
      "old": false,
      "stop_lat": 50.059629,
      "stop_lon": 19.976271,
      "stop_name": "Ofiar Dąbia",
      "stop_num": "02",
      "stop_sequence": 15,
      "stopping": false,
      "time": null,
      "trip_id": "block_687_trip_5_service_4",
      "trip_num": 5
    },
    {
      "delay": null,
      "departure_time": "10:00:00",
      "old": false,
      "stop_lat": 50.060251,
      "stop_lon": 19.971272,
      "stop_name": "Fabryczna",
      "stop_num": "02",
      "stop_sequence": 16,
      "stopping": false,
      "time": null,
      "trip_id": "block_687_trip_5_service_4",
      "trip_num": 5
    },
    {
      "delay": null,
      "departure_time": "10:01:00",
      "old": false,
      "stop_lat": 50.060173,
      "stop_lon": 19.967382,
      "stop_name": "Nullo",
      "stop_num": "02",
      "stop_sequence": 17,
      "stopping": false,
      "time": null,
      "trip_id": "block_687_trip_5_service_4",
      "trip_num": 5
    },
    {
      "delay": null,
      "departure_time": "10:02:00",
      "old": false,
      "stop_lat": 50.058827,
      "stop_lon": 19.962374,
      "stop_name": "Teatr Variété",
      "stop_num": "02",
      "stop_sequence": 18,
      "stopping": false,
      "time": null,
      "trip_id": "block_687_trip_5_service_4",
      "trip_num": 5
    },
    {
      "delay": null,
      "departure_time": "10:05:00",
      "old": false,
      "stop_lat": 50.057558,
      "stop_lon": 19.957748,
      "stop_name": "Rondo Grzegórzeckie",
      "stop_num": "02",
      "stop_sequence": 19,
      "stopping": false,
      "time": null,
      "trip_id": "block_687_trip_5_service_4",
      "trip_num": 5
    },
    {
      "delay": null,
      "departure_time": "10:07:00",
      "old": false,
      "stop_lat": 50.058678,
      "stop_lon": 19.948657,
      "stop_name": "Hala Targowa",
      "stop_num": "02",
      "stop_sequence": 20,
      "stopping": false,
      "time": null,
      "trip_id": "block_687_trip_5_service_4",
      "trip_num": 5
    },
    {
      "delay": null,
      "departure_time": "10:08:00",
      "old": false,
      "stop_lat": 50.057262,
      "stop_lon": 19.946032,
      "stop_name": "Starowiślna",
      "stop_num": "04",
      "stop_sequence": 21,
      "stopping": false,
      "time": null,
      "trip_id": "block_687_trip_5_service_4",
      "trip_num": 5
    },
    {
      "delay": null,
      "departure_time": "10:10:00",
      "old": false,
      "stop_lat": 50.059205,
      "stop_lon": 19.942571,
      "stop_name": "Poczta Główna",
      "stop_num": "02",
      "stop_sequence": 22,
      "stopping": false,
      "time": null,
      "trip_id": "block_687_trip_5_service_4",
      "trip_num": 5
    },
    {
      "delay": null,
      "departure_time": "10:12:00",
      "old": false,
      "stop_lat": 50.05912,
      "stop_lon": 19.93824,
      "stop_name": "Plac Wszystkich Świętych",
      "stop_num": "01",
      "stop_sequence": 23,
      "stopping": false,
      "time": null,
      "trip_id": "block_687_trip_5_service_4",
      "trip_num": 5
    },
    {
      "delay": null,
      "departure_time": "10:14:00",
      "old": false,
      "stop_lat": 50.05903,
      "stop_lon": 19.93387,
      "stop_name": "Filharmonia",
      "stop_num": "01",
      "stop_sequence": 24,
      "stopping": false,
      "time": null,
      "trip_id": "block_687_trip_5_service_4",
      "trip_num": 5
    },
    {
      "delay": null,
      "departure_time": "10:16:00",
      "old": false,
      "stop_lat": 50.055498,
      "stop_lon": 19.928109,
      "stop_name": "Jubilat",
      "stop_num": "01",
      "stop_sequence": 25,
      "stopping": false,
      "time": null,
      "trip_id": "block_687_trip_5_service_4",
      "trip_num": 5
    },
    {
      "delay": null,
      "departure_time": "10:18:00",
      "old": false,
      "stop_lat": 50.053451,
      "stop_lon": 19.921873,
      "stop_name": "Komorowskiego",
      "stop_num": "01",
      "stop_sequence": 26,
      "stopping": false,
      "time": null,
      "trip_id": "block_687_trip_5_service_4",
      "trip_num": 5
    },
    {
      "delay": null,
      "departure_time": "10:19:00",
      "old": false,
      "stop_lat": 50.05263,
      "stop_lon": 19.917407,
      "stop_name": "Salwator",
      "stop_num": "03",
      "stop_sequence": 27,
      "stopping": false,
      "time": null,
      "trip_id": "block_687_trip_5_service_4",
      "trip_num": 5
    },
    {
      "delay": null,
      "departure_time": "10:20:00",
      "old": false,
      "stop_lat": 50.052708,
      "stop_lon": 19.913739,
      "stop_name": "Salwator",
      "stop_num": "01",
      "stop_sequence": 28,
      "stopping": false,
      "time": null,
      "trip_id": "block_687_trip_5_service_4",
      "trip_num": 5
    },
    {
      "delay": null,
      "departure_time": "10:37:00",
      "old": false,
      "stop_lat": 50.052708,
      "stop_lon": 19.913739,
      "stop_name": "Salwator",
      "stop_num": "01",
      "stop_sequence": 1,
      "stopping": false,
      "time": null,
      "trip_id": "block_687_trip_6_service_4",
      "trip_num": 6
    },
    {
      "delay": null,
      "departure_time": "10:38:00",
      "old": false,
      "stop_lat": 50.052724,
      "stop_lon": 19.915028,
      "stop_name": "Salwator",
      "stop_num": "02",
      "stop_sequence": 2,
      "stopping": false,
      "time": null,
      "trip_id": "block_687_trip_6_service_4",
      "trip_num": 6
    },
    {
      "delay": null,
      "departure_time": "10:39:00",
      "old": false,
      "stop_lat": 50.053384,
      "stop_lon": 19.921893,
      "stop_name": "Komorowskiego",
      "stop_num": "02",
      "stop_sequence": 3,
      "stopping": false,
      "time": null,
      "trip_id": "block_687_trip_6_service_4",
      "trip_num": 6
    },
    {
      "delay": null,
      "departure_time": "10:41:00",
      "old": false,
      "stop_lat": 50.054999,
      "stop_lon": 19.927052,
      "stop_name": "Jubilat",
      "stop_num": "02",
      "stop_sequence": 4,
      "stopping": false,
      "time": null,
      "trip_id": "block_687_trip_6_service_4",
      "trip_num": 6
    },
    {
      "delay": null,
      "departure_time": "10:44:00",
      "old": false,
      "stop_lat": 50.058666,
      "stop_lon": 19.933001,
      "stop_name": "Filharmonia",
      "stop_num": "02",
      "stop_sequence": 5,
      "stopping": false,
      "time": null,
      "trip_id": "block_687_trip_6_service_4",
      "trip_num": 6
    },
    {
      "delay": null,
      "departure_time": "10:45:00",
      "old": false,
      "stop_lat": 50.059113,
      "stop_lon": 19.937497,
      "stop_name": "Plac Wszystkich Świętych",
      "stop_num": "02",
      "stop_sequence": 6,
      "stopping": false,
      "time": null,
      "trip_id": "block_687_trip_6_service_4",
      "trip_num": 6
    },
    {
      "delay": null,
      "departure_time": "10:47:00",
      "old": false,
      "stop_lat": 50.059339,
      "stop_lon": 19.941821,
      "stop_name": "Poczta Główna",
      "stop_num": "03",
      "stop_sequence": 7,
      "stopping": false,
      "time": null,
      "trip_id": "block_687_trip_6_service_4",
      "trip_num": 6
    },
    {
      "delay": null,
      "departure_time": "10:50:00",
      "old": false,
      "stop_lat": 50.057227,
      "stop_lon": 19.946086,
      "stop_name": "Starowiślna",
      "stop_num": "03",
      "stop_sequence": 8,
      "stopping": false,
      "time": null,
      "trip_id": "block_687_trip_6_service_4",
      "trip_num": 6
    },
    {
      "delay": null,
      "departure_time": "10:51:00",
      "old": false,
      "stop_lat": 50.058639,
      "stop_lon": 19.948875,
      "stop_name": "Hala Targowa",
      "stop_num": "01",
      "stop_sequence": 9,
      "stopping": false,
      "time": null,
      "trip_id": "block_687_trip_6_service_4",
      "trip_num": 6
    },
    {
      "delay": null,
      "departure_time": "10:55:00",
      "old": false,
      "stop_lat": 50.057888,
      "stop_lon": 19.960296,
      "stop_name": "Rondo Grzegórzeckie",
      "stop_num": "01",
      "stop_sequence": 10,
      "stopping": false,
      "time": null,
      "trip_id": "block_687_trip_6_service_4",
      "trip_num": 6
    },
    {
      "delay": null,
      "departure_time": "10:56:00",
      "old": false,
      "stop_lat": 50.058858,
      "stop_lon": 19.962529,
      "stop_name": "Teatr Variété",
      "stop_num": "01",
      "stop_sequence": 11,
      "stopping": false,
      "time": null,
      "trip_id": "block_687_trip_6_service_4",
      "trip_num": 6
    },
    {
      "delay": null,
      "departure_time": "10:57:00",
      "old": false,
      "stop_lat": 50.060001,
      "stop_lon": 19.966793,
      "stop_name": "Nullo",
      "stop_num": "01",
      "stop_sequence": 12,
      "stopping": false,
      "time": null,
      "trip_id": "block_687_trip_6_service_4",
      "trip_num": 6
    },
    {
      "delay": null,
      "departure_time": "10:58:00",
      "old": false,
      "stop_lat": 50.060437,
      "stop_lon": 19.970172,
      "stop_name": "Fabryczna",
      "stop_num": "01",
      "stop_sequence": 13,
      "stopping": false,
      "time": null,
      "trip_id": "block_687_trip_6_service_4",
      "trip_num": 6
    },
    {
      "delay": null,
      "departure_time": "10:59:00",
      "old": false,
      "stop_lat": 50.05959,
      "stop_lon": 19.976363,
      "stop_name": "Ofiar Dąbia",
      "stop_num": "01",
      "stop_sequence": 14,
      "stopping": false,
      "time": null,
      "trip_id": "block_687_trip_6_service_4",
      "trip_num": 6
    },
    {
      "delay": null,
      "departure_time": "11:00:00",
      "old": false,
      "stop_lat": 50.060724,
      "stop_lon": 19.979185,
      "stop_name": "Dąbie",
      "stop_num": "01",
      "stop_sequence": 15,
      "stopping": false,
      "time": null,
      "trip_id": "block_687_trip_6_service_4",
      "trip_num": 6
    },
    {
      "delay": null,
      "departure_time": "11:02:00",
      "old": false,
      "stop_lat": 50.064188,
      "stop_lon": 19.988978,
      "stop_name": "TAURON Arena Kraków al. Pokoju",
      "stop_num": "01",
      "stop_sequence": 16,
      "stopping": false,
      "time": null,
      "trip_id": "block_687_trip_6_service_4",
      "trip_num": 6
    },
    {
      "delay": null,
      "departure_time": "11:04:00",
      "old": false,
      "stop_lat": 50.065658,
      "stop_lon": 19.997488,
      "stop_name": "Ogród Doświadczeń",
      "stop_num": "01",
      "stop_sequence": 17,
      "stopping": false,
      "time": null,
      "trip_id": "block_687_trip_6_service_4",
      "trip_num": 6
    },
    {
      "delay": null,
      "departure_time": "11:06:00",
      "old": false,
      "stop_lat": 50.067352,
      "stop_lon": 20.005379,
      "stop_name": "Rondo 308. Dywizjonu",
      "stop_num": "01",
      "stop_sequence": 18,
      "stopping": false,
      "time": null,
      "trip_id": "block_687_trip_6_service_4",
      "trip_num": 6
    },
    {
      "delay": null,
      "departure_time": "11:07:00",
      "old": false,
      "stop_lat": 50.0692,
      "stop_lon": 20.012191,
      "stop_name": "Gałczyńskiego",
      "stop_num": "01",
      "stop_sequence": 19,
      "stopping": false,
      "time": null,
      "trip_id": "block_687_trip_6_service_4",
      "trip_num": 6
    },
    {
      "delay": null,
      "departure_time": "11:10:00",
      "old": false,
      "stop_lat": 50.074193,
      "stop_lon": 20.018028,
      "stop_name": "Rondo Czyżyńskie",
      "stop_num": "03",
      "stop_sequence": 20,
      "stopping": false,
      "time": null,
      "trip_id": "block_687_trip_6_service_4",
      "trip_num": 6
    },
    {
      "delay": null,
      "departure_time": "11:11:00",
      "old": false,
      "stop_lat": 50.0757,
      "stop_lon": 20.02058,
      "stop_name": "Bieńczycka",
      "stop_num": "02",
      "stop_sequence": 21,
      "stopping": false,
      "time": null,
      "trip_id": "block_687_trip_6_service_4",
      "trip_num": 6
    },
    {
      "delay": null,
      "departure_time": "11:14:00",
      "old": false,
      "stop_lat": 50.080062,
      "stop_lon": 20.028408,
      "stop_name": "Rondo Kocmyrzowskie im. Ks. Gorzelanego",
      "stop_num": "03",
      "stop_sequence": 22,
      "stopping": false,
      "time": null,
      "trip_id": "block_687_trip_6_service_4",
      "trip_num": 6
    },
    {
      "delay": null,
      "departure_time": "11:15:00",
      "old": false,
      "stop_lat": 50.081863,
      "stop_lon": 20.032035,
      "stop_name": "Teatr Ludowy",
      "stop_num": "02",
      "stop_sequence": 23,
      "stopping": false,
      "time": null,
      "trip_id": "block_687_trip_6_service_4",
      "trip_num": 6
    },
    {
      "delay": null,
      "departure_time": "11:16:00",
      "old": false,
      "stop_lat": 50.08492,
      "stop_lon": 20.03772,
      "stop_name": "Cienista",
      "stop_num": "02",
      "stop_sequence": 24,
      "stopping": false,
      "time": null,
      "trip_id": "block_687_trip_6_service_4",
      "trip_num": 6
    },
    {
      "delay": null,
      "departure_time": "11:18:00",
      "old": false,
      "stop_lat": 50.086937,
      "stop_lon": 20.047608,
      "stop_name": "Wańkowicza",
      "stop_num": "02",
      "stop_sequence": 25,
      "stopping": false,
      "time": null,
      "trip_id": "block_687_trip_6_service_4",
      "trip_num": 6
    },
    {
      "delay": null,
      "departure_time": "11:20:00",
      "old": false,
      "stop_lat": 50.08959,
      "stop_lon": 20.059093,
      "stop_name": "Darwina",
      "stop_num": "01",
      "stop_sequence": 26,
      "stopping": false,
      "time": null,
      "trip_id": "block_687_trip_6_service_4",
      "trip_num": 6
    },
    {
      "delay": null,
      "departure_time": "11:21:00",
      "old": false,
      "stop_lat": 50.092298,
      "stop_lon": 20.061609,
      "stop_name": "Jarzębiny",
      "stop_num": "01",
      "stop_sequence": 27,
      "stopping": false,
      "time": null,
      "trip_id": "block_687_trip_6_service_4",
      "trip_num": 6
    },
    {
      "delay": null,
      "departure_time": "11:23:00",
      "old": false,
      "stop_lat": 50.094595,
      "stop_lon": 20.064858,
      "stop_name": "Wzgórza Krzesławickie",
      "stop_num": "01",
      "stop_sequence": 28,
      "stopping": false,
      "time": null,
      "trip_id": "block_687_trip_6_service_4",
      "trip_num": 6
    },
    {
      "delay": null,
      "departure_time": "11:38:00",
      "old": false,
      "stop_lat": 50.094595,
      "stop_lon": 20.064858,
      "stop_name": "Wzgórza Krzesławickie",
      "stop_num": "01",
      "stop_sequence": 1,
      "stopping": false,
      "time": null,
      "trip_id": "block_687_trip_7_service_4",
      "trip_num": 7
    },
    {
      "delay": null,
      "departure_time": "11:39:00",
      "old": false,
      "stop_lat": 50.091985,
      "stop_lon": 20.061099,
      "stop_name": "Jarzębiny",
      "stop_num": "02",
      "stop_sequence": 2,
      "stopping": false,
      "time": null,
      "trip_id": "block_687_trip_7_service_4",
      "trip_num": 7
    },
    {
      "delay": null,
      "departure_time": "11:40:00",
      "old": false,
      "stop_lat": 50.089588,
      "stop_lon": 20.059129,
      "stop_name": "Darwina",
      "stop_num": "02",
      "stop_sequence": 3,
      "stopping": false,
      "time": null,
      "trip_id": "block_687_trip_7_service_4",
      "trip_num": 7
    },
    {
      "delay": null,
      "departure_time": "11:42:00",
      "old": false,
      "stop_lat": 50.086978,
      "stop_lon": 20.04756,
      "stop_name": "Wańkowicza",
      "stop_num": "01",
      "stop_sequence": 4,
      "stopping": false,
      "time": null,
      "trip_id": "block_687_trip_7_service_4",
      "trip_num": 7
    },
    {
      "delay": null,
      "departure_time": "11:43:00",
      "old": false,
      "stop_lat": 50.08539,
      "stop_lon": 20.03852,
      "stop_name": "Cienista",
      "stop_num": "01",
      "stop_sequence": 5,
      "stopping": false,
      "time": null,
      "trip_id": "block_687_trip_7_service_4",
      "trip_num": 7
    },
    {
      "delay": null,
      "departure_time": "11:44:00",
      "old": false,
      "stop_lat": 50.082264,
      "stop_lon": 20.032708,
      "stop_name": "Teatr Ludowy",
      "stop_num": "01",
      "stop_sequence": 6,
      "stopping": false,
      "time": null,
      "trip_id": "block_687_trip_7_service_4",
      "trip_num": 7
    },
    {
      "delay": null,
      "departure_time": "11:47:00",
      "old": false,
      "stop_lat": 50.07905,
      "stop_lon": 20.026486,
      "stop_name": "Rondo Kocmyrzowskie im. Ks. Gorzelanego",
      "stop_num": "02",
      "stop_sequence": 7,
      "stopping": false,
      "time": null,
      "trip_id": "block_687_trip_7_service_4",
      "trip_num": 7
    },
    {
      "delay": null,
      "departure_time": "11:48:00",
      "old": false,
      "stop_lat": 50.075661,
      "stop_lon": 20.02044,
      "stop_name": "Bieńczycka",
      "stop_num": "01",
      "stop_sequence": 8,
      "stopping": false,
      "time": null,
      "trip_id": "block_687_trip_7_service_4",
      "trip_num": 7
    },
    {
      "delay": null,
      "departure_time": "11:51:00",
      "old": false,
      "stop_lat": 50.072758,
      "stop_lon": 20.017068,
      "stop_name": "Rondo Czyżyńskie",
      "stop_num": "04",
      "stop_sequence": 9,
      "stopping": false,
      "time": null,
      "trip_id": "block_687_trip_7_service_4",
      "trip_num": 7
    },
    {
      "delay": null,
      "departure_time": "11:52:00",
      "old": false,
      "stop_lat": 50.069417,
      "stop_lon": 20.012742,
      "stop_name": "Gałczyńskiego",
      "stop_num": "02",
      "stop_sequence": 10,
      "stopping": false,
      "time": null,
      "trip_id": "block_687_trip_7_service_4",
      "trip_num": 7
    },
    {
      "delay": null,
      "departure_time": "11:53:00",
      "old": false,
      "stop_lat": 50.067398,
      "stop_lon": 20.005374,
      "stop_name": "Rondo 308. Dywizjonu",
      "stop_num": "02",
      "stop_sequence": 11,
      "stopping": false,
      "time": null,
      "trip_id": "block_687_trip_7_service_4",
      "trip_num": 7
    },
    {
      "delay": null,
      "departure_time": "11:55:00",
      "old": false,
      "stop_lat": 50.065502,
      "stop_lon": 19.996324,
      "stop_name": "Ogród Doświadczeń",
      "stop_num": "02",
      "stop_sequence": 12,
      "stopping": false,
      "time": null,
      "trip_id": "block_687_trip_7_service_4",
      "trip_num": 7
    },
    {
      "delay": null,
      "departure_time": "11:56:00",
      "old": false,
      "stop_lat": 50.064416,
      "stop_lon": 19.990077,
      "stop_name": "TAURON Arena Kraków al. Pokoju",
      "stop_num": "02",
      "stop_sequence": 13,
      "stopping": false,
      "time": null,
      "trip_id": "block_687_trip_7_service_4",
      "trip_num": 7
    },
    {
      "delay": null,
      "departure_time": "11:58:00",
      "old": false,
      "stop_lat": 50.060709,
      "stop_lon": 19.979012,
      "stop_name": "Dąbie",
      "stop_num": "02",
      "stop_sequence": 14,
      "stopping": false,
      "time": null,
      "trip_id": "block_687_trip_7_service_4",
      "trip_num": 7
    },
    {
      "delay": null,
      "departure_time": "11:59:00",
      "old": false,
      "stop_lat": 50.059629,
      "stop_lon": 19.976271,
      "stop_name": "Ofiar Dąbia",
      "stop_num": "02",
      "stop_sequence": 15,
      "stopping": false,
      "time": null,
      "trip_id": "block_687_trip_7_service_4",
      "trip_num": 7
    },
    {
      "delay": null,
      "departure_time": "12:00:00",
      "old": false,
      "stop_lat": 50.060251,
      "stop_lon": 19.971272,
      "stop_name": "Fabryczna",
      "stop_num": "02",
      "stop_sequence": 16,
      "stopping": false,
      "time": null,
      "trip_id": "block_687_trip_7_service_4",
      "trip_num": 7
    },
    {
      "delay": null,
      "departure_time": "12:01:00",
      "old": false,
      "stop_lat": 50.060173,
      "stop_lon": 19.967382,
      "stop_name": "Nullo",
      "stop_num": "02",
      "stop_sequence": 17,
      "stopping": false,
      "time": null,
      "trip_id": "block_687_trip_7_service_4",
      "trip_num": 7
    },
    {
      "delay": null,
      "departure_time": "12:02:00",
      "old": false,
      "stop_lat": 50.058827,
      "stop_lon": 19.962374,
      "stop_name": "Teatr Variété",
      "stop_num": "02",
      "stop_sequence": 18,
      "stopping": false,
      "time": null,
      "trip_id": "block_687_trip_7_service_4",
      "trip_num": 7
    },
    {
      "delay": null,
      "departure_time": "12:05:00",
      "old": false,
      "stop_lat": 50.057558,
      "stop_lon": 19.957748,
      "stop_name": "Rondo Grzegórzeckie",
      "stop_num": "02",
      "stop_sequence": 19,
      "stopping": false,
      "time": null,
      "trip_id": "block_687_trip_7_service_4",
      "trip_num": 7
    },
    {
      "delay": null,
      "departure_time": "12:07:00",
      "old": false,
      "stop_lat": 50.058678,
      "stop_lon": 19.948657,
      "stop_name": "Hala Targowa",
      "stop_num": "02",
      "stop_sequence": 20,
      "stopping": false,
      "time": null,
      "trip_id": "block_687_trip_7_service_4",
      "trip_num": 7
    },
    {
      "delay": null,
      "departure_time": "12:08:00",
      "old": false,
      "stop_lat": 50.057262,
      "stop_lon": 19.946032,
      "stop_name": "Starowiślna",
      "stop_num": "04",
      "stop_sequence": 21,
      "stopping": false,
      "time": null,
      "trip_id": "block_687_trip_7_service_4",
      "trip_num": 7
    },
    {
      "delay": null,
      "departure_time": "12:10:00",
      "old": false,
      "stop_lat": 50.059205,
      "stop_lon": 19.942571,
      "stop_name": "Poczta Główna",
      "stop_num": "02",
      "stop_sequence": 22,
      "stopping": false,
      "time": null,
      "trip_id": "block_687_trip_7_service_4",
      "trip_num": 7
    },
    {
      "delay": null,
      "departure_time": "12:12:00",
      "old": false,
      "stop_lat": 50.05912,
      "stop_lon": 19.93824,
      "stop_name": "Plac Wszystkich Świętych",
      "stop_num": "01",
      "stop_sequence": 23,
      "stopping": false,
      "time": null,
      "trip_id": "block_687_trip_7_service_4",
      "trip_num": 7
    },
    {
      "delay": null,
      "departure_time": "12:14:00",
      "old": false,
      "stop_lat": 50.05903,
      "stop_lon": 19.93387,
      "stop_name": "Filharmonia",
      "stop_num": "01",
      "stop_sequence": 24,
      "stopping": false,
      "time": null,
      "trip_id": "block_687_trip_7_service_4",
      "trip_num": 7
    },
    {
      "delay": null,
      "departure_time": "12:16:00",
      "old": false,
      "stop_lat": 50.055498,
      "stop_lon": 19.928109,
      "stop_name": "Jubilat",
      "stop_num": "01",
      "stop_sequence": 25,
      "stopping": false,
      "time": null,
      "trip_id": "block_687_trip_7_service_4",
      "trip_num": 7
    },
    {
      "delay": null,
      "departure_time": "12:18:00",
      "old": false,
      "stop_lat": 50.053451,
      "stop_lon": 19.921873,
      "stop_name": "Komorowskiego",
      "stop_num": "01",
      "stop_sequence": 26,
      "stopping": false,
      "time": null,
      "trip_id": "block_687_trip_7_service_4",
      "trip_num": 7
    },
    {
      "delay": null,
      "departure_time": "12:19:00",
      "old": false,
      "stop_lat": 50.05263,
      "stop_lon": 19.917407,
      "stop_name": "Salwator",
      "stop_num": "03",
      "stop_sequence": 27,
      "stopping": false,
      "time": null,
      "trip_id": "block_687_trip_7_service_4",
      "trip_num": 7
    },
    {
      "delay": null,
      "departure_time": "12:20:00",
      "old": false,
      "stop_lat": 50.052708,
      "stop_lon": 19.913739,
      "stop_name": "Salwator",
      "stop_num": "01",
      "stop_sequence": 28,
      "stopping": false,
      "time": null,
      "trip_id": "block_687_trip_7_service_4",
      "trip_num": 7
    },
    {
      "delay": null,
      "departure_time": "12:37:00",
      "old": false,
      "stop_lat": 50.052708,
      "stop_lon": 19.913739,
      "stop_name": "Salwator",
      "stop_num": "01",
      "stop_sequence": 1,
      "stopping": false,
      "time": null,
      "trip_id": "block_687_trip_8_service_4",
      "trip_num": 8
    },
    {
      "delay": null,
      "departure_time": "12:38:00",
      "old": false,
      "stop_lat": 50.052724,
      "stop_lon": 19.915028,
      "stop_name": "Salwator",
      "stop_num": "02",
      "stop_sequence": 2,
      "stopping": false,
      "time": null,
      "trip_id": "block_687_trip_8_service_4",
      "trip_num": 8
    },
    {
      "delay": null,
      "departure_time": "12:39:00",
      "old": false,
      "stop_lat": 50.053384,
      "stop_lon": 19.921893,
      "stop_name": "Komorowskiego",
      "stop_num": "02",
      "stop_sequence": 3,
      "stopping": false,
      "time": null,
      "trip_id": "block_687_trip_8_service_4",
      "trip_num": 8
    },
    {
      "delay": null,
      "departure_time": "12:41:00",
      "old": false,
      "stop_lat": 50.054999,
      "stop_lon": 19.927052,
      "stop_name": "Jubilat",
      "stop_num": "02",
      "stop_sequence": 4,
      "stopping": false,
      "time": null,
      "trip_id": "block_687_trip_8_service_4",
      "trip_num": 8
    },
    {
      "delay": null,
      "departure_time": "12:44:00",
      "old": false,
      "stop_lat": 50.058666,
      "stop_lon": 19.933001,
      "stop_name": "Filharmonia",
      "stop_num": "02",
      "stop_sequence": 5,
      "stopping": false,
      "time": null,
      "trip_id": "block_687_trip_8_service_4",
      "trip_num": 8
    },
    {
      "delay": null,
      "departure_time": "12:45:00",
      "old": false,
      "stop_lat": 50.059113,
      "stop_lon": 19.937497,
      "stop_name": "Plac Wszystkich Świętych",
      "stop_num": "02",
      "stop_sequence": 6,
      "stopping": false,
      "time": null,
      "trip_id": "block_687_trip_8_service_4",
      "trip_num": 8
    },
    {
      "delay": null,
      "departure_time": "12:47:00",
      "old": false,
      "stop_lat": 50.059339,
      "stop_lon": 19.941821,
      "stop_name": "Poczta Główna",
      "stop_num": "03",
      "stop_sequence": 7,
      "stopping": false,
      "time": null,
      "trip_id": "block_687_trip_8_service_4",
      "trip_num": 8
    },
    {
      "delay": null,
      "departure_time": "12:50:00",
      "old": false,
      "stop_lat": 50.057227,
      "stop_lon": 19.946086,
      "stop_name": "Starowiślna",
      "stop_num": "03",
      "stop_sequence": 8,
      "stopping": false,
      "time": null,
      "trip_id": "block_687_trip_8_service_4",
      "trip_num": 8
    },
    {
      "delay": null,
      "departure_time": "12:51:00",
      "old": false,
      "stop_lat": 50.058639,
      "stop_lon": 19.948875,
      "stop_name": "Hala Targowa",
      "stop_num": "01",
      "stop_sequence": 9,
      "stopping": false,
      "time": null,
      "trip_id": "block_687_trip_8_service_4",
      "trip_num": 8
    },
    {
      "delay": null,
      "departure_time": "12:55:00",
      "old": false,
      "stop_lat": 50.057888,
      "stop_lon": 19.960296,
      "stop_name": "Rondo Grzegórzeckie",
      "stop_num": "01",
      "stop_sequence": 10,
      "stopping": false,
      "time": null,
      "trip_id": "block_687_trip_8_service_4",
      "trip_num": 8
    },
    {
      "delay": null,
      "departure_time": "12:56:00",
      "old": false,
      "stop_lat": 50.058858,
      "stop_lon": 19.962529,
      "stop_name": "Teatr Variété",
      "stop_num": "01",
      "stop_sequence": 11,
      "stopping": false,
      "time": null,
      "trip_id": "block_687_trip_8_service_4",
      "trip_num": 8
    },
    {
      "delay": null,
      "departure_time": "12:57:00",
      "old": false,
      "stop_lat": 50.060001,
      "stop_lon": 19.966793,
      "stop_name": "Nullo",
      "stop_num": "01",
      "stop_sequence": 12,
      "stopping": false,
      "time": null,
      "trip_id": "block_687_trip_8_service_4",
      "trip_num": 8
    },
    {
      "delay": null,
      "departure_time": "12:58:00",
      "old": false,
      "stop_lat": 50.060437,
      "stop_lon": 19.970172,
      "stop_name": "Fabryczna",
      "stop_num": "01",
      "stop_sequence": 13,
      "stopping": false,
      "time": null,
      "trip_id": "block_687_trip_8_service_4",
      "trip_num": 8
    },
    {
      "delay": null,
      "departure_time": "12:59:00",
      "old": false,
      "stop_lat": 50.05959,
      "stop_lon": 19.976363,
      "stop_name": "Ofiar Dąbia",
      "stop_num": "01",
      "stop_sequence": 14,
      "stopping": false,
      "time": null,
      "trip_id": "block_687_trip_8_service_4",
      "trip_num": 8
    },
    {
      "delay": null,
      "departure_time": "13:00:00",
      "old": false,
      "stop_lat": 50.060724,
      "stop_lon": 19.979185,
      "stop_name": "Dąbie",
      "stop_num": "01",
      "stop_sequence": 15,
      "stopping": false,
      "time": null,
      "trip_id": "block_687_trip_8_service_4",
      "trip_num": 8
    },
    {
      "delay": null,
      "departure_time": "13:02:00",
      "old": false,
      "stop_lat": 50.064188,
      "stop_lon": 19.988978,
      "stop_name": "TAURON Arena Kraków al. Pokoju",
      "stop_num": "01",
      "stop_sequence": 16,
      "stopping": false,
      "time": null,
      "trip_id": "block_687_trip_8_service_4",
      "trip_num": 8
    },
    {
      "delay": null,
      "departure_time": "13:04:00",
      "old": false,
      "stop_lat": 50.065658,
      "stop_lon": 19.997488,
      "stop_name": "Ogród Doświadczeń",
      "stop_num": "01",
      "stop_sequence": 17,
      "stopping": false,
      "time": null,
      "trip_id": "block_687_trip_8_service_4",
      "trip_num": 8
    },
    {
      "delay": null,
      "departure_time": "13:06:00",
      "old": false,
      "stop_lat": 50.067352,
      "stop_lon": 20.005379,
      "stop_name": "Rondo 308. Dywizjonu",
      "stop_num": "01",
      "stop_sequence": 18,
      "stopping": false,
      "time": null,
      "trip_id": "block_687_trip_8_service_4",
      "trip_num": 8
    },
    {
      "delay": null,
      "departure_time": "13:07:00",
      "old": false,
      "stop_lat": 50.0692,
      "stop_lon": 20.012191,
      "stop_name": "Gałczyńskiego",
      "stop_num": "01",
      "stop_sequence": 19,
      "stopping": false,
      "time": null,
      "trip_id": "block_687_trip_8_service_4",
      "trip_num": 8
    },
    {
      "delay": null,
      "departure_time": "13:10:00",
      "old": false,
      "stop_lat": 50.074193,
      "stop_lon": 20.018028,
      "stop_name": "Rondo Czyżyńskie",
      "stop_num": "03",
      "stop_sequence": 20,
      "stopping": false,
      "time": null,
      "trip_id": "block_687_trip_8_service_4",
      "trip_num": 8
    },
    {
      "delay": null,
      "departure_time": "13:11:00",
      "old": false,
      "stop_lat": 50.0757,
      "stop_lon": 20.02058,
      "stop_name": "Bieńczycka",
      "stop_num": "02",
      "stop_sequence": 21,
      "stopping": false,
      "time": null,
      "trip_id": "block_687_trip_8_service_4",
      "trip_num": 8
    },
    {
      "delay": null,
      "departure_time": "13:14:00",
      "old": false,
      "stop_lat": 50.080062,
      "stop_lon": 20.028408,
      "stop_name": "Rondo Kocmyrzowskie im. Ks. Gorzelanego",
      "stop_num": "03",
      "stop_sequence": 22,
      "stopping": false,
      "time": null,
      "trip_id": "block_687_trip_8_service_4",
      "trip_num": 8
    },
    {
      "delay": null,
      "departure_time": "13:15:00",
      "old": false,
      "stop_lat": 50.081863,
      "stop_lon": 20.032035,
      "stop_name": "Teatr Ludowy",
      "stop_num": "02",
      "stop_sequence": 23,
      "stopping": false,
      "time": null,
      "trip_id": "block_687_trip_8_service_4",
      "trip_num": 8
    },
    {
      "delay": null,
      "departure_time": "13:16:00",
      "old": false,
      "stop_lat": 50.08492,
      "stop_lon": 20.03772,
      "stop_name": "Cienista",
      "stop_num": "02",
      "stop_sequence": 24,
      "stopping": false,
      "time": null,
      "trip_id": "block_687_trip_8_service_4",
      "trip_num": 8
    },
    {
      "delay": null,
      "departure_time": "13:18:00",
      "old": false,
      "stop_lat": 50.086937,
      "stop_lon": 20.047608,
      "stop_name": "Wańkowicza",
      "stop_num": "02",
      "stop_sequence": 25,
      "stopping": false,
      "time": null,
      "trip_id": "block_687_trip_8_service_4",
      "trip_num": 8
    },
    {
      "delay": null,
      "departure_time": "13:20:00",
      "old": false,
      "stop_lat": 50.08959,
      "stop_lon": 20.059093,
      "stop_name": "Darwina",
      "stop_num": "01",
      "stop_sequence": 26,
      "stopping": false,
      "time": null,
      "trip_id": "block_687_trip_8_service_4",
      "trip_num": 8
    },
    {
      "delay": null,
      "departure_time": "13:21:00",
      "old": false,
      "stop_lat": 50.092298,
      "stop_lon": 20.061609,
      "stop_name": "Jarzębiny",
      "stop_num": "01",
      "stop_sequence": 27,
      "stopping": false,
      "time": null,
      "trip_id": "block_687_trip_8_service_4",
      "trip_num": 8
    },
    {
      "delay": null,
      "departure_time": "13:23:00",
      "old": false,
      "stop_lat": 50.094595,
      "stop_lon": 20.064858,
      "stop_name": "Wzgórza Krzesławickie",
      "stop_num": "01",
      "stop_sequence": 28,
      "stopping": false,
      "time": null,
      "trip_id": "block_687_trip_8_service_4",
      "trip_num": 8
    },
    {
      "delay": null,
      "departure_time": "13:38:00",
      "old": false,
      "stop_lat": 50.094595,
      "stop_lon": 20.064858,
      "stop_name": "Wzgórza Krzesławickie",
      "stop_num": "01",
      "stop_sequence": 1,
      "stopping": false,
      "time": null,
      "trip_id": "block_687_trip_9_service_4",
      "trip_num": 9
    },
    {
      "delay": null,
      "departure_time": "13:39:00",
      "old": false,
      "stop_lat": 50.091985,
      "stop_lon": 20.061099,
      "stop_name": "Jarzębiny",
      "stop_num": "02",
      "stop_sequence": 2,
      "stopping": false,
      "time": null,
      "trip_id": "block_687_trip_9_service_4",
      "trip_num": 9
    },
    {
      "delay": null,
      "departure_time": "13:40:00",
      "old": false,
      "stop_lat": 50.089588,
      "stop_lon": 20.059129,
      "stop_name": "Darwina",
      "stop_num": "02",
      "stop_sequence": 3,
      "stopping": false,
      "time": null,
      "trip_id": "block_687_trip_9_service_4",
      "trip_num": 9
    },
    {
      "delay": null,
      "departure_time": "13:42:00",
      "old": false,
      "stop_lat": 50.086978,
      "stop_lon": 20.04756,
      "stop_name": "Wańkowicza",
      "stop_num": "01",
      "stop_sequence": 4,
      "stopping": false,
      "time": null,
      "trip_id": "block_687_trip_9_service_4",
      "trip_num": 9
    },
    {
      "delay": null,
      "departure_time": "13:43:00",
      "old": false,
      "stop_lat": 50.08539,
      "stop_lon": 20.03852,
      "stop_name": "Cienista",
      "stop_num": "01",
      "stop_sequence": 5,
      "stopping": false,
      "time": null,
      "trip_id": "block_687_trip_9_service_4",
      "trip_num": 9
    },
    {
      "delay": null,
      "departure_time": "13:44:00",
      "old": false,
      "stop_lat": 50.082264,
      "stop_lon": 20.032708,
      "stop_name": "Teatr Ludowy",
      "stop_num": "01",
      "stop_sequence": 6,
      "stopping": false,
      "time": null,
      "trip_id": "block_687_trip_9_service_4",
      "trip_num": 9
    },
    {
      "delay": null,
      "departure_time": "13:47:00",
      "old": false,
      "stop_lat": 50.07905,
      "stop_lon": 20.026486,
      "stop_name": "Rondo Kocmyrzowskie im. Ks. Gorzelanego",
      "stop_num": "02",
      "stop_sequence": 7,
      "stopping": false,
      "time": null,
      "trip_id": "block_687_trip_9_service_4",
      "trip_num": 9
    },
    {
      "delay": null,
      "departure_time": "13:48:00",
      "old": false,
      "stop_lat": 50.075661,
      "stop_lon": 20.02044,
      "stop_name": "Bieńczycka",
      "stop_num": "01",
      "stop_sequence": 8,
      "stopping": false,
      "time": null,
      "trip_id": "block_687_trip_9_service_4",
      "trip_num": 9
    },
    {
      "delay": null,
      "departure_time": "13:51:00",
      "old": false,
      "stop_lat": 50.072758,
      "stop_lon": 20.017068,
      "stop_name": "Rondo Czyżyńskie",
      "stop_num": "04",
      "stop_sequence": 9,
      "stopping": false,
      "time": null,
      "trip_id": "block_687_trip_9_service_4",
      "trip_num": 9
    },
    {
      "delay": null,
      "departure_time": "13:52:00",
      "old": false,
      "stop_lat": 50.069417,
      "stop_lon": 20.012742,
      "stop_name": "Gałczyńskiego",
      "stop_num": "02",
      "stop_sequence": 10,
      "stopping": false,
      "time": null,
      "trip_id": "block_687_trip_9_service_4",
      "trip_num": 9
    },
    {
      "delay": null,
      "departure_time": "13:53:00",
      "old": false,
      "stop_lat": 50.067398,
      "stop_lon": 20.005374,
      "stop_name": "Rondo 308. Dywizjonu",
      "stop_num": "02",
      "stop_sequence": 11,
      "stopping": false,
      "time": null,
      "trip_id": "block_687_trip_9_service_4",
      "trip_num": 9
    },
    {
      "delay": null,
      "departure_time": "13:55:00",
      "old": false,
      "stop_lat": 50.065502,
      "stop_lon": 19.996324,
      "stop_name": "Ogród Doświadczeń",
      "stop_num": "02",
      "stop_sequence": 12,
      "stopping": false,
      "time": null,
      "trip_id": "block_687_trip_9_service_4",
      "trip_num": 9
    },
    {
      "delay": null,
      "departure_time": "13:56:00",
      "old": false,
      "stop_lat": 50.064416,
      "stop_lon": 19.990077,
      "stop_name": "TAURON Arena Kraków al. Pokoju",
      "stop_num": "02",
      "stop_sequence": 13,
      "stopping": false,
      "time": null,
      "trip_id": "block_687_trip_9_service_4",
      "trip_num": 9
    },
    {
      "delay": null,
      "departure_time": "13:58:00",
      "old": false,
      "stop_lat": 50.060709,
      "stop_lon": 19.979012,
      "stop_name": "Dąbie",
      "stop_num": "02",
      "stop_sequence": 14,
      "stopping": false,
      "time": null,
      "trip_id": "block_687_trip_9_service_4",
      "trip_num": 9
    },
    {
      "delay": null,
      "departure_time": "13:59:00",
      "old": false,
      "stop_lat": 50.059629,
      "stop_lon": 19.976271,
      "stop_name": "Ofiar Dąbia",
      "stop_num": "02",
      "stop_sequence": 15,
      "stopping": false,
      "time": null,
      "trip_id": "block_687_trip_9_service_4",
      "trip_num": 9
    },
    {
      "delay": null,
      "departure_time": "14:00:00",
      "old": false,
      "stop_lat": 50.060251,
      "stop_lon": 19.971272,
      "stop_name": "Fabryczna",
      "stop_num": "02",
      "stop_sequence": 16,
      "stopping": false,
      "time": null,
      "trip_id": "block_687_trip_9_service_4",
      "trip_num": 9
    },
    {
      "delay": null,
      "departure_time": "14:01:00",
      "old": false,
      "stop_lat": 50.060173,
      "stop_lon": 19.967382,
      "stop_name": "Nullo",
      "stop_num": "02",
      "stop_sequence": 17,
      "stopping": false,
      "time": null,
      "trip_id": "block_687_trip_9_service_4",
      "trip_num": 9
    },
    {
      "delay": null,
      "departure_time": "14:02:00",
      "old": false,
      "stop_lat": 50.058827,
      "stop_lon": 19.962374,
      "stop_name": "Teatr Variété",
      "stop_num": "02",
      "stop_sequence": 18,
      "stopping": false,
      "time": null,
      "trip_id": "block_687_trip_9_service_4",
      "trip_num": 9
    },
    {
      "delay": null,
      "departure_time": "14:05:00",
      "old": false,
      "stop_lat": 50.057558,
      "stop_lon": 19.957748,
      "stop_name": "Rondo Grzegórzeckie",
      "stop_num": "02",
      "stop_sequence": 19,
      "stopping": false,
      "time": null,
      "trip_id": "block_687_trip_9_service_4",
      "trip_num": 9
    },
    {
      "delay": null,
      "departure_time": "14:07:00",
      "old": false,
      "stop_lat": 50.058678,
      "stop_lon": 19.948657,
      "stop_name": "Hala Targowa",
      "stop_num": "02",
      "stop_sequence": 20,
      "stopping": false,
      "time": null,
      "trip_id": "block_687_trip_9_service_4",
      "trip_num": 9
    },
    {
      "delay": null,
      "departure_time": "14:08:00",
      "old": false,
      "stop_lat": 50.057262,
      "stop_lon": 19.946032,
      "stop_name": "Starowiślna",
      "stop_num": "04",
      "stop_sequence": 21,
      "stopping": false,
      "time": null,
      "trip_id": "block_687_trip_9_service_4",
      "trip_num": 9
    },
    {
      "delay": null,
      "departure_time": "14:10:00",
      "old": false,
      "stop_lat": 50.059205,
      "stop_lon": 19.942571,
      "stop_name": "Poczta Główna",
      "stop_num": "02",
      "stop_sequence": 22,
      "stopping": false,
      "time": null,
      "trip_id": "block_687_trip_9_service_4",
      "trip_num": 9
    },
    {
      "delay": null,
      "departure_time": "14:12:00",
      "old": false,
      "stop_lat": 50.05912,
      "stop_lon": 19.93824,
      "stop_name": "Plac Wszystkich Świętych",
      "stop_num": "01",
      "stop_sequence": 23,
      "stopping": false,
      "time": null,
      "trip_id": "block_687_trip_9_service_4",
      "trip_num": 9
    },
    {
      "delay": null,
      "departure_time": "14:14:00",
      "old": false,
      "stop_lat": 50.05903,
      "stop_lon": 19.93387,
      "stop_name": "Filharmonia",
      "stop_num": "01",
      "stop_sequence": 24,
      "stopping": false,
      "time": null,
      "trip_id": "block_687_trip_9_service_4",
      "trip_num": 9
    },
    {
      "delay": null,
      "departure_time": "14:16:00",
      "old": false,
      "stop_lat": 50.055498,
      "stop_lon": 19.928109,
      "stop_name": "Jubilat",
      "stop_num": "01",
      "stop_sequence": 25,
      "stopping": false,
      "time": null,
      "trip_id": "block_687_trip_9_service_4",
      "trip_num": 9
    },
    {
      "delay": null,
      "departure_time": "14:18:00",
      "old": false,
      "stop_lat": 50.053451,
      "stop_lon": 19.921873,
      "stop_name": "Komorowskiego",
      "stop_num": "01",
      "stop_sequence": 26,
      "stopping": false,
      "time": null,
      "trip_id": "block_687_trip_9_service_4",
      "trip_num": 9
    },
    {
      "delay": null,
      "departure_time": "14:19:00",
      "old": false,
      "stop_lat": 50.05263,
      "stop_lon": 19.917407,
      "stop_name": "Salwator",
      "stop_num": "03",
      "stop_sequence": 27,
      "stopping": false,
      "time": null,
      "trip_id": "block_687_trip_9_service_4",
      "trip_num": 9
    },
    {
      "delay": null,
      "departure_time": "14:20:00",
      "old": false,
      "stop_lat": 50.052708,
      "stop_lon": 19.913739,
      "stop_name": "Salwator",
      "stop_num": "01",
      "stop_sequence": 28,
      "stopping": false,
      "time": null,
      "trip_id": "block_687_trip_9_service_4",
      "trip_num": 9
    },
    {
      "delay": null,
      "departure_time": "14:37:00",
      "old": false,
      "stop_lat": 50.052708,
      "stop_lon": 19.913739,
      "stop_name": "Salwator",
      "stop_num": "01",
      "stop_sequence": 1,
      "stopping": false,
      "time": null,
      "trip_id": "block_687_trip_10_service_4",
      "trip_num": 10
    },
    {
      "delay": null,
      "departure_time": "14:38:00",
      "old": false,
      "stop_lat": 50.052724,
      "stop_lon": 19.915028,
      "stop_name": "Salwator",
      "stop_num": "02",
      "stop_sequence": 2,
      "stopping": false,
      "time": null,
      "trip_id": "block_687_trip_10_service_4",
      "trip_num": 10
    },
    {
      "delay": null,
      "departure_time": "14:39:00",
      "old": false,
      "stop_lat": 50.053384,
      "stop_lon": 19.921893,
      "stop_name": "Komorowskiego",
      "stop_num": "02",
      "stop_sequence": 3,
      "stopping": false,
      "time": null,
      "trip_id": "block_687_trip_10_service_4",
      "trip_num": 10
    },
    {
      "delay": null,
      "departure_time": "14:41:00",
      "old": false,
      "stop_lat": 50.054999,
      "stop_lon": 19.927052,
      "stop_name": "Jubilat",
      "stop_num": "02",
      "stop_sequence": 4,
      "stopping": false,
      "time": null,
      "trip_id": "block_687_trip_10_service_4",
      "trip_num": 10
    },
    {
      "delay": null,
      "departure_time": "14:44:00",
      "old": false,
      "stop_lat": 50.058666,
      "stop_lon": 19.933001,
      "stop_name": "Filharmonia",
      "stop_num": "02",
      "stop_sequence": 5,
      "stopping": false,
      "time": null,
      "trip_id": "block_687_trip_10_service_4",
      "trip_num": 10
    },
    {
      "delay": null,
      "departure_time": "14:45:00",
      "old": false,
      "stop_lat": 50.059113,
      "stop_lon": 19.937497,
      "stop_name": "Plac Wszystkich Świętych",
      "stop_num": "02",
      "stop_sequence": 6,
      "stopping": false,
      "time": null,
      "trip_id": "block_687_trip_10_service_4",
      "trip_num": 10
    },
    {
      "delay": null,
      "departure_time": "14:47:00",
      "old": false,
      "stop_lat": 50.059339,
      "stop_lon": 19.941821,
      "stop_name": "Poczta Główna",
      "stop_num": "03",
      "stop_sequence": 7,
      "stopping": false,
      "time": null,
      "trip_id": "block_687_trip_10_service_4",
      "trip_num": 10
    },
    {
      "delay": null,
      "departure_time": "14:50:00",
      "old": false,
      "stop_lat": 50.057227,
      "stop_lon": 19.946086,
      "stop_name": "Starowiślna",
      "stop_num": "03",
      "stop_sequence": 8,
      "stopping": false,
      "time": null,
      "trip_id": "block_687_trip_10_service_4",
      "trip_num": 10
    },
    {
      "delay": null,
      "departure_time": "14:51:00",
      "old": false,
      "stop_lat": 50.058639,
      "stop_lon": 19.948875,
      "stop_name": "Hala Targowa",
      "stop_num": "01",
      "stop_sequence": 9,
      "stopping": false,
      "time": null,
      "trip_id": "block_687_trip_10_service_4",
      "trip_num": 10
    },
    {
      "delay": null,
      "departure_time": "14:55:00",
      "old": false,
      "stop_lat": 50.057888,
      "stop_lon": 19.960296,
      "stop_name": "Rondo Grzegórzeckie",
      "stop_num": "01",
      "stop_sequence": 10,
      "stopping": false,
      "time": null,
      "trip_id": "block_687_trip_10_service_4",
      "trip_num": 10
    },
    {
      "delay": null,
      "departure_time": "14:56:00",
      "old": false,
      "stop_lat": 50.058858,
      "stop_lon": 19.962529,
      "stop_name": "Teatr Variété",
      "stop_num": "01",
      "stop_sequence": 11,
      "stopping": false,
      "time": null,
      "trip_id": "block_687_trip_10_service_4",
      "trip_num": 10
    },
    {
      "delay": null,
      "departure_time": "14:57:00",
      "old": false,
      "stop_lat": 50.060001,
      "stop_lon": 19.966793,
      "stop_name": "Nullo",
      "stop_num": "01",
      "stop_sequence": 12,
      "stopping": false,
      "time": null,
      "trip_id": "block_687_trip_10_service_4",
      "trip_num": 10
    },
    {
      "delay": null,
      "departure_time": "14:58:00",
      "old": false,
      "stop_lat": 50.060437,
      "stop_lon": 19.970172,
      "stop_name": "Fabryczna",
      "stop_num": "01",
      "stop_sequence": 13,
      "stopping": false,
      "time": null,
      "trip_id": "block_687_trip_10_service_4",
      "trip_num": 10
    },
    {
      "delay": null,
      "departure_time": "14:59:00",
      "old": false,
      "stop_lat": 50.05959,
      "stop_lon": 19.976363,
      "stop_name": "Ofiar Dąbia",
      "stop_num": "01",
      "stop_sequence": 14,
      "stopping": false,
      "time": null,
      "trip_id": "block_687_trip_10_service_4",
      "trip_num": 10
    },
    {
      "delay": null,
      "departure_time": "15:00:00",
      "old": false,
      "stop_lat": 50.060724,
      "stop_lon": 19.979185,
      "stop_name": "Dąbie",
      "stop_num": "01",
      "stop_sequence": 15,
      "stopping": false,
      "time": null,
      "trip_id": "block_687_trip_10_service_4",
      "trip_num": 10
    },
    {
      "delay": null,
      "departure_time": "15:02:00",
      "old": false,
      "stop_lat": 50.064188,
      "stop_lon": 19.988978,
      "stop_name": "TAURON Arena Kraków al. Pokoju",
      "stop_num": "01",
      "stop_sequence": 16,
      "stopping": false,
      "time": null,
      "trip_id": "block_687_trip_10_service_4",
      "trip_num": 10
    },
    {
      "delay": null,
      "departure_time": "15:04:00",
      "old": false,
      "stop_lat": 50.065658,
      "stop_lon": 19.997488,
      "stop_name": "Ogród Doświadczeń",
      "stop_num": "01",
      "stop_sequence": 17,
      "stopping": false,
      "time": null,
      "trip_id": "block_687_trip_10_service_4",
      "trip_num": 10
    },
    {
      "delay": null,
      "departure_time": "15:06:00",
      "old": false,
      "stop_lat": 50.067352,
      "stop_lon": 20.005379,
      "stop_name": "Rondo 308. Dywizjonu",
      "stop_num": "01",
      "stop_sequence": 18,
      "stopping": false,
      "time": null,
      "trip_id": "block_687_trip_10_service_4",
      "trip_num": 10
    },
    {
      "delay": null,
      "departure_time": "15:07:00",
      "old": false,
      "stop_lat": 50.0692,
      "stop_lon": 20.012191,
      "stop_name": "Gałczyńskiego",
      "stop_num": "01",
      "stop_sequence": 19,
      "stopping": false,
      "time": null,
      "trip_id": "block_687_trip_10_service_4",
      "trip_num": 10
    },
    {
      "delay": null,
      "departure_time": "15:10:00",
      "old": false,
      "stop_lat": 50.074193,
      "stop_lon": 20.018028,
      "stop_name": "Rondo Czyżyńskie",
      "stop_num": "03",
      "stop_sequence": 20,
      "stopping": false,
      "time": null,
      "trip_id": "block_687_trip_10_service_4",
      "trip_num": 10
    },
    {
      "delay": null,
      "departure_time": "15:11:00",
      "old": false,
      "stop_lat": 50.0757,
      "stop_lon": 20.02058,
      "stop_name": "Bieńczycka",
      "stop_num": "02",
      "stop_sequence": 21,
      "stopping": false,
      "time": null,
      "trip_id": "block_687_trip_10_service_4",
      "trip_num": 10
    },
    {
      "delay": null,
      "departure_time": "15:14:00",
      "old": false,
      "stop_lat": 50.080062,
      "stop_lon": 20.028408,
      "stop_name": "Rondo Kocmyrzowskie im. Ks. Gorzelanego",
      "stop_num": "03",
      "stop_sequence": 22,
      "stopping": false,
      "time": null,
      "trip_id": "block_687_trip_10_service_4",
      "trip_num": 10
    },
    {
      "delay": null,
      "departure_time": "15:15:00",
      "old": false,
      "stop_lat": 50.081863,
      "stop_lon": 20.032035,
      "stop_name": "Teatr Ludowy",
      "stop_num": "02",
      "stop_sequence": 23,
      "stopping": false,
      "time": null,
      "trip_id": "block_687_trip_10_service_4",
      "trip_num": 10
    },
    {
      "delay": null,
      "departure_time": "15:16:00",
      "old": false,
      "stop_lat": 50.08492,
      "stop_lon": 20.03772,
      "stop_name": "Cienista",
      "stop_num": "02",
      "stop_sequence": 24,
      "stopping": false,
      "time": null,
      "trip_id": "block_687_trip_10_service_4",
      "trip_num": 10
    },
    {
      "delay": null,
      "departure_time": "15:18:00",
      "old": false,
      "stop_lat": 50.086937,
      "stop_lon": 20.047608,
      "stop_name": "Wańkowicza",
      "stop_num": "02",
      "stop_sequence": 25,
      "stopping": false,
      "time": null,
      "trip_id": "block_687_trip_10_service_4",
      "trip_num": 10
    },
    {
      "delay": null,
      "departure_time": "15:20:00",
      "old": false,
      "stop_lat": 50.08959,
      "stop_lon": 20.059093,
      "stop_name": "Darwina",
      "stop_num": "01",
      "stop_sequence": 26,
      "stopping": false,
      "time": null,
      "trip_id": "block_687_trip_10_service_4",
      "trip_num": 10
    },
    {
      "delay": null,
      "departure_time": "15:21:00",
      "old": false,
      "stop_lat": 50.092298,
      "stop_lon": 20.061609,
      "stop_name": "Jarzębiny",
      "stop_num": "01",
      "stop_sequence": 27,
      "stopping": false,
      "time": null,
      "trip_id": "block_687_trip_10_service_4",
      "trip_num": 10
    },
    {
      "delay": null,
      "departure_time": "15:23:00",
      "old": false,
      "stop_lat": 50.094595,
      "stop_lon": 20.064858,
      "stop_name": "Wzgórza Krzesławickie",
      "stop_num": "01",
      "stop_sequence": 28,
      "stopping": false,
      "time": null,
      "trip_id": "block_687_trip_10_service_4",
      "trip_num": 10
    },
    {
      "delay": null,
      "departure_time": "15:37:00",
      "old": false,
      "stop_lat": 50.094595,
      "stop_lon": 20.064858,
      "stop_name": "Wzgórza Krzesławickie",
      "stop_num": "01",
      "stop_sequence": 1,
      "stopping": false,
      "time": null,
      "trip_id": "block_687_trip_11_service_4",
      "trip_num": 11
    },
    {
      "delay": null,
      "departure_time": "15:38:00",
      "old": false,
      "stop_lat": 50.091985,
      "stop_lon": 20.061099,
      "stop_name": "Jarzębiny",
      "stop_num": "02",
      "stop_sequence": 2,
      "stopping": false,
      "time": null,
      "trip_id": "block_687_trip_11_service_4",
      "trip_num": 11
    },
    {
      "delay": null,
      "departure_time": "15:39:00",
      "old": false,
      "stop_lat": 50.089588,
      "stop_lon": 20.059129,
      "stop_name": "Darwina",
      "stop_num": "02",
      "stop_sequence": 3,
      "stopping": false,
      "time": null,
      "trip_id": "block_687_trip_11_service_4",
      "trip_num": 11
    },
    {
      "delay": null,
      "departure_time": "15:41:00",
      "old": false,
      "stop_lat": 50.086978,
      "stop_lon": 20.04756,
      "stop_name": "Wańkowicza",
      "stop_num": "01",
      "stop_sequence": 4,
      "stopping": false,
      "time": null,
      "trip_id": "block_687_trip_11_service_4",
      "trip_num": 11
    },
    {
      "delay": null,
      "departure_time": "15:42:00",
      "old": false,
      "stop_lat": 50.08539,
      "stop_lon": 20.03852,
      "stop_name": "Cienista",
      "stop_num": "01",
      "stop_sequence": 5,
      "stopping": false,
      "time": null,
      "trip_id": "block_687_trip_11_service_4",
      "trip_num": 11
    },
    {
      "delay": null,
      "departure_time": "15:43:00",
      "old": false,
      "stop_lat": 50.082264,
      "stop_lon": 20.032708,
      "stop_name": "Teatr Ludowy",
      "stop_num": "01",
      "stop_sequence": 6,
      "stopping": false,
      "time": null,
      "trip_id": "block_687_trip_11_service_4",
      "trip_num": 11
    },
    {
      "delay": null,
      "departure_time": "15:46:00",
      "old": false,
      "stop_lat": 50.07905,
      "stop_lon": 20.026486,
      "stop_name": "Rondo Kocmyrzowskie im. Ks. Gorzelanego",
      "stop_num": "02",
      "stop_sequence": 7,
      "stopping": false,
      "time": null,
      "trip_id": "block_687_trip_11_service_4",
      "trip_num": 11
    },
    {
      "delay": null,
      "departure_time": "15:47:00",
      "old": false,
      "stop_lat": 50.075661,
      "stop_lon": 20.02044,
      "stop_name": "Bieńczycka",
      "stop_num": "01",
      "stop_sequence": 8,
      "stopping": false,
      "time": null,
      "trip_id": "block_687_trip_11_service_4",
      "trip_num": 11
    },
    {
      "delay": null,
      "departure_time": "15:50:00",
      "old": false,
      "stop_lat": 50.072758,
      "stop_lon": 20.017068,
      "stop_name": "Rondo Czyżyńskie",
      "stop_num": "04",
      "stop_sequence": 9,
      "stopping": false,
      "time": null,
      "trip_id": "block_687_trip_11_service_4",
      "trip_num": 11
    },
    {
      "delay": null,
      "departure_time": "15:51:00",
      "old": false,
      "stop_lat": 50.069417,
      "stop_lon": 20.012742,
      "stop_name": "Gałczyńskiego",
      "stop_num": "02",
      "stop_sequence": 10,
      "stopping": false,
      "time": null,
      "trip_id": "block_687_trip_11_service_4",
      "trip_num": 11
    },
    {
      "delay": null,
      "departure_time": "15:52:00",
      "old": false,
      "stop_lat": 50.067398,
      "stop_lon": 20.005374,
      "stop_name": "Rondo 308. Dywizjonu",
      "stop_num": "02",
      "stop_sequence": 11,
      "stopping": false,
      "time": null,
      "trip_id": "block_687_trip_11_service_4",
      "trip_num": 11
    },
    {
      "delay": null,
      "departure_time": "15:54:00",
      "old": false,
      "stop_lat": 50.065502,
      "stop_lon": 19.996324,
      "stop_name": "Ogród Doświadczeń",
      "stop_num": "02",
      "stop_sequence": 12,
      "stopping": false,
      "time": null,
      "trip_id": "block_687_trip_11_service_4",
      "trip_num": 11
    },
    {
      "delay": null,
      "departure_time": "15:55:00",
      "old": false,
      "stop_lat": 50.064416,
      "stop_lon": 19.990077,
      "stop_name": "TAURON Arena Kraków al. Pokoju",
      "stop_num": "02",
      "stop_sequence": 13,
      "stopping": false,
      "time": null,
      "trip_id": "block_687_trip_11_service_4",
      "trip_num": 11
    },
    {
      "delay": null,
      "departure_time": "15:57:00",
      "old": false,
      "stop_lat": 50.060709,
      "stop_lon": 19.979012,
      "stop_name": "Dąbie",
      "stop_num": "02",
      "stop_sequence": 14,
      "stopping": false,
      "time": null,
      "trip_id": "block_687_trip_11_service_4",
      "trip_num": 11
    },
    {
      "delay": null,
      "departure_time": "15:58:00",
      "old": false,
      "stop_lat": 50.059629,
      "stop_lon": 19.976271,
      "stop_name": "Ofiar Dąbia",
      "stop_num": "02",
      "stop_sequence": 15,
      "stopping": false,
      "time": null,
      "trip_id": "block_687_trip_11_service_4",
      "trip_num": 11
    },
    {
      "delay": null,
      "departure_time": "15:59:00",
      "old": false,
      "stop_lat": 50.060251,
      "stop_lon": 19.971272,
      "stop_name": "Fabryczna",
      "stop_num": "02",
      "stop_sequence": 16,
      "stopping": false,
      "time": null,
      "trip_id": "block_687_trip_11_service_4",
      "trip_num": 11
    },
    {
      "delay": null,
      "departure_time": "16:00:00",
      "old": false,
      "stop_lat": 50.060173,
      "stop_lon": 19.967382,
      "stop_name": "Nullo",
      "stop_num": "02",
      "stop_sequence": 17,
      "stopping": false,
      "time": null,
      "trip_id": "block_687_trip_11_service_4",
      "trip_num": 11
    },
    {
      "delay": null,
      "departure_time": "16:01:00",
      "old": false,
      "stop_lat": 50.058827,
      "stop_lon": 19.962374,
      "stop_name": "Teatr Variété",
      "stop_num": "02",
      "stop_sequence": 18,
      "stopping": false,
      "time": null,
      "trip_id": "block_687_trip_11_service_4",
      "trip_num": 11
    },
    {
      "delay": null,
      "departure_time": "16:04:00",
      "old": false,
      "stop_lat": 50.057558,
      "stop_lon": 19.957748,
      "stop_name": "Rondo Grzegórzeckie",
      "stop_num": "02",
      "stop_sequence": 19,
      "stopping": false,
      "time": null,
      "trip_id": "block_687_trip_11_service_4",
      "trip_num": 11
    },
    {
      "delay": null,
      "departure_time": "16:06:00",
      "old": false,
      "stop_lat": 50.058678,
      "stop_lon": 19.948657,
      "stop_name": "Hala Targowa",
      "stop_num": "02",
      "stop_sequence": 20,
      "stopping": false,
      "time": null,
      "trip_id": "block_687_trip_11_service_4",
      "trip_num": 11
    },