{
  "stop_times": [
    {
      "delay": null,
      "departure_time": "05:35:00",
      "old": false,
      "stop_lat": 50.083538,
      "stop_lon": 20.065554,
      "stop_name": "Zajezdnia Nowa Huta",
      "stop_num": "01",
      "stop_sequence": 2,
      "stopping": false,
      "time": null,
      "trip_id": "block_342_trip_1_service_1",
      "trip_num": 1
    },
    {
      "delay": null,
      "departure_time": "05:36:00",
      "old": false,
      "stop_lat": 50.079835,
      "stop_lon": 20.065863,
      "stop_name": "Kombinat",
      "stop_num": "02",
      "stop_sequence": 3,
      "stopping": false,
      "time": null,
      "trip_id": "block_342_trip_1_service_1",
      "trip_num": 1
    },
    {
      "delay": null,
      "departure_time": "05:38:00",
      "old": false,
      "stop_lat": 50.076232,
      "stop_lon": 20.052439,
      "stop_name": "Zalew Nowohucki",
      "stop_num": "02",
      "stop_sequence": 4,
      "stopping": false,
      "time": null,
      "trip_id": "block_342_trip_1_service_1",
      "trip_num": 1
    },
    {
      "delay": null,
      "departure_time": "05:39:00",
      "old": false,
      "stop_lat": 50.074892,
      "stop_lon": 20.047467,
      "stop_name": "Struga",
      "stop_num": "02",
      "stop_sequence": 5,
      "stopping": false,
      "time": null,
      "trip_id": "block_342_trip_1_service_1",
      "trip_num": 1
    },
    {
      "delay": null,
      "departure_time": "05:42:00",
      "old": false,
      "stop_lat": 50.071704,
      "stop_lon": 20.035631,
      "stop_name": "Plac Centralny im. R.Reagana",
      "stop_num": "01",
      "stop_sequence": 6,
      "stopping": false,
      "time": null,
      "trip_id": "block_342_trip_1_service_1",
      "trip_num": 1
    },
    {
      "delay": null,
      "departure_time": "05:43:00",
      "old": false,
      "stop_lat": 50.072371,
      "stop_lon": 20.028517,
      "stop_name": "Os. Kolorowe",
      "stop_num": "02",
      "stop_sequence": 7,
      "stopping": false,
      "time": null,
      "trip_id": "block_342_trip_1_service_1",
      "trip_num": 1
    },
    {
      "delay": null,
      "departure_time": "05:46:00",
      "old": false,
      "stop_lat": 50.072758,
      "stop_lon": 20.017068,
      "stop_name": "Rondo Czyżyńskie",
      "stop_num": "04",
      "stop_sequence": 8,
      "stopping": false,
      "time": null,
      "trip_id": "block_342_trip_1_service_1",
      "trip_num": 1
    },
    {
      "delay": null,
      "departure_time": "05:47:00",
      "old": false,
      "stop_lat": 50.069417,
      "stop_lon": 20.012742,
      "stop_name": "Gałczyńskiego",
      "stop_num": "02",
      "stop_sequence": 9,
      "stopping": false,
      "time": null,
      "trip_id": "block_342_trip_1_service_1",
      "trip_num": 1
    },
    {
      "delay": null,
      "departure_time": "05:48:00",
      "old": false,
      "stop_lat": 50.067398,
      "stop_lon": 20.005374,
      "stop_name": "Rondo 308. Dywizjonu",
      "stop_num": "02",
      "stop_sequence": 10,
      "stopping": false,
      "time": null,
      "trip_id": "block_342_trip_1_service_1",
      "trip_num": 1
    },
    {
      "delay": null,
      "departure_time": "05:50:00",
      "old": false,
      "stop_lat": 50.065502,
      "stop_lon": 19.996324,
      "stop_name": "Ogród Doświadczeń",
      "stop_num": "02",
      "stop_sequence": 11,
      "stopping": false,
      "time": null,
      "trip_id": "block_342_trip_1_service_1",
      "trip_num": 1
    },
    {
      "delay": null,
      "departure_time": "05:51:00",
      "old": false,
      "stop_lat": 50.064416,
      "stop_lon": 19.990077,
      "stop_name": "TAURON Arena Kraków al. Pokoju",
      "stop_num": "02",
      "stop_sequence": 12,
      "stopping": false,
      "time": null,
      "trip_id": "block_342_trip_1_service_1",
      "trip_num": 1
    },
    {
      "delay": null,
      "departure_time": "05:53:00",
      "old": false,
      "stop_lat": 50.060709,
      "stop_lon": 19.979012,
      "stop_name": "Dąbie",
      "stop_num": "02",
      "stop_sequence": 13,
      "stopping": false,
      "time": null,
      "trip_id": "block_342_trip_1_service_1",
      "trip_num": 1
    },
    {
      "delay": null,
      "departure_time": "05:54:00",
      "old": false,
      "stop_lat": 50.059629,
      "stop_lon": 19.976271,
      "stop_name": "Ofiar Dąbia",
      "stop_num": "02",
      "stop_sequence": 14,
      "stopping": false,
      "time": null,
      "trip_id": "block_342_trip_1_service_1",
      "trip_num": 1
    },
    {
      "delay": null,
      "departure_time": "05:55:00",
      "old": false,
      "stop_lat": 50.060251,
      "stop_lon": 19.971272,
      "stop_name": "Fabryczna",
      "stop_num": "02",
      "stop_sequence": 15,
      "stopping": false,
      "time": null,
      "trip_id": "block_342_trip_1_service_1",
      "trip_num": 1
    },
    {
      "delay": null,
      "departure_time": "05:56:00",
      "old": false,
      "stop_lat": 50.060173,
      "stop_lon": 19.967382,
      "stop_name": "Nullo",
      "stop_num": "02",
      "stop_sequence": 16,
      "stopping": false,
      "time": null,
      "trip_id": "block_342_trip_1_service_1",
      "trip_num": 1
    },
    {
      "delay": null,
      "departure_time": "05:57:00",
      "old": false,
      "stop_lat": 50.058827,
      "stop_lon": 19.962374,
      "stop_name": "Teatr Variété",
      "stop_num": "02",
      "stop_sequence": 17,
      "stopping": false,
      "time": null,
      "trip_id": "block_342_trip_1_service_1",
      "trip_num": 1
    },
    {
      "delay": null,
      "departure_time": "05:59:00",
      "old": false,
      "stop_lat": 50.056894,
      "stop_lon": 19.958941,
      "stop_name": "Rondo Grzegórzeckie",
      "stop_num": "04",
      "stop_sequence": 18,
      "stopping": false,
      "time": null,
      "trip_id": "block_342_trip_1_service_1",
      "trip_num": 1
    },
    {
      "delay": null,
      "departure_time": "06:00:00",
      "old": false,
      "stop_lat": 50.0497,
      "stop_lon": 19.965148,
      "stop_name": "Zabłocie",
      "stop_num": "01",
      "stop_sequence": 19,
      "stopping": false,
      "time": null,
      "trip_id": "block_342_trip_1_service_1",
      "trip_num": 1
    },
    {
      "delay": null,
      "departure_time": "06:01:00",
      "old": false,
      "stop_lat": 50.048976,
      "stop_lon": 19.967573,
      "stop_name": "Klimeckiego",
      "stop_num": "01",
      "stop_sequence": 20,
      "stopping": false,
      "time": null,
      "trip_id": "block_342_trip_1_service_1",
      "trip_num": 1
    },
    {
      "delay": null,
      "departure_time": "06:03:00",
      "old": false,
      "stop_lat": 50.044529,
      "stop_lon": 19.973549,
      "stop_name": "Kuklińskiego",
      "stop_num": "01",
      "stop_sequence": 21,
      "stopping": false,
      "time": null,
      "trip_id": "block_342_trip_1_service_1",
      "trip_num": 1
    },
    {
      "delay": null,
      "departure_time": "06:04:00",
      "old": false,
      "stop_lat": 50.040619,
      "stop_lon": 19.978092,
      "stop_name": "Gromadzka",
      "stop_num": "01",
      "stop_sequence": 22,
      "stopping": false,
      "time": null,
      "trip_id": "block_342_trip_1_service_1",
      "trip_num": 1
    },
    {
      "delay": null,
      "departure_time": "06:06:00",
      "old": false,
      "stop_lat": 50.040641,
      "stop_lon": 19.98442,
      "stop_name": "Lipska",
      "stop_num": "01",
      "stop_sequence": 23,
      "stopping": false,
      "time": null,
      "trip_id": "block_342_trip_1_service_1",
      "trip_num": 1
    },
    {
      "delay": null,
      "departure_time": "06:07:00",
      "old": false,
      "stop_lat": 50.040429,
      "stop_lon": 19.992646,
      "stop_name": "Rzebika",
      "stop_num": "01",
      "stop_sequence": 24,
      "stopping": false,
      "time": null,
      "trip_id": "block_342_trip_1_service_1",
      "trip_num": 1
    },
    {
      "delay": null,
      "departure_time": "06:09:00",
      "old": false,
      "stop_lat": 50.040064,
      "stop_lon": 20.001498,
      "stop_name": "Mały Płaszów P+R",
      "stop_num": "01",
      "stop_sequence": 25,
      "stopping": false,
      "time": null,
      "trip_id": "block_342_trip_1_service_1",
      "trip_num": 1
    },
    {
      "delay": null,
      "departure_time": "06:25:00",
      "old": false,
      "stop_lat": 50.040064,
      "stop_lon": 20.001498,
      "stop_name": "Mały Płaszów P+R",
      "stop_num": "01",
      "stop_sequence": 1,
      "stopping": false,
      "time": null,
      "trip_id": "block_342_trip_2_service_1",
      "trip_num": 2
    },
    {
      "delay": null,
      "departure_time": "06:27:00",
      "old": false,
      "stop_lat": 50.040546,
      "stop_lon": 19.990871,
      "stop_name": "Rzebika",
      "stop_num": "02",
      "stop_sequence": 2,
      "stopping": false,
      "time": null,
      "trip_id": "block_342_trip_2_service_1",
      "trip_num": 2
    },
    {
      "delay": null,
      "departure_time": "06:28:00",
      "old": false,
      "stop_lat": 50.039687,
      "stop_lon": 19.982994,
      "stop_name": "Lipska",
      "stop_num": "03",
      "stop_sequence": 3,
      "stopping": false,
      "time": null,
      "trip_id": "block_342_trip_2_service_1",
      "trip_num": 2
    },
    {
      "delay": null,
      "departure_time": "06:30:00",
      "old": false,
      "stop_lat": 50.033468,
      "stop_lon": 19.976946,
      "stop_name": "Dworzec Płaszów Estakada",
      "stop_num": "02",
      "stop_sequence": 4,
      "stopping": false,
      "time": null,
      "trip_id": "block_342_trip_2_service_1",
      "trip_num": 2
    },
    {
      "delay": null,
      "departure_time": "06:32:00",
      "old": false,
      "stop_lat": 50.027229,
      "stop_lon": 19.976567,
      "stop_name": "Kabel",
      "stop_num": "01",
      "stop_sequence": 5,
      "stopping": false,
      "time": null,
      "trip_id": "block_342_trip_2_service_1",
      "trip_num": 2
    },
    {
      "delay": null,
      "departure_time": "06:34:00",
      "old": false,
      "stop_lat": 50.023562,
      "stop_lon": 19.97926,
      "stop_name": "Bieżanowska",
      "stop_num": "03",
      "stop_sequence": 6,
      "stopping": false,
      "time": null,
      "trip_id": "block_342_trip_2_service_1",
      "trip_num": 2
    },
    {
      "delay": null,
      "departure_time": "06:36:00",
      "old": false,
      "stop_lat": 50.018289,
      "stop_lon": 19.977516,
      "stop_name": "Dauna",
      "stop_num": "01",
      "stop_sequence": 7,
      "stopping": false,
      "time": null,
      "trip_id": "block_342_trip_2_service_1",
      "trip_num": 2
    },
    {
      "delay": null,
      "departure_time": "06:38:00",
      "old": false,
      "stop_lat": 50.015482,
      "stop_lon": 19.971574,
      "stop_name": "Piaski Nowe",
      "stop_num": "01",
      "stop_sequence": 8,
      "stopping": false,
      "time": null,
      "trip_id": "block_342_trip_2_service_1",
      "trip_num": 2
    },
    {
      "delay": null,
      "departure_time": "06:39:00",
      "old": false,
      "stop_lat": 50.013455,
      "stop_lon": 19.964635,
      "stop_name": "Nowosądecka",
      "stop_num": "01",
      "stop_sequence": 9,
      "stopping": false,
      "time": null,
      "trip_id": "block_342_trip_2_service_1",
      "trip_num": 2
    },
    {
      "delay": null,
      "departure_time": "06:41:00",
      "old": false,
      "stop_lat": 50.012338,
      "stop_lon": 19.956857,
      "stop_name": "Witosa",
      "stop_num": "01",
      "stop_sequence": 10,
      "stopping": false,
      "time": null,
      "trip_id": "block_342_trip_2_service_1",
      "trip_num": 2
    },
    {
      "delay": null,
      "departure_time": "06:42:00",
      "old": false,
      "stop_lat": 50.01359,
      "stop_lon": 19.95044,
      "stop_name": "Kurdwanów P+R",
      "stop_num": "01",
      "stop_sequence": 11,
      "stopping": false,
      "time": null,
      "trip_id": "block_342_trip_2_service_1",
      "trip_num": 2
    },
    {
      "delay": null,
      "departure_time": "06:43:00",
      "old": false,
      "stop_lat": 50.01407,
      "stop_lon": 19.94809,
      "stop_name": "Kurdwanów P+R",
      "stop_num": "08",
      "stop_sequence": 12,
      "stopping": false,
      "time": null,
      "trip_id": "block_342_trip_2_service_1",
      "trip_num": 2
    },
    {
      "delay": null,
      "departure_time": "06:44:00",
      "old": false,
      "stop_lat": 50.01511,
      "stop_lon": 19.94435,
      "stop_name": "Turowicza",
      "stop_num": "02",
      "stop_sequence": 13,
      "stopping": false,
      "time": null,
      "trip_id": "block_342_trip_2_service_1",
      "trip_num": 2
    },
    {
      "delay": null,
      "departure_time": "06:46:00",
      "old": false,
      "stop_lat": 50.01779,
      "stop_lon": 19.93633,
      "stop_name": "Sanktuarium Bożego Miłosierdzia",
      "stop_num": "02",
      "stop_sequence": 14,
      "stopping": false,
      "time": null,
      "trip_id": "block_342_trip_2_service_1",
      "trip_num": 2
    },
    {
      "delay": null,
      "departure_time": "06:48:00",
      "old": false,
      "stop_lat": 50.02032,
      "stop_lon": 19.9317,
      "stop_name": "Łagiewniki SKA",
      "stop_num": "01",
      "stop_sequence": 15,
      "stopping": false,
      "time": null,
      "trip_id": "block_342_trip_2_service_1",
      "trip_num": 2
    },
    {
      "delay": null,
      "departure_time": "06:49:00",
      "old": false,
      "stop_lat": 50.016651,
      "stop_lon": 19.929831,
      "stop_name": "Kościuszkowców",
      "stop_num": "01",
      "stop_sequence": 16,
      "stopping": false,
      "time": null,
      "trip_id": "block_342_trip_2_service_1",
      "trip_num": 2
    },
    {
      "delay": null,
      "departure_time": "06:50:00",
      "old": false,
      "stop_lat": 50.014606,
      "stop_lon": 19.927852,
      "stop_name": "Solvay",
      "stop_num": "01",
      "stop_sequence": 17,
      "stopping": false,
      "time": null,
      "trip_id": "block_342_trip_2_service_1",
      "trip_num": 2
    },
    {
      "delay": null,
      "departure_time": "06:52:00",
      "old": false,
      "stop_lat": 50.013101,
      "stop_lon": 19.927021,
      "stop_name": "Borek Fałęcki",
      "stop_num": "01",
      "stop_sequence": 18,
      "stopping": false,
      "time": null,
      "trip_id": "block_342_trip_2_service_1",
      "trip_num": 2
    },
    {
      "delay": null,
      "departure_time": "07:07:00",
      "old": false,
      "stop_lat": 50.013101,
      "stop_lon": 19.927021,
      "stop_name": "Borek Fałęcki",
      "stop_num": "01",
      "stop_sequence": 1,
      "stopping": false,
      "time": null,
      "trip_id": "block_342_trip_3_service_1",
      "trip_num": 3
    },
    {
      "delay": null,
      "departure_time": "07:08:00",
      "old": false,
      "stop_lat": 50.014546,
      "stop_lon": 19.927822,
      "stop_name": "Solvay",
      "stop_num": "02",
      "stop_sequence": 2,
      "stopping": false,
      "time": null,
      "trip_id": "block_342_trip_3_service_1",
      "trip_num": 3
    },
    {
      "delay": null,
      "departure_time": "07:09:00",
      "old": false,
      "stop_lat": 50.015661,
      "stop_lon": 19.929342,
      "stop_name": "Kościuszkowców",
      "stop_num": "02",
      "stop_sequence": 3,
      "stopping": false,
      "time": null,
      "trip_id": "block_342_trip_3_service_1",
      "trip_num": 3
    },
    {
      "delay": null,
      "departure_time": "07:11:00",
      "old": false,
      "stop_lat": 50.02111,
      "stop_lon": 19.93288,
      "stop_name": "Łagiewniki SKA",
      "stop_num": "03",
      "stop_sequence": 4,
      "stopping": false,
      "time": null,
      "trip_id": "block_342_trip_3_service_1",
      "trip_num": 3
    },
    {
      "delay": null,
      "departure_time": "07:12:00",
      "old": false,
      "stop_lat": 50.01777,
      "stop_lon": 19.93626,
      "stop_name": "Sanktuarium Bożego Miłosierdzia",
      "stop_num": "01",
      "stop_sequence": 5,
      "stopping": false,
      "time": null,
      "trip_id": "block_342_trip_3_service_1",
      "trip_num": 3
    },
    {
      "delay": null,
      "departure_time": "07:14:00",
      "old": false,
      "stop_lat": 50.01506,
      "stop_lon": 19.94439,
      "stop_name": "Turowicza",
      "stop_num": "01",
      "stop_sequence": 6,
      "stopping": false,
      "time": null,
      "trip_id": "block_342_trip_3_service_1",
      "trip_num": 3
    },
    {
      "delay": null,
      "departure_time": "07:15:00",
      "old": false,
      "stop_lat": 50.01409,
      "stop_lon": 19.94783,
      "stop_name": "Kurdwanów P+R",
      "stop_num": "10",
      "stop_sequence": 7,
      "stopping": false,
      "time": null,
      "trip_id": "block_342_trip_3_service_1",
      "trip_num": 3
    },
    {
      "delay": null,
      "departure_time": "07:16:00",
      "old": false,
      "stop_lat": 50.01356,
      "stop_lon": 19.95042,
      "stop_name": "Kurdwanów P+R",
      "stop_num": "03",
      "stop_sequence": 8,
      "stopping": false,
      "time": null,
      "trip_id": "block_342_trip_3_service_1",
      "trip_num": 3
    },
    {
      "delay": null,
      "departure_time": "07:17:00",
      "old": false,
      "stop_lat": 50.012424,
      "stop_lon": 19.95579,
      "stop_name": "Witosa",
      "stop_num": "02",
      "stop_sequence": 9,
      "stopping": false,
      "time": null,
      "trip_id": "block_342_trip_3_service_1",
      "trip_num": 3
    },
    {
      "delay": null,
      "departure_time": "07:18:00",
      "old": false,
      "stop_lat": 50.013437,
      "stop_lon": 19.964684,
      "stop_name": "Nowosądecka",
      "stop_num": "02",
      "stop_sequence": 10,
      "stopping": false,
      "time": null,
      "trip_id": "block_342_trip_3_service_1",
      "trip_num": 3
    },
    {
      "delay": null,
      "departure_time": "07:19:00",
      "old": false,
      "stop_lat": 50.015447,
      "stop_lon": 19.971604,
      "stop_name": "Piaski Nowe",
      "stop_num": "02",
      "stop_sequence": 11,
      "stopping": false,
      "time": null,
      "trip_id": "block_342_trip_3_service_1",
      "trip_num": 3
    },
    {
      "delay": null,
      "departure_time": "07:21:00",
      "old": false,
      "stop_lat": 50.018408,
      "stop_lon": 19.977585,
      "stop_name": "Dauna",
      "stop_num": "02",
      "stop_sequence": 12,
      "stopping": false,
      "time": null,
      "trip_id": "block_342_trip_3_service_1",
      "trip_num": 3
    },
    {
      "delay": null,
      "departure_time": "07:23:00",
      "old": false,
      "stop_lat": 50.023609,
      "stop_lon": 19.979431,
      "stop_name": "Bieżanowska",
      "stop_num": "04",
      "stop_sequence": 13,
      "stopping": false,
      "time": null,
      "trip_id": "block_342_trip_3_service_1",
      "trip_num": 3
    },
    {
      "delay": null,
      "departure_time": "07:24:00",
      "old": false,
      "stop_lat": 50.026621,
      "stop_lon": 19.977231,
      "stop_name": "Kabel",
      "stop_num": "02",
      "stop_sequence": 14,
      "stopping": false,
      "time": null,
      "trip_id": "block_342_trip_3_service_1",
      "trip_num": 3
    },
    {
      "delay": null,
      "departure_time": "07:26:00",
      "old": false,
      "stop_lat": 50.033556,
      "stop_lon": 19.977196,
      "stop_name": "Dworzec Płaszów Estakada",
      "stop_num": "01",
      "stop_sequence": 15,
      "stopping": false,
      "time": null,
      "trip_id": "block_342_trip_3_service_1",
      "trip_num": 3
    },
    {
      "delay": null,
      "departure_time": "07:28:00",
      "old": false,
      "stop_lat": 50.040641,
      "stop_lon": 19.98442,
      "stop_name": "Lipska",
      "stop_num": "01",
      "stop_sequence": 16,
      "stopping": false,
      "time": null,
      "trip_id": "block_342_trip_3_service_1",
      "trip_num": 3
    },
    {
      "delay": null,
      "departure_time": "07:29:00",
      "old": false,
      "stop_lat": 50.040429,
      "stop_lon": 19.992646,
      "stop_name": "Rzebika",
      "stop_num": "01",
      "stop_sequence": 17,
      "stopping": false,
      "time": null,
      "trip_id": "block_342_trip_3_service_1",
      "trip_num": 3
    },
    {
      "delay": null,
      "departure_time": "07:31:00",
      "old": false,
      "stop_lat": 50.040064,
      "stop_lon": 20.001498,
      "stop_name": "Mały Płaszów P+R",
      "stop_num": "01",
      "stop_sequence": 18,
      "stopping": false,
      "time": null,
      "trip_id": "block_342_trip_3_service_1",
      "trip_num": 3
    },
    {
      "delay": null,
      "departure_time": "07:45:00",
      "old": false,
      "stop_lat": 50.040064,
      "stop_lon": 20.001498,
      "stop_name": "Mały Płaszów P+R",
      "stop_num": "01",
      "stop_sequence": 1,
      "stopping": false,
      "time": null,
      "trip_id": "block_342_trip_4_service_1",
      "trip_num": 4
    },
    {
      "delay": null,
      "departure_time": "07:47:00",
      "old": false,
      "stop_lat": 50.040546,
      "stop_lon": 19.990871,
      "stop_name": "Rzebika",
      "stop_num": "02",
      "stop_sequence": 2,
      "stopping": false,
      "time": null,
      "trip_id": "block_342_trip_4_service_1",
      "trip_num": 4
    },
    {
      "delay": null,
      "departure_time": "07:48:00",
      "old": false,
      "stop_lat": 50.039687,
      "stop_lon": 19.982994,
      "stop_name": "Lipska",
      "stop_num": "03",
      "stop_sequence": 3,
      "stopping": false,
      "time": null,
      "trip_id": "block_342_trip_4_service_1",
      "trip_num": 4
    },
    {
      "delay": null,
      "departure_time": "07:50:00",
      "old": false,
      "stop_lat": 50.033468,
      "stop_lon": 19.976946,
      "stop_name": "Dworzec Płaszów Estakada",
      "stop_num": "02",
      "stop_sequence": 4,
      "stopping": false,
      "time": null,
      "trip_id": "block_342_trip_4_service_1",
      "trip_num": 4
    },
    {
      "delay": null,
      "departure_time": "07:52:00",
      "old": false,
      "stop_lat": 50.027229,
      "stop_lon": 19.976567,
      "stop_name": "Kabel",
      "stop_num": "01",
      "stop_sequence": 5,
      "stopping": false,
      "time": null,
      "trip_id": "block_342_trip_4_service_1",
      "trip_num": 4
    },
    {
      "delay": null,
      "departure_time": "07:54:00",
      "old": false,
      "stop_lat": 50.023562,
      "stop_lon": 19.97926,
      "stop_name": "Bieżanowska",
      "stop_num": "03",
      "stop_sequence": 6,
      "stopping": false,
      "time": null,
      "trip_id": "block_342_trip_4_service_1",
      "trip_num": 4
    },
    {
      "delay": null,
      "departure_time": "07:56:00",
      "old": false,
      "stop_lat": 50.018289,
      "stop_lon": 19.977516,
      "stop_name": "Dauna",
      "stop_num": "01",
      "stop_sequence": 7,
      "stopping": false,
      "time": null,
      "trip_id": "block_342_trip_4_service_1",
      "trip_num": 4
    },
    {
      "delay": null,
      "departure_time": "07:58:00",
      "old": false,
      "stop_lat": 50.015482,
      "stop_lon": 19.971574,
      "stop_name": "Piaski Nowe",
      "stop_num": "01",
      "stop_sequence": 8,
      "stopping": false,
      "time": null,
      "trip_id": "block_342_trip_4_service_1",
      "trip_num": 4
    },
    {
      "delay": null,
      "departure_time": "07:59:00",
      "old": false,
      "stop_lat": 50.013455,
      "stop_lon": 19.964635,
      "stop_name": "Nowosądecka",
      "stop_num": "01",
      "stop_sequence": 9,
      "stopping": false,
      "time": null,
      "trip_id": "block_342_trip_4_service_1",
      "trip_num": 4
    },
    {
      "delay": null,
      "departure_time": "08:01:00",
      "old": false,
      "stop_lat": 50.012338,
      "stop_lon": 19.956857,
      "stop_name": "Witosa",
      "stop_num": "01",
      "stop_sequence": 10,
      "stopping": false,
      "time": null,
      "trip_id": "block_342_trip_4_service_1",
      "trip_num": 4
    },
    {
      "delay": null,
      "departure_time": "08:02:00",
      "old": false,
      "stop_lat": 50.01359,
      "stop_lon": 19.95044,
      "stop_name": "Kurdwanów P+R",
      "stop_num": "01",
      "stop_sequence": 11,
      "stopping": false,
      "time": null,
      "trip_id": "block_342_trip_4_service_1",
      "trip_num": 4
    },
    {
      "delay": null,
      "departure_time": "08:03:00",
      "old": false,
      "stop_lat": 50.01407,
      "stop_lon": 19.94809,
      "stop_name": "Kurdwanów P+R",
      "stop_num": "08",
      "stop_sequence": 12,
      "stopping": false,
      "time": null,
      "trip_id": "block_342_trip_4_service_1",
      "trip_num": 4
    },
    {
      "delay": null,
      "departure_time": "08:04:00",
      "old": false,
      "stop_lat": 50.01511,
      "stop_lon": 19.94435,
      "stop_name": "Turowicza",
      "stop_num": "02",
      "stop_sequence": 13,
      "stopping": false,
      "time": null,
      "trip_id": "block_342_trip_4_service_1",
      "trip_num": 4
    },
    {
      "delay": null,
      "departure_time": "08:06:00",
      "old": false,
      "stop_lat": 50.01779,
      "stop_lon": 19.93633,
      "stop_name": "Sanktuarium Bożego Miłosierdzia",
      "stop_num": "02",
      "stop_sequence": 14,
      "stopping": false,
      "time": null,
      "trip_id": "block_342_trip_4_service_1",
      "trip_num": 4
    },
    {
      "delay": null,
      "departure_time": "08:08:00",
      "old": false,
      "stop_lat": 50.02032,
      "stop_lon": 19.9317,
      "stop_name": "Łagiewniki SKA",
      "stop_num": "01",
      "stop_sequence": 15,
      "stopping": false,
      "time": null,
      "trip_id": "block_342_trip_4_service_1",
      "trip_num": 4
    },
    {
      "delay": null,
      "departure_time": "08:09:00",
      "old": false,
      "stop_lat": 50.016651,
      "stop_lon": 19.929831,
      "stop_name": "Kościuszkowców",
      "stop_num": "01",
      "stop_sequence": 16,
      "stopping": false,
      "time": null,
      "trip_id": "block_342_trip_4_service_1",
      "trip_num": 4
    },
    {
      "delay": null,
      "departure_time": "08:10:00",
      "old": false,
      "stop_lat": 50.014606,
      "stop_lon": 19.927852,
      "stop_name": "Solvay",
      "stop_num": "01",
      "stop_sequence": 17,
      "stopping": false,
      "time": null,
      "trip_id": "block_342_trip_4_service_1",
      "trip_num": 4
    },
    {
      "delay": null,
      "departure_time": "08:12:00",
      "old": false,
      "stop_lat": 50.013101,
      "stop_lon": 19.927021,
      "stop_name": "Borek Fałęcki",
      "stop_num": "01",
      "stop_sequence": 18,
      "stopping": false,
      "time": null,
      "trip_id": "block_342_trip_4_service_1",
      "trip_num": 4
    },
    {
      "delay": null,
      "departure_time": "08:27:00",
      "old": false,
      "stop_lat": 50.013101,
      "stop_lon": 19.927021,
      "stop_name": "Borek Fałęcki",
      "stop_num": "01",
      "stop_sequence": 1,
      "stopping": false,
      "time": null,
      "trip_id": "block_342_trip_5_service_1",
      "trip_num": 5
    },
    {
      "delay": null,
      "departure_time": "08:28:00",
      "old": false,
      "stop_lat": 50.014546,
      "stop_lon": 19.927822,
      "stop_name": "Solvay",
      "stop_num": "02",
      "stop_sequence": 2,
      "stopping": false,
      "time": null,
      "trip_id": "block_342_trip_5_service_1",
      "trip_num": 5
    },
    {
      "delay": null,
      "departure_time": "08:29:00",
      "old": false,
      "stop_lat": 50.015661,
      "stop_lon": 19.929342,
      "stop_name": "Kościuszkowców",
      "stop_num": "02",
      "stop_sequence": 3,
      "stopping": false,
      "time": null,
      "trip_id": "block_342_trip_5_service_1",
      "trip_num": 5
    },
    {
      "delay": null,
      "departure_time": "08:31:00",
      "old": false,
      "stop_lat": 50.02111,
      "stop_lon": 19.93288,
      "stop_name": "Łagiewniki SKA",
      "stop_num": "03",
      "stop_sequence": 4,
      "stopping": false,
      "time": null,
      "trip_id": "block_342_trip_5_service_1",
      "trip_num": 5
    },
    {
      "delay": null,
      "departure_time": "08:32:00",
      "old": false,
      "stop_lat": 50.01777,
      "stop_lon": 19.93626,
      "stop_name": "Sanktuarium Bożego Miłosierdzia",
      "stop_num": "01",
      "stop_sequence": 5,
      "stopping": false,
      "time": null,
      "trip_id": "block_342_trip_5_service_1",
      "trip_num": 5
    },
    {
      "delay": null,
      "departure_time": "08:34:00",
      "old": false,
      "stop_lat": 50.01506,
      "stop_lon": 19.94439,
      "stop_name": "Turowicza",
      "stop_num": "01",
      "stop_sequence": 6,
      "stopping": false,
      "time": null,
      "trip_id": "block_342_trip_5_service_1",
      "trip_num": 5
    },
    {
      "delay": null,
      "departure_time": "08:35:00",
      "old": false,
      "stop_lat": 50.01409,
      "stop_lon": 19.94783,
      "stop_name": "Kurdwanów P+R",
      "stop_num": "10",
      "stop_sequence": 7,
      "stopping": false,
      "time": null,
      "trip_id": "block_342_trip_5_service_1",
      "trip_num": 5
    },
    {
      "delay": null,
      "departure_time": "08:36:00",
      "old": false,
      "stop_lat": 50.01356,
      "stop_lon": 19.95042,
      "stop_name": "Kurdwanów P+R",
      "stop_num": "03",
      "stop_sequence": 8,
      "stopping": false,
      "time": null,
      "trip_id": "block_342_trip_5_service_1",
      "trip_num": 5
    },
    {
      "delay": null,
      "departure_time": "08:37:00",
      "old": false,
      "stop_lat": 50.012424,
      "stop_lon": 19.95579,
      "stop_name": "Witosa",
      "stop_num": "02",
      "stop_sequence": 9,
      "stopping": false,
      "time": null,
      "trip_id": "block_342_trip_5_service_1",
      "trip_num": 5
    },
    {
      "delay": null,
      "departure_time": "08:38:00",
      "old": false,
      "stop_lat": 50.013437,
      "stop_lon": 19.964684,
      "stop_name": "Nowosądecka",
      "stop_num": "02",
      "stop_sequence": 10,
      "stopping": false,
      "time": null,
      "trip_id": "block_342_trip_5_service_1",
      "trip_num": 5
    },
    {
      "delay": null,
      "departure_time": "08:39:00",
      "old": false,
      "stop_lat": 50.015447,
      "stop_lon": 19.971604,
      "stop_name": "Piaski Nowe",
      "stop_num": "02",
      "stop_sequence": 11,
      "stopping": false,
      "time": null,
      "trip_id": "block_342_trip_5_service_1",
      "trip_num": 5
    },
    {
      "delay": null,
      "departure_time": "08:41:00",
      "old": false,
      "stop_lat": 50.018408,
      "stop_lon": 19.977585,
      "stop_name": "Dauna",
      "stop_num": "02",
      "stop_sequence": 12,
      "stopping": false,
      "time": null,
      "trip_id": "block_342_trip_5_service_1",
      "trip_num": 5
    },
    {
      "delay": null,
      "departure_time": "08:43:00",
      "old": false,
      "stop_lat": 50.023609,
      "stop_lon": 19.979431,
      "stop_name": "Bieżanowska",
      "stop_num": "04",
      "stop_sequence": 13,
      "stopping": false,
      "time": null,
      "trip_id": "block_342_trip_5_service_1",
      "trip_num": 5
    },
    {
      "delay": null,
      "departure_time": "08:44:00",
      "old": false,
      "stop_lat": 50.026621,
      "stop_lon": 19.977231,
      "stop_name": "Kabel",
      "stop_num": "02",
      "stop_sequence": 14,
      "stopping": false,
      "time": null,
      "trip_id": "block_342_trip_5_service_1",
      "trip_num": 5
    },
    {
      "delay": null,
      "departure_time": "08:46:00",
      "old": false,
      "stop_lat": 50.033556,
      "stop_lon": 19.977196,
      "stop_name": "Dworzec Płaszów Estakada",
      "stop_num": "01",
      "stop_sequence": 15,
      "stopping": false,
      "time": null,
      "trip_id": "block_342_trip_5_service_1",
      "trip_num": 5
    },
    {
      "delay": null,
      "departure_time": "08:49:00",
      "old": false,
      "stop_lat": 50.040641,
      "stop_lon": 19.98442,
      "stop_name": "Lipska",
      "stop_num": "01",
      "stop_sequence": 16,
      "stopping": false,
      "time": null,
      "trip_id": "block_342_trip_5_service_1",
      "trip_num": 5
    },
    {
      "delay": null,
      "departure_time": "08:50:00",
      "old": false,
      "stop_lat": 50.040429,
      "stop_lon": 19.992646,
      "stop_name": "Rzebika",
      "stop_num": "01",
      "stop_sequence": 17,
      "stopping": false,
      "time": null,
      "trip_id": "block_342_trip_5_service_1",
      "trip_num": 5
    },
    {
      "delay": null,
      "departure_time": "08:52:00",
      "old": false,
      "stop_lat": 50.040064,
      "stop_lon": 20.001498,
      "stop_name": "Mały Płaszów P+R",
      "stop_num": "01",
      "stop_sequence": 18,
      "stopping": false,
      "time": null,
      "trip_id": "block_342_trip_5_service_1",
      "trip_num": 5
    },
    {
      "delay": null,
      "departure_time": "09:05:00",
      "old": false,
      "stop_lat": 50.040064,
      "stop_lon": 20.001498,
      "stop_name": "Mały Płaszów P+R",
      "stop_num": "01",
      "stop_sequence": 1,
      "stopping": false,
      "time": null,
      "trip_id": "block_342_trip_6_service_1",
      "trip_num": 6
    },
    {
      "delay": null,
      "departure_time": "09:07:00",
      "old": false,
      "stop_lat": 50.040546,
      "stop_lon": 19.990871,
      "stop_name": "Rzebika",
      "stop_num": "02",
      "stop_sequence": 2,
      "stopping": false,
      "time": null,
      "trip_id": "block_342_trip_6_service_1",
      "trip_num": 6
    },
    {
      "delay": null,
      "departure_time": "09:08:00",
      "old": false,
      "stop_lat": 50.039687,
      "stop_lon": 19.982994,
      "stop_name": "Lipska",
      "stop_num": "03",
      "stop_sequence": 3,
      "stopping": false,
      "time": null,
      "trip_id": "block_342_trip_6_service_1",
      "trip_num": 6
    },
    {
      "delay": null,
      "departure_time": "09:10:00",
      "old": false,
      "stop_lat": 50.033468,
      "stop_lon": 19.976946,
      "stop_name": "Dworzec Płaszów Estakada",
      "stop_num": "02",
      "stop_sequence": 4,
      "stopping": false,
      "time": null,
      "trip_id": "block_342_trip_6_service_1",
      "trip_num": 6
    },
    {
      "delay": null,
      "departure_time": "09:12:00",
      "old": false,
      "stop_lat": 50.027229,
      "stop_lon": 19.976567,
      "stop_name": "Kabel",
      "stop_num": "01",
      "stop_sequence": 5,
      "stopping": false,
      "time": null,
      "trip_id": "block_342_trip_6_service_1",
      "trip_num": 6
    },
    {
      "delay": null,
      "departure_time": "09:14:00",
      "old": false,
      "stop_lat": 50.023562,
      "stop_lon": 19.97926,
      "stop_name": "Bieżanowska",
      "stop_num": "03",
      "stop_sequence": 6,
      "stopping": false,
      "time": null,
      "trip_id": "block_342_trip_6_service_1",
      "trip_num": 6
    },
    {
      "delay": null,
      "departure_time": "09:16:00",
      "old": false,
      "stop_lat": 50.018289,
      "stop_lon": 19.977516,
      "stop_name": "Dauna",
      "stop_num": "01",
      "stop_sequence": 7,
      "stopping": false,
      "time": null,
      "trip_id": "block_342_trip_6_service_1",
      "trip_num": 6
    },
    {
      "delay": null,
      "departure_time": "09:18:00",
      "old": false,
      "stop_lat": 50.015482,
      "stop_lon": 19.971574,
      "stop_name": "Piaski Nowe",
      "stop_num": "01",
      "stop_sequence": 8,
      "stopping": false,
      "time": null,
      "trip_id": "block_342_trip_6_service_1",
      "trip_num": 6
    },
    {
      "delay": null,
      "departure_time": "09:19:00",
      "old": false,
      "stop_lat": 50.013455,
      "stop_lon": 19.964635,
      "stop_name": "Nowosądecka",
      "stop_num": "01",
      "stop_sequence": 9,
      "stopping": false,
      "time": null,
      "trip_id": "block_342_trip_6_service_1",
      "trip_num": 6
    },
    {
      "delay": null,
      "departure_time": "09:21:00",
      "old": false,
      "stop_lat": 50.012338,
      "stop_lon": 19.956857,
      "stop_name": "Witosa",
      "stop_num": "01",
      "stop_sequence": 10,
      "stopping": false,
      "time": null,
      "trip_id": "block_342_trip_6_service_1",
      "trip_num": 6
    },
    {
      "delay": null,
      "departure_time": "09:22:00",
      "old": false,
      "stop_lat": 50.01359,
      "stop_lon": 19.95044,
      "stop_name": "Kurdwanów P+R",
      "stop_num": "01",
      "stop_sequence": 11,
      "stopping": false,
      "time": null,
      "trip_id": "block_342_trip_6_service_1",
      "trip_num": 6
    },
    {
      "delay": null,
      "departure_time": "09:23:00",
      "old": false,
      "stop_lat": 50.01407,
      "stop_lon": 19.94809,
      "stop_name": "Kurdwanów P+R",
      "stop_num": "08",
      "stop_sequence": 12,
      "stopping": false,
      "time": null,
      "trip_id": "block_342_trip_6_service_1",
      "trip_num": 6
    },
    {
      "delay": null,
      "departure_time": "09:24:00",
      "old": false,
      "stop_lat": 50.01511,
      "stop_lon": 19.94435,
      "stop_name": "Turowicza",
      "stop_num": "02",
      "stop_sequence": 13,
      "stopping": false,
      "time": null,
      "trip_id": "block_342_trip_6_service_1",
      "trip_num": 6
    },
    {
      "delay": null,
      "departure_time": "09:26:00",
      "old": false,
      "stop_lat": 50.01779,
      "stop_lon": 19.93633,
      "stop_name": "Sanktuarium Bożego Miłosierdzia",
      "stop_num": "02",
      "stop_sequence": 14,
      "stopping": false,
      "time": null,
      "trip_id": "block_342_trip_6_service_1",
      "trip_num": 6
    },
    {
      "delay": null,
      "departure_time": "09:28:00",
      "old": false,
      "stop_lat": 50.02032,
      "stop_lon": 19.9317,
      "stop_name": "Łagiewniki SKA",
      "stop_num": "01",
      "stop_sequence": 15,
      "stopping": false,
      "time": null,
      "trip_id": "block_342_trip_6_service_1",
      "trip_num": 6
    },
    {
      "delay": null,
      "departure_time": "09:29:00",
      "old": false,
      "stop_lat": 50.016651,
      "stop_lon": 19.929831,
      "stop_name": "Kościuszkowców",
      "stop_num": "01",
      "stop_sequence": 16,
      "stopping": false,
      "time": null,
      "trip_id": "block_342_trip_6_service_1",
      "trip_num": 6
    },
    {
      "delay": null,
      "departure_time": "09:30:00",
      "old": false,
      "stop_lat": 50.014606,
      "stop_lon": 19.927852,
      "stop_name": "Solvay",
      "stop_num": "01",
      "stop_sequence": 17,
      "stopping": false,
      "time": null,
      "trip_id": "block_342_trip_6_service_1",
      "trip_num": 6
    },
    {
      "delay": null,
      "departure_time": "09:32:00",
      "old": false,
      "stop_lat": 50.013101,
      "stop_lon": 19.927021,
      "stop_name": "Borek Fałęcki",
      "stop_num": "01",
      "stop_sequence": 18,
      "stopping": false,
      "time": null,
      "trip_id": "block_342_trip_6_service_1",
      "trip_num": 6
    },
    {
      "delay": null,
      "departure_time": "09:47:00",
      "old": false,
      "stop_lat": 50.013101,
      "stop_lon": 19.927021,
      "stop_name": "Borek Fałęcki",
      "stop_num": "01",
      "stop_sequence": 1,
      "stopping": false,
      "time": null,
      "trip_id": "block_342_trip_7_service_1",
      "trip_num": 7
    },
    {
      "delay": null,
      "departure_time": "09:48:00",
      "old": false,
      "stop_lat": 50.014546,
      "stop_lon": 19.927822,
      "stop_name": "Solvay",
      "stop_num": "02",
      "stop_sequence": 2,
      "stopping": false,
      "time": null,
      "trip_id": "block_342_trip_7_service_1",
      "trip_num": 7
    },
    {
      "delay": null,
      "departure_time": "09:49:00",
      "old": false,
      "stop_lat": 50.015661,
      "stop_lon": 19.929342,
      "stop_name": "Kościuszkowców",
      "stop_num": "02",
      "stop_sequence": 3,
      "stopping": false,
      "time": null,
      "trip_id": "block_342_trip_7_service_1",
      "trip_num": 7
    },
    {
      "delay": null,
      "departure_time": "09:51:00",
      "old": false,
      "stop_lat": 50.02111,
      "stop_lon": 19.93288,
      "stop_name": "Łagiewniki SKA",
      "stop_num": "03",
      "stop_sequence": 4,
      "stopping": false,
      "time": null,
      "trip_id": "block_342_trip_7_service_1",
      "trip_num": 7
    },
    {
      "delay": null,
      "departure_time": "09:52:00",
      "old": false,
      "stop_lat": 50.01777,
      "stop_lon": 19.93626,
      "stop_name": "Sanktuarium Bożego Miłosierdzia",
      "stop_num": "01",
      "stop_sequence": 5,
      "stopping": false,
      "time": null,
      "trip_id": "block_342_trip_7_service_1",
      "trip_num": 7
    },
    {
      "delay": null,
      "departure_time": "09:54:00",
      "old": false,
      "stop_lat": 50.01506,
      "stop_lon": 19.94439,
      "stop_name": "Turowicza",
      "stop_num": "01",
      "stop_sequence": 6,
      "stopping": false,
      "time": null,
      "trip_id": "block_342_trip_7_service_1",
      "trip_num": 7
    },
    {
      "delay": null,
      "departure_time": "09:55:00",
      "old": false,
      "stop_lat": 50.01409,
      "stop_lon": 19.94783,
      "stop_name": "Kurdwanów P+R",
      "stop_num": "10",
      "stop_sequence": 7,
      "stopping": false,
      "time": null,
      "trip_id": "block_342_trip_7_service_1",
      "trip_num": 7
    },
    {
      "delay": null,
      "departure_time": "09:56:00",
      "old": false,
      "stop_lat": 50.01356,
      "stop_lon": 19.95042,
      "stop_name": "Kurdwanów P+R",
      "stop_num": "03",
      "stop_sequence": 8,
      "stopping": false,
      "time": null,
      "trip_id": "block_342_trip_7_service_1",
      "trip_num": 7
    },
    {
      "delay": null,
      "departure_time": "09:57:00",
      "old": false,
      "stop_lat": 50.012424,
      "stop_lon": 19.95579,
      "stop_name": "Witosa",
      "stop_num": "02",
      "stop_sequence": 9,
      "stopping": false,
      "time": null,
      "trip_id": "block_342_trip_7_service_1",
      "trip_num": 7
    },
    {
      "delay": null,
      "departure_time": "09:58:00",
      "old": false,
      "stop_lat": 50.013437,
      "stop_lon": 19.964684,
      "stop_name": "Nowosądecka",
      "stop_num": "02",
      "stop_sequence": 10,
      "stopping": false,
      "time": null,
      "trip_id": "block_342_trip_7_service_1",
      "trip_num": 7
    },
    {
      "delay": null,
      "departure_time": "09:59:00",
      "old": false,
      "stop_lat": 50.015447,
      "stop_lon": 19.971604,
      "stop_name": "Piaski Nowe",
      "stop_num": "02",
      "stop_sequence": 11,
      "stopping": false,
      "time": null,
      "trip_id": "block_342_trip_7_service_1",
      "trip_num": 7
    },
    {
      "delay": null,
      "departure_time": "10:01:00",
      "old": false,
      "stop_lat": 50.018408,
      "stop_lon": 19.977585,
      "stop_name": "Dauna",
      "stop_num": "02",
      "stop_sequence": 12,
      "stopping": false,
      "time": null,
      "trip_id": "block_342_trip_7_service_1",
      "trip_num": 7
    },
    {
      "delay": null,
      "departure_time": "10:03:00",
      "old": false,
      "stop_lat": 50.023609,
      "stop_lon": 19.979431,
      "stop_name": "Bieżanowska",
      "stop_num": "04",
      "stop_sequence": 13,
      "stopping": false,
      "time": null,
      "trip_id": "block_342_trip_7_service_1",
      "trip_num": 7
    },
    {
      "delay": null,
      "departure_time": "10:04:00",
      "old": false,
      "stop_lat": 50.026621,
      "stop_lon": 19.977231,
      "stop_name": "Kabel",
      "stop_num": "02",
      "stop_sequence": 14,
      "stopping": false,
      "time": null,
      "trip_id": "block_342_trip_7_service_1",
      "trip_num": 7
    },
    {
      "delay": null,
      "departure_time": "10:06:00",
      "old": false,
      "stop_lat": 50.033556,
      "stop_lon": 19.977196,
      "stop_name": "Dworzec Płaszów Estakada",
      "stop_num": "01",
      "stop_sequence": 15,
      "stopping": false,
      "time": null,
      "trip_id": "block_342_trip_7_service_1",
      "trip_num": 7
    },
    {
      "delay": null,
      "departure_time": "10:09:00",
      "old": false,
      "stop_lat": 50.040641,
      "stop_lon": 19.98442,
      "stop_name": "Lipska",
      "stop_num": "01",
      "stop_sequence": 16,
      "stopping": false,
      "time": null,
      "trip_id": "block_342_trip_7_service_1",
      "trip_num": 7
    },
    {
      "delay": null,
      "departure_time": "10:10:00",
      "old": false,
      "stop_lat": 50.040429,
      "stop_lon": 19.992646,
      "stop_name": "Rzebika",
      "stop_num": "01",
      "stop_sequence": 17,
      "stopping": false,
      "time": null,
      "trip_id": "block_342_trip_7_service_1",
      "trip_num": 7
    },
    {
      "delay": null,
      "departure_time": "10:12:00",
      "old": false,
      "stop_lat": 50.040064,
      "stop_lon": 20.001498,
      "stop_name": "Mały Płaszów P+R",
      "stop_num": "01",
      "stop_sequence": 18,
      "stopping": false,
      "time": null,
      "trip_id": "block_342_trip_7_service_1",
      "trip_num": 7
    },
    {
      "delay": null,
      "departure_time": "10:25:00",
      "old": false,
      "stop_lat": 50.040064,
      "stop_lon": 20.001498,
      "stop_name": "Mały Płaszów P+R",
      "stop_num": "01",
      "stop_sequence": 1,
      "stopping": false,
      "time": null,
      "trip_id": "block_342_trip_8_service_1",
      "trip_num": 8
    },
    {
      "delay": null,
      "departure_time": "10:27:00",
      "old": false,
      "stop_lat": 50.040546,
      "stop_lon": 19.990871,
      "stop_name": "Rzebika",
      "stop_num": "02",
      "stop_sequence": 2,
      "stopping": false,
      "time": null,
      "trip_id": "block_342_trip_8_service_1",
      "trip_num": 8
    },
    {
      "delay": null,
      "departure_time": "10:28:00",
      "old": false,
      "stop_lat": 50.039687,
      "stop_lon": 19.982994,
      "stop_name": "Lipska",
      "stop_num": "03",
      "stop_sequence": 3,
      "stopping": false,
      "time": null,
      "trip_id": "block_342_trip_8_service_1",
      "trip_num": 8
    },
    {
      "delay": null,
      "departure_time": "10:30:00",
      "old": false,
      "stop_lat": 50.033468,
      "stop_lon": 19.976946,
      "stop_name": "Dworzec Płaszów Estakada",
      "stop_num": "02",
      "stop_sequence": 4,
      "stopping": false,
      "time": null,
      "trip_id": "block_342_trip_8_service_1",
      "trip_num": 8
    },
    {
      "delay": null,
      "departure_time": "10:32:00",
      "old": false,
      "stop_lat": 50.027229,
      "stop_lon": 19.976567,
      "stop_name": "Kabel",
      "stop_num": "01",
      "stop_sequence": 5,
      "stopping": false,
      "time": null,
      "trip_id": "block_342_trip_8_service_1",
      "trip_num": 8
    },
    {
      "delay": null,
      "departure_time": "10:34:00",
      "old": false,
      "stop_lat": 50.023562,
      "stop_lon": 19.97926,
      "stop_name": "Bieżanowska",
      "stop_num": "03",
      "stop_sequence": 6,
      "stopping": false,
      "time": null,
      "trip_id": "block_342_trip_8_service_1",
      "trip_num": 8
    },
    {
      "delay": null,
      "departure_time": "10:36:00",
      "old": false,
      "stop_lat": 50.018289,
      "stop_lon": 19.977516,
      "stop_name": "Dauna",
      "stop_num": "01",
      "stop_sequence": 7,
      "stopping": false,
      "time": null,
      "trip_id": "block_342_trip_8_service_1",
      "trip_num": 8
    },
    {
      "delay": null,
      "departure_time": "10:38:00",
      "old": false,
      "stop_lat": 50.015482,
      "stop_lon": 19.971574,
      "stop_name": "Piaski Nowe",
      "stop_num": "01",
      "stop_sequence": 8,
      "stopping": false,
      "time": null,
      "trip_id": "block_342_trip_8_service_1",
      "trip_num": 8
    },
    {
      "delay": null,
      "departure_time": "10:39:00",
      "old": false,
      "stop_lat": 50.013455,
      "stop_lon": 19.964635,
      "stop_name": "Nowosądecka",
      "stop_num": "01",
      "stop_sequence": 9,
      "stopping": false,
      "time": null,
      "trip_id": "block_342_trip_8_service_1",
      "trip_num": 8
    },
    {
      "delay": null,
      "departure_time": "10:41:00",
      "old": false,
      "stop_lat": 50.012338,
      "stop_lon": 19.956857,
      "stop_name": "Witosa",
      "stop_num": "01",
      "stop_sequence": 10,
      "stopping": false,
      "time": null,
      "trip_id": "block_342_trip_8_service_1",
      "trip_num": 8
    },
    {
      "delay": null,
      "departure_time": "10:42:00",
      "old": false,
      "stop_lat": 50.01359,
      "stop_lon": 19.95044,
      "stop_name": "Kurdwanów P+R",
      "stop_num": "01",
      "stop_sequence": 11,
      "stopping": false,
      "time": null,
      "trip_id": "block_342_trip_8_service_1",
      "trip_num": 8
    },
    {
      "delay": null,
      "departure_time": "10:43:00",
      "old": false,
      "stop_lat": 50.01407,
      "stop_lon": 19.94809,
      "stop_name": "Kurdwanów P+R",
      "stop_num": "08",
      "stop_sequence": 12,
      "stopping": false,
      "time": null,
      "trip_id": "block_342_trip_8_service_1",
      "trip_num": 8
    },
    {
      "delay": null,
      "departure_time": "10:44:00",
      "old": false,
      "stop_lat": 50.01511,
      "stop_lon": 19.94435,
      "stop_name": "Turowicza",
      "stop_num": "02",
      "stop_sequence": 13,
      "stopping": false,
      "time": null,
      "trip_id": "block_342_trip_8_service_1",
      "trip_num": 8
    },
    {
      "delay": null,
      "departure_time": "10:46:00",
      "old": false,
      "stop_lat": 50.01779,
      "stop_lon": 19.93633,
      "stop_name": "Sanktuarium Bożego Miłosierdzia",
      "stop_num": "02",
      "stop_sequence": 14,
      "stopping": false,
      "time": null,
      "trip_id": "block_342_trip_8_service_1",
      "trip_num": 8
    },
    {
      "delay": null,
      "departure_time": "10:48:00",
      "old": false,
      "stop_lat": 50.02032,
      "stop_lon": 19.9317,
      "stop_name": "Łagiewniki SKA",
      "stop_num": "01",
      "stop_sequence": 15,
      "stopping": false,
      "time": null,
      "trip_id": "block_342_trip_8_service_1",
      "trip_num": 8
    },
    {
      "delay": null,
      "departure_time": "10:49:00",
      "old": false,
      "stop_lat": 50.016651,
      "stop_lon": 19.929831,
      "stop_name": "Kościuszkowców",
      "stop_num": "01",
      "stop_sequence": 16,
      "stopping": false,
      "time": null,
      "trip_id": "block_342_trip_8_service_1",
      "trip_num": 8
    },
    {
      "delay": null,
      "departure_time": "10:50:00",
      "old": false,
      "stop_lat": 50.014606,
      "stop_lon": 19.927852,
      "stop_name": "Solvay",
      "stop_num": "01",
      "stop_sequence": 17,
      "stopping": false,
      "time": null,
      "trip_id": "block_342_trip_8_service_1",
      "trip_num": 8
    },
    {
      "delay": null,
      "departure_time": "10:52:00",
      "old": false,
      "stop_lat": 50.013101,
      "stop_lon": 19.927021,
      "stop_name": "Borek Fałęcki",
      "stop_num": "01",
      "stop_sequence": 18,
      "stopping": false,
      "time": null,
      "trip_id": "block_342_trip_8_service_1",
      "trip_num": 8
    },
    {
      "delay": null,
      "departure_time": "11:07:00",
      "old": false,
      "stop_lat": 50.013101,
      "stop_lon": 19.927021,
      "stop_name": "Borek Fałęcki",
      "stop_num": "01",
      "stop_sequence": 1,
      "stopping": false,
      "time": null,
      "trip_id": "block_342_trip_9_service_1",
      "trip_num": 9
    },
    {
      "delay": null,
      "departure_time": "11:08:00",
      "old": false,
      "stop_lat": 50.014546,
      "stop_lon": 19.927822,
      "stop_name": "Solvay",
      "stop_num": "02",
      "stop_sequence": 2,
      "stopping": false,
      "time": null,
      "trip_id": "block_342_trip_9_service_1",
      "trip_num": 9
    },
    {
      "delay": null,
      "departure_time": "11:09:00",
      "old": false,
      "stop_lat": 50.015661,
      "stop_lon": 19.929342,
      "stop_name": "Kościuszkowców",
      "stop_num": "02",
      "stop_sequence": 3,
      "stopping": false,
      "time": null,
      "trip_id": "block_342_trip_9_service_1",
      "trip_num": 9
    },
    {
      "delay": null,
      "departure_time": "11:11:00",
      "old": false,
      "stop_lat": 50.02111,
      "stop_lon": 19.93288,
      "stop_name": "Łagiewniki SKA",
      "stop_num": "03",
      "stop_sequence": 4,
      "stopping": false,
      "time": null,
      "trip_id": "block_342_trip_9_service_1",
      "trip_num": 9
    },
    {
      "delay": null,
      "departure_time": "11:12:00",
      "old": false,
      "stop_lat": 50.01777,
      "stop_lon": 19.93626,
      "stop_name": "Sanktuarium Bożego Miłosierdzia",
      "stop_num": "01",
      "stop_sequence": 5,
      "stopping": false,
      "time": null,
      "trip_id": "block_342_trip_9_service_1",
      "trip_num": 9
    },
    {
      "delay": null,
      "departure_time": "11:14:00",
      "old": false,
      "stop_lat": 50.01506,
      "stop_lon": 19.94439,
      "stop_name": "Turowicza",
      "stop_num": "01",
      "stop_sequence": 6,
      "stopping": false,
      "time": null,
      "trip_id": "block_342_trip_9_service_1",
      "trip_num": 9
    },
    {
      "delay": null,
      "departure_time": "11:15:00",
      "old": false,
      "stop_lat": 50.01409,
      "stop_lon": 19.94783,
      "stop_name": "Kurdwanów P+R",
      "stop_num": "10",
      "stop_sequence": 7,
      "stopping": false,
      "time": null,
      "trip_id": "block_342_trip_9_service_1",
      "trip_num": 9
    },
    {
      "delay": null,
      "departure_time": "11:16:00",
      "old": false,
      "stop_lat": 50.01356,
      "stop_lon": 19.95042,
      "stop_name": "Kurdwanów P+R",
      "stop_num": "03",
      "stop_sequence": 8,
      "stopping": false,
      "time": null,
      "trip_id": "block_342_trip_9_service_1",
      "trip_num": 9
    },
    {
      "delay": null,
      "departure_time": "11:17:00",
      "old": false,
      "stop_lat": 50.012424,
      "stop_lon": 19.95579,
      "stop_name": "Witosa",
      "stop_num": "02",
      "stop_sequence": 9,
      "stopping": false,
      "time": null,
      "trip_id": "block_342_trip_9_service_1",
      "trip_num": 9
    },
    {
      "delay": null,
      "departure_time": "11:18:00",
      "old": false,
      "stop_lat": 50.013437,
      "stop_lon": 19.964684,
      "stop_name": "Nowosądecka",
      "stop_num": "02",
      "stop_sequence": 10,
      "stopping": false,
      "time": null,
      "trip_id": "block_342_trip_9_service_1",
      "trip_num": 9
    },
    {
      "delay": null,
      "departure_time": "11:19:00",
      "old": false,
      "stop_lat": 50.015447,
      "stop_lon": 19.971604,
      "stop_name": "Piaski Nowe",
      "stop_num": "02",
      "stop_sequence": 11,
      "stopping": false,
      "time": null,
      "trip_id": "block_342_trip_9_service_1",
      "trip_num": 9
    },
    {
      "delay": null,
      "departure_time": "11:21:00",
      "old": false,
      "stop_lat": 50.018408,
      "stop_lon": 19.977585,
      "stop_name": "Dauna",
      "stop_num": "02",
      "stop_sequence": 12,
      "stopping": false,
      "time": null,
      "trip_id": "block_342_trip_9_service_1",
      "trip_num": 9
    },
    {
      "delay": null,
      "departure_time": "11:23:00",
      "old": false,
      "stop_lat": 50.023609,
      "stop_lon": 19.979431,
      "stop_name": "Bieżanowska",
      "stop_num": "04",
      "stop_sequence": 13,
      "stopping": false,
      "time": null,
      "trip_id": "block_342_trip_9_service_1",
      "trip_num": 9
    },
    {
      "delay": null,
      "departure_time": "11:24:00",
      "old": false,
      "stop_lat": 50.026621,
      "stop_lon": 19.977231,
      "stop_name": "Kabel",
      "stop_num": "02",
      "stop_sequence": 14,
      "stopping": false,
      "time": null,
      "trip_id": "block_342_trip_9_service_1",
      "trip_num": 9
    },
    {
      "delay": null,
      "departure_time": "11:26:00",
      "old": false,
      "stop_lat": 50.033556,
      "stop_lon": 19.977196,
      "stop_name": "Dworzec Płaszów Estakada",
      "stop_num": "01",
      "stop_sequence": 15,
      "stopping": false,
      "time": null,
      "trip_id": "block_342_trip_9_service_1",
      "trip_num": 9
    },
    {
      "delay": null,
      "departure_time": "11:29:00",
      "old": false,
      "stop_lat": 50.040641,
      "stop_lon": 19.98442,
      "stop_name": "Lipska",
      "stop_num": "01",
      "stop_sequence": 16,
      "stopping": false,
      "time": null,
      "trip_id": "block_342_trip_9_service_1",
      "trip_num": 9
    },
    {
      "delay": null,
      "departure_time": "11:30:00",
      "old": false,
      "stop_lat": 50.040429,
      "stop_lon": 19.992646,
      "stop_name": "Rzebika",
      "stop_num": "01",
      "stop_sequence": 17,
      "stopping": false,
      "time": null,
      "trip_id": "block_342_trip_9_service_1",
      "trip_num": 9
    },
    {
      "delay": null,
      "departure_time": "11:32:00",
      "old": false,
      "stop_lat": 50.040064,
      "stop_lon": 20.001498,
      "stop_name": "Mały Płaszów P+R",
      "stop_num": "01",
      "stop_sequence": 18,
      "stopping": false,
      "time": null,
      "trip_id": "block_342_trip_9_service_1",
      "trip_num": 9
    },
    {
      "delay": null,
      "departure_time": "11:45:00",
      "old": false,
      "stop_lat": 50.040064,
      "stop_lon": 20.001498,
      "stop_name": "Mały Płaszów P+R",
      "stop_num": "01",
      "stop_sequence": 1,
      "stopping": false,
      "time": null,
      "trip_id": "block_342_trip_10_service_1",
      "trip_num": 10
    },
    {
      "delay": null,
      "departure_time": "11:47:00",
      "old": false,
      "stop_lat": 50.040546,
      "stop_lon": 19.990871,
      "stop_name": "Rzebika",
      "stop_num": "02",
      "stop_sequence": 2,
      "stopping": false,
      "time": null,
      "trip_id": "block_342_trip_10_service_1",
      "trip_num": 10
    },
    {
      "delay": null,
      "departure_time": "11:48:00",
      "old": false,
      "stop_lat": 50.039687,
      "stop_lon": 19.982994,
      "stop_name": "Lipska",
      "stop_num": "03",
      "stop_sequence": 3,
      "stopping": false,
      "time": null,
      "trip_id": "block_342_trip_10_service_1",
      "trip_num": 10
    },
    {
      "delay": null,
      "departure_time": "11:50:00",
      "old": false,
      "stop_lat": 50.033468,
      "stop_lon": 19.976946,
      "stop_name": "Dworzec Płaszów Estakada",
      "stop_num": "02",
      "stop_sequence": 4,
      "stopping": false,
      "time": null,
      "trip_id": "block_342_trip_10_service_1",
      "trip_num": 10
    },
    {
      "delay": null,
      "departure_time": "11:52:00",
      "old": false,
      "stop_lat": 50.027229,
      "stop_lon": 19.976567,
      "stop_name": "Kabel",
      "stop_num": "01",
      "stop_sequence": 5,
      "stopping": false,
      "time": null,
      "trip_id": "block_342_trip_10_service_1",
      "trip_num": 10
    },
    {
      "delay": null,
      "departure_time": "11:54:00",
      "old": false,
      "stop_lat": 50.023562,
      "stop_lon": 19.97926,
      "stop_name": "Bieżanowska",
      "stop_num": "03",
      "stop_sequence": 6,
      "stopping": false,
      "time": null,
      "trip_id": "block_342_trip_10_service_1",
      "trip_num": 10
    },
    {
      "delay": null,
      "departure_time": "11:56:00",
      "old": false,
      "stop_lat": 50.018289,
      "stop_lon": 19.977516,
      "stop_name": "Dauna",
      "stop_num": "01",
      "stop_sequence": 7,
      "stopping": false,
      "time": null,
      "trip_id": "block_342_trip_10_service_1",
      "trip_num": 10
    },
    {
      "delay": null,
      "departure_time": "11:58:00",
      "old": false,
      "stop_lat": 50.015482,
      "stop_lon": 19.971574,
      "stop_name": "Piaski Nowe",
      "stop_num": "01",
      "stop_sequence": 8,
      "stopping": false,
      "time": null,
      "trip_id": "block_342_trip_10_service_1",
      "trip_num": 10
    },
    {
      "delay": null,
      "departure_time": "11:59:00",
      "old": false,
      "stop_lat": 50.013455,
      "stop_lon": 19.964635,
      "stop_name": "Nowosądecka",
      "stop_num": "01",
      "stop_sequence": 9,
      "stopping": false,
      "time": null,
      "trip_id": "block_342_trip_10_service_1",
      "trip_num": 10
    },
    {
      "delay": null,
      "departure_time": "12:01:00",
      "old": false,
      "stop_lat": 50.012338,
      "stop_lon": 19.956857,
      "stop_name": "Witosa",
      "stop_num": "01",
      "stop_sequence": 10,
      "stopping": false,
      "time": null,
      "trip_id": "block_342_trip_10_service_1",
      "trip_num": 10
    },
    {
      "delay": null,
      "departure_time": "12:02:00",
      "old": false,
      "stop_lat": 50.01359,
      "stop_lon": 19.95044,
      "stop_name": "Kurdwanów P+R",
      "stop_num": "01",
      "stop_sequence": 11,
      "stopping": false,
      "time": null,
      "trip_id": "block_342_trip_10_service_1",
      "trip_num": 10
    },
    {
      "delay": null,
      "departure_time": "12:03:00",
      "old": false,
      "stop_lat": 50.01407,
      "stop_lon": 19.94809,
      "stop_name": "Kurdwanów P+R",
      "stop_num": "08",
      "stop_sequence": 12,
      "stopping": false,
      "time": null,
      "trip_id": "block_342_trip_10_service_1",
      "trip_num": 10
    },
    {
      "delay": null,
      "departure_time": "12:04:00",
      "old": false,
      "stop_lat": 50.01511,
      "stop_lon": 19.94435,
      "stop_name": "Turowicza",
      "stop_num": "02",
      "stop_sequence": 13,
      "stopping": false,
      "time": null,
      "trip_id": "block_342_trip_10_service_1",
      "trip_num": 10
    },
    {
      "delay": null,
      "departure_time": "12:06:00",
      "old": false,
      "stop_lat": 50.01779,
      "stop_lon": 19.93633,
      "stop_name": "Sanktuarium Bożego Miłosierdzia",
      "stop_num": "02",
      "stop_sequence": 14,
      "stopping": false,
      "time": null,
      "trip_id": "block_342_trip_10_service_1",
      "trip_num": 10
    },
    {
      "delay": null,
      "departure_time": "12:08:00",
      "old": false,
      "stop_lat": 50.02032,
      "stop_lon": 19.9317,
      "stop_name": "Łagiewniki SKA",
      "stop_num": "01",
      "stop_sequence": 15,
      "stopping": false,
      "time": null,
      "trip_id": "block_342_trip_10_service_1",
      "trip_num": 10
    },
    {
      "delay": null,
      "departure_time": "12:09:00",
      "old": false,
      "stop_lat": 50.016651,
      "stop_lon": 19.929831,
      "stop_name": "Kościuszkowców",
      "stop_num": "01",
      "stop_sequence": 16,
      "stopping": false,
      "time": null,
      "trip_id": "block_342_trip_10_service_1",
      "trip_num": 10
    },
    {
      "delay": null,
      "departure_time": "12:10:00",
      "old": false,
      "stop_lat": 50.014606,
      "stop_lon": 19.927852,
      "stop_name": "Solvay",
      "stop_num": "01",
      "stop_sequence": 17,
      "stopping": false,
      "time": null,
      "trip_id": "block_342_trip_10_service_1",
      "trip_num": 10
    },
    {
      "delay": null,
      "departure_time": "12:12:00",
      "old": false,
      "stop_lat": 50.013101,
      "stop_lon": 19.927021,
      "stop_name": "Borek Fałęcki",
      "stop_num": "01",
      "stop_sequence": 18,
      "stopping": false,
      "time": null,
      "trip_id": "block_342_trip_10_service_1",
      "trip_num": 10
    },
    {
      "delay": null,
      "departure_time": "12:27:00",
      "old": false,
      "stop_lat": 50.013101,
      "stop_lon": 19.927021,
      "stop_name": "Borek Fałęcki",
      "stop_num": "01",
      "stop_sequence": 1,
      "stopping": false,
      "time": null,
      "trip_id": "block_342_trip_11_service_1",
      "trip_num": 11
    },
    {
      "delay": null,
      "departure_time": "12:28:00",
      "old": false,
      "stop_lat": 50.014546,
      "stop_lon": 19.927822,
      "stop_name": "Solvay",
      "stop_num": "02",
      "stop_sequence": 2,
      "stopping": false,
      "time": null,
      "trip_id": "block_342_trip_11_service_1",
      "trip_num": 11
    },
    {
      "delay": null,
      "departure_time": "12:29:00",
      "old": false,
      "stop_lat": 50.015661,
      "stop_lon": 19.929342,
      "stop_name": "Kościuszkowców",
      "stop_num": "02",
      "stop_sequence": 3,
      "stopping": false,
      "time": null,
      "trip_id": "block_342_trip_11_service_1",
      "trip_num": 11
    },
    {
      "delay": null,
      "departure_time": "12:31:00",
      "old": false,
      "stop_lat": 50.02111,
      "stop_lon": 19.93288,
      "stop_name": "Łagiewniki SKA",
      "stop_num": "03",
      "stop_sequence": 4,
      "stopping": false,
      "time": null,
      "trip_id": "block_342_trip_11_service_1",
      "trip_num": 11
    },
    {
      "delay": null,
      "departure_time": "12:32:00",
      "old": false,
      "stop_lat": 50.01777,
      "stop_lon": 19.93626,
      "stop_name": "Sanktuarium Bożego Miłosierdzia",
      "stop_num": "01",
      "stop_sequence": 5,
      "stopping": false,
      "time": null,
      "trip_id": "block_342_trip_11_service_1",
      "trip_num": 11
    },
    {
      "delay": null,
      "departure_time": "12:34:00",
      "old": false,
      "stop_lat": 50.01506,
      "stop_lon": 19.94439,
      "stop_name": "Turowicza",
      "stop_num": "01",
      "stop_sequence": 6,
      "stopping": false,
      "time": null,
      "trip_id": "block_342_trip_11_service_1",
      "trip_num": 11
    },
    {
      "delay": null,
      "departure_time": "12:35:00",
      "old": false,
      "stop_lat": 50.01409,
      "stop_lon": 19.94783,
      "stop_name": "Kurdwanów P+R",
      "stop_num": "10",
      "stop_sequence": 7,
      "stopping": false,
      "time": null,
      "trip_id": "block_342_trip_11_service_1",
      "trip_num": 11
    },
    {
      "delay": null,
      "departure_time": "12:36:00",
      "old": false,
      "stop_lat": 50.01356,
      "stop_lon": 19.95042,
      "stop_name": "Kurdwanów P+R",
      "stop_num": "03",
      "stop_sequence": 8,
      "stopping": false,
      "time": null,
      "trip_id": "block_342_trip_11_service_1",
      "trip_num": 11
    },
    {
      "delay": null,
      "departure_time": "12:37:00",
      "old": false,
      "stop_lat": 50.012424,
      "stop_lon": 19.95579,
      "stop_name": "Witosa",
      "stop_num": "02",
      "stop_sequence": 9,
      "stopping": false,
      "time": null,
      "trip_id": "block_342_trip_11_service_1",
      "trip_num": 11
    },
    {
      "delay": null,
      "departure_time": "12:38:00",
      "old": false,
      "stop_lat": 50.013437,
      "stop_lon": 19.964684,
      "stop_name": "Nowosądecka",
      "stop_num": "02",
      "stop_sequence": 10,
      "stopping": false,
      "time": null,
      "trip_id": "block_342_trip_11_service_1",
      "trip_num": 11
    },
    {
      "delay": null,
      "departure_time": "12:39:00",
      "old": false,
      "stop_lat": 50.015447,
      "stop_lon": 19.971604,
      "stop_name": "Piaski Nowe",
      "stop_num": "02",
      "stop_sequence": 11,
      "stopping": false,
      "time": null,
      "trip_id": "block_342_trip_11_service_1",
      "trip_num": 11
    },
    {
      "delay": null,
      "departure_time": "12:41:00",
      "old": false,
      "stop_lat": 50.018408,
      "stop_lon": 19.977585,
      "stop_name": "Dauna",
      "stop_num": "02",
      "stop_sequence": 12,
      "stopping": false,
      "time": null,
      "trip_id": "block_342_trip_11_service_1",
      "trip_num": 11
    },
    {
      "delay": null,
      "departure_time": "12:43:00",
      "old": false,
      "stop_lat": 50.023609,
      "stop_lon": 19.979431,
      "stop_name": "Bieżanowska",
      "stop_num": "04",
      "stop_sequence": 13,
      "stopping": false,
      "time": null,
      "trip_id": "block_342_trip_11_service_1",
      "trip_num": 11
    },
    {
      "delay": null,
      "departure_time": "12:44:00",
      "old": false,
      "stop_lat": 50.026621,
      "stop_lon": 19.977231,
      "stop_name": "Kabel",
      "stop_num": "02",
      "stop_sequence": 14,
      "stopping": false,
      "time": null,
      "trip_id": "block_342_trip_11_service_1",
      "trip_num": 11
    },
    {
      "delay": null,
      "departure_time": "12:46:00",
      "old": false,
      "stop_lat": 50.033556,
      "stop_lon": 19.977196,
      "stop_name": "Dworzec Płaszów Estakada",
      "stop_num": "01",
      "stop_sequence": 15,
      "stopping": false,
      "time": null,
      "trip_id": "block_342_trip_11_service_1",
      "trip_num": 11
    },
    {
      "delay": null,
      "departure_time": "12:49:00",
      "old": false,
      "stop_lat": 50.040641,
      "stop_lon": 19.98442,
      "stop_name": "Lipska",
      "stop_num": "01",
      "stop_sequence": 16,
      "stopping": false,
      "time": null,
      "trip_id": "block_342_trip_11_service_1",
      "trip_num": 11
    },
    {
      "delay": null,
      "departure_time": "12:50:00",
      "old": false,
      "stop_lat": 50.040429,
      "stop_lon": 19.992646,
      "stop_name": "Rzebika",
      "stop_num": "01",
      "stop_sequence": 17,
      "stopping": false,
      "time": null,
      "trip_id": "block_342_trip_11_service_1",
      "trip_num": 11
    },
    {
      "delay": null,
      "departure_time": "12:52:00",
      "old": false,
      "stop_lat": 50.040064,
      "stop_lon": 20.001498,
      "stop_name": "Mały Płaszów P+R",
      "stop_num": "01",
      "stop_sequence": 18,
      "stopping": false,
      "time": null,
      "trip_id": "block_342_trip_11_service_1",
      "trip_num": 11
    },
    {
      "delay": null,
      "departure_time": "13:05:00",
      "old": false,
      "stop_lat": 50.040064,
      "stop_lon": 20.001498,
      "stop_name": "Mały Płaszów P+R",
      "stop_num": "01",
      "stop_sequence": 1,
      "stopping": false,
      "time": null,
      "trip_id": "block_342_trip_12_service_1",
      "trip_num": 12
    },
    {
      "delay": null,
      "departure_time": "13:07:00",
      "old": false,
      "stop_lat": 50.040546,
      "stop_lon": 19.990871,
      "stop_name": "Rzebika",
      "stop_num": "02",
      "stop_sequence": 2,
      "stopping": false,
      "time": null,
      "trip_id": "block_342_trip_12_service_1",
      "trip_num": 12
    },
    {
      "delay": null,
      "departure_time": "13:08:00",
      "old": false,
      "stop_lat": 50.039687,
      "stop_lon": 19.982994,
      "stop_name": "Lipska",
      "stop_num": "03",
      "stop_sequence": 3,
      "stopping": false,
      "time": null,
      "trip_id": "block_342_trip_12_service_1",
      "trip_num": 12
    },
    {
      "delay": null,
      "departure_time": "13:10:00",
      "old": false,
      "stop_lat": 50.033468,
      "stop_lon": 19.976946,
      "stop_name": "Dworzec Płaszów Estakada",
      "stop_num": "02",
      "stop_sequence": 4,
      "stopping": false,
      "time": null,
      "trip_id": "block_342_trip_12_service_1",
      "trip_num": 12
    },
    {
      "delay": null,
      "departure_time": "13:12:00",
      "old": false,
      "stop_lat": 50.027229,
      "stop_lon": 19.976567,
      "stop_name": "Kabel",
      "stop_num": "01",
      "stop_sequence": 5,
      "stopping": false,
      "time": null,
      "trip_id": "block_342_trip_12_service_1",
      "trip_num": 12
    },
    {
      "delay": null,
      "departure_time": "13:14:00",
      "old": false,
      "stop_lat": 50.023562,
      "stop_lon": 19.97926,
      "stop_name": "Bieżanowska",
      "stop_num": "03",
      "stop_sequence": 6,
      "stopping": false,
      "time": null,
      "trip_id": "block_342_trip_12_service_1",
      "trip_num": 12
    },
    {
      "delay": null,
      "departure_time": "13:16:00",
      "old": false,
      "stop_lat": 50.018289,
      "stop_lon": 19.977516,
      "stop_name": "Dauna",
      "stop_num": "01",
      "stop_sequence": 7,
      "stopping": false,
      "time": null,
      "trip_id": "block_342_trip_12_service_1",
      "trip_num": 12
    },
    {
      "delay": null,
      "departure_time": "13:18:00",
      "old": false,
      "stop_lat": 50.015482,
      "stop_lon": 19.971574,
      "stop_name": "Piaski Nowe",
      "stop_num": "01",
      "stop_sequence": 8,
      "stopping": false,
      "time": null,
      "trip_id": "block_342_trip_12_service_1",
      "trip_num": 12
    },
    {
      "delay": null,
      "departure_time": "13:19:00",
      "old": false,
      "stop_lat": 50.013455,
      "stop_lon": 19.964635,
      "stop_name": "Nowosądecka",
      "stop_num": "01",
      "stop_sequence": 9,
      "stopping": false,
      "time": null,
      "trip_id": "block_342_trip_12_service_1",
      "trip_num": 12
    },
    {
      "delay": null,
      "departure_time": "13:21:00",
      "old": false,
      "stop_lat": 50.012338,
      "stop_lon": 19.956857,
      "stop_name": "Witosa",
      "stop_num": "01",
      "stop_sequence": 10,
      "stopping": false,
      "time": null,
      "trip_id": "block_342_trip_12_service_1",
      "trip_num": 12
    },
    {
      "delay": null,
      "departure_time": "13:22:00",
      "old": false,
      "stop_lat": 50.01359,
      "stop_lon": 19.95044,
      "stop_name": "Kurdwanów P+R",
      "stop_num": "01",
      "stop_sequence": 11,
      "stopping": false,
      "time": null,
      "trip_id": "block_342_trip_12_service_1",
      "trip_num": 12
    },
    {
      "delay": null,
      "departure_time": "13:23:00",
      "old": false,
      "stop_lat": 50.01407,
      "stop_lon": 19.94809,
      "stop_name": "Kurdwanów P+R",
      "stop_num": "08",
      "stop_sequence": 12,
      "stopping": false,
      "time": null,
      "trip_id": "block_342_trip_12_service_1",
      "trip_num": 12
    },
    {
      "delay": null,
      "departure_time": "13:24:00",
      "old": false,
      "stop_lat": 50.01511,
      "stop_lon": 19.94435,
      "stop_name": "Turowicza",
      "stop_num": "02",
      "stop_sequence": 13,
      "stopping": false,
      "time": null,
      "trip_id": "block_342_trip_12_service_1",
      "trip_num": 12
    },
    {
      "delay": null,
      "departure_time": "13:26:00",
      "old": false,
      "stop_lat": 50.01779,
      "stop_lon": 19.93633,
      "stop_name": "Sanktuarium Bożego Miłosierdzia",
      "stop_num": "02",
      "stop_sequence": 14,
      "stopping": false,
      "time": null,
      "trip_id": "block_342_trip_12_service_1",
      "trip_num": 12
    },
    {
      "delay": null,
      "departure_time": "13:28:00",
      "old": false,
      "stop_lat": 50.02032,
      "stop_lon": 19.9317,
      "stop_name": "Łagiewniki SKA",
      "stop_num": "01",
      "stop_sequence": 15,
      "stopping": false,
      "time": null,
      "trip_id": "block_342_trip_12_service_1",
      "trip_num": 12
    },
    {
      "delay": null,
      "departure_time": "13:29:00",
      "old": false,
      "stop_lat": 50.016651,
      "stop_lon": 19.929831,
      "stop_name": "Kościuszkowców",
      "stop_num": "01",
      "stop_sequence": 16,
      "stopping": false,
      "time": null,
      "trip_id": "block_342_trip_12_service_1",
      "trip_num": 12
    },
    {
      "delay": null,
      "departure_time": "13:30:00",
      "old": false,
      "stop_lat": 50.014606,
      "stop_lon": 19.927852,
      "stop_name": "Solvay",
      "stop_num": "01",
      "stop_sequence": 17,
      "stopping": false,
      "time": null,
      "trip_id": "block_342_trip_12_service_1",
      "trip_num": 12
    },
    {
      "delay": null,
      "departure_time": "13:32:00",
      "old": false,
      "stop_lat": 50.013101,
      "stop_lon": 19.927021,
      "stop_name": "Borek Fałęcki",
      "stop_num": "01",
      "stop_sequence": 18,
      "stopping": false,
      "time": null,
      "trip_id": "block_342_trip_12_service_1",
      "trip_num": 12
    },
    {
      "delay": null,
      "departure_time": "13:47:00",
      "old": false,
      "stop_lat": 50.013101,
      "stop_lon": 19.927021,
      "stop_name": "Borek Fałęcki",
      "stop_num": "01",
      "stop_sequence": 1,
      "stopping": false,
      "time": null,
      "trip_id": "block_342_trip_13_service_1",
      "trip_num": 13
    },
    {
      "delay": null,
      "departure_time": "13:48:00",
      "old": false,
      "stop_lat": 50.014546,
      "stop_lon": 19.927822,
      "stop_name": "Solvay",
      "stop_num": "02",
      "stop_sequence": 2,
      "stopping": false,
      "time": null,
      "trip_id": "block_342_trip_13_service_1",
      "trip_num": 13
    },
    {
      "delay": null,
      "departure_time": "13:49:00",
      "old": false,
      "stop_lat": 50.015661,
      "stop_lon": 19.929342,
      "stop_name": "Kościuszkowców",
      "stop_num": "02",
      "stop_sequence": 3,
      "stopping": false,
      "time": null,
      "trip_id": "block_342_trip_13_service_1",
      "trip_num": 13
    },
    {
      "delay": null,
      "departure_time": "13:51:00",
      "old": false,
      "stop_lat": 50.02111,
      "stop_lon": 19.93288,
      "stop_name": "Łagiewniki SKA",
      "stop_num": "03",
      "stop_sequence": 4,
      "stopping": false,
      "time": null,
      "trip_id": "block_342_trip_13_service_1",
      "trip_num": 13
    },
    {
      "delay": null,
      "departure_time": "13:52:00",
      "old": false,
      "stop_lat": 50.01777,
      "stop_lon": 19.93626,
      "stop_name": "Sanktuarium Bożego Miłosierdzia",
      "stop_num": "01",
      "stop_sequence": 5,
      "stopping": false,
      "time": null,
      "trip_id": "block_342_trip_13_service_1",
      "trip_num": 13
    },
    {
      "delay": null,
      "departure_time": "13:54:00",
      "old": false,
      "stop_lat": 50.01506,
      "stop_lon": 19.94439,
      "stop_name": "Turowicza",
      "stop_num": "01",
      "stop_sequence": 6,
      "stopping": false,
      "time": null,
      "trip_id": "block_342_trip_13_service_1",
      "trip_num": 13
    },
    {
      "delay": null,
      "departure_time": "13:55:00",
      "old": false,
      "stop_lat": 50.01409,
      "stop_lon": 19.94783,
      "stop_name": "Kurdwanów P+R",
      "stop_num": "10",
      "stop_sequence": 7,
      "stopping": false,
      "time": null,
      "trip_id": "block_342_trip_13_service_1",
      "trip_num": 13
    },
    {
      "delay": null,
      "departure_time": "13:56:00",
      "old": false,
      "stop_lat": 50.01356,
      "stop_lon": 19.95042,
      "stop_name": "Kurdwanów P+R",
      "stop_num": "03",
      "stop_sequence": 8,
      "stopping": false,
      "time": null,
      "trip_id": "block_342_trip_13_service_1",
      "trip_num": 13
    },
    {
      "delay": null,
      "departure_time": "13:57:00",
      "old": false,
      "stop_lat": 50.012424,
      "stop_lon": 19.95579,
      "stop_name": "Witosa",
      "stop_num": "02",
      "stop_sequence": 9,
      "stopping": false,
      "time": null,
      "trip_id": "block_342_trip_13_service_1",
      "trip_num": 13
    },
    {
      "delay": null,
      "departure_time": "13:58:00",
      "old": false,
      "stop_lat": 50.013437,
      "stop_lon": 19.964684,
      "stop_name": "Nowosądecka",
      "stop_num": "02",
      "stop_sequence": 10,
      "stopping": false,
      "time": null,
      "trip_id": "block_342_trip_13_service_1",
      "trip_num": 13
    },
    {
      "delay": null,
      "departure_time": "13:59:00",
      "old": false,
      "stop_lat": 50.015447,
      "stop_lon": 19.971604,
      "stop_name": "Piaski Nowe",
      "stop_num": "02",
      "stop_sequence": 11,
      "stopping": false,
      "time": null,
      "trip_id": "block_342_trip_13_service_1",
      "trip_num": 13
    },
    {
      "delay": null,
      "departure_time": "14:01:00",
      "old": false,
      "stop_lat": 50.018408,
      "stop_lon": 19.977585,
      "stop_name": "Dauna",
      "stop_num": "02",
      "stop_sequence": 12,
      "stopping": false,
      "time": null,
      "trip_id": "block_342_trip_13_service_1",
      "trip_num": 13
    },
    {
      "delay": null,
      "departure_time": "14:03:00",
      "old": false,
      "stop_lat": 50.023609,
      "stop_lon": 19.979431,
      "stop_name": "Bieżanowska",
      "stop_num": "04",
      "stop_sequence": 13,
      "stopping": false,
      "time": null,
      "trip_id": "block_342_trip_13_service_1",
      "trip_num": 13
    },
    {
      "delay": null,
      "departure_time": "14:04:00",
      "old": false,
      "stop_lat": 50.026621,
      "stop_lon": 19.977231,
      "stop_name": "Kabel",
      "stop_num": "02",
      "stop_sequence": 14,
      "stopping": false,
      "time": null,
      "trip_id": "block_342_trip_13_service_1",
      "trip_num": 13
    },
    {
      "delay": null,
      "departure_time": "14:06:00",
      "old": false,
      "stop_lat": 50.033556,
      "stop_lon": 19.977196,
      "stop_name": "Dworzec Płaszów Estakada",
      "stop_num": "01",
      "stop_sequence": 15,
      "stopping": false,
      "time": null,
      "trip_id": "block_342_trip_13_service_1",
      "trip_num": 13
    },
    {
      "delay": null,
      "departure_time": "14:09:00",
      "old": false,
      "stop_lat": 50.040641,
      "stop_lon": 19.98442,
      "stop_name": "Lipska",
      "stop_num": "01",
      "stop_sequence": 16,
      "stopping": false,
      "time": null,
      "trip_id": "block_342_trip_13_service_1",
      "trip_num": 13
    },
    {
      "delay": null,
      "departure_time": "14:10:00",
      "old": false,
      "stop_lat": 50.040429,
      "stop_lon": 19.992646,
      "stop_name": "Rzebika",
      "stop_num": "01",
      "stop_sequence": 17,
      "stopping": false,
      "time": null,
      "trip_id": "block_342_trip_13_service_1",
      "trip_num": 13
    },
    {
      "delay": null,
      "departure_time": "14:12:00",
      "old": false,
      "stop_lat": 50.040064,
      "stop_lon": 20.001498,
      "stop_name": "Mały Płaszów P+R",
      "stop_num": "01",
      "stop_sequence": 18,
      "stopping": false,
      "time": null,
      "trip_id": "block_342_trip_13_service_1",
      "trip_num": 13
    },
    {
      "delay": null,
      "departure_time": "14:25:00",
      "old": false,
      "stop_lat": 50.040064,
      "stop_lon": 20.001498,
      "stop_name": "Mały Płaszów P+R",
      "stop_num": "01",
      "stop_sequence": 1,
      "stopping": false,
      "time": null,
      "trip_id": "block_342_trip_14_service_1",
      "trip_num": 14
    },
    {
      "delay": null,
      "departure_time": "14:27:00",
      "old": false,
      "stop_lat": 50.040546,
      "stop_lon": 19.990871,
      "stop_name": "Rzebika",
      "stop_num": "02",
      "stop_sequence": 2,
      "stopping": false,
      "time": null,
      "trip_id": "block_342_trip_14_service_1",
      "trip_num": 14
    },
    {
      "delay": null,
      "departure_time": "14:28:00",
      "old": false,
      "stop_lat": 50.039687,
      "stop_lon": 19.982994,
      "stop_name": "Lipska",
      "stop_num": "03",
      "stop_sequence": 3,
      "stopping": false,
      "time": null,
      "trip_id": "block_342_trip_14_service_1",
      "trip_num": 14
    },
    {
      "delay": null,
      "departure_time": "14:30:00",
      "old": false,
      "stop_lat": 50.033468,
      "stop_lon": 19.976946,
      "stop_name": "Dworzec Płaszów Estakada",
      "stop_num": "02",
      "stop_sequence": 4,
      "stopping": false,
      "time": null,
      "trip_id": "block_342_trip_14_service_1",
      "trip_num": 14
    },
    {
      "delay": null,
      "departure_time": "14:32:00",
      "old": false,
      "stop_lat": 50.027229,
      "stop_lon": 19.976567,
      "stop_name": "Kabel",
      "stop_num": "01",
      "stop_sequence": 5,
      "stopping": false,
      "time": null,
      "trip_id": "block_342_trip_14_service_1",
      "trip_num": 14
    },
    {
      "delay": null,
      "departure_time": "14:34:00",
      "old": false,
      "stop_lat": 50.023562,
      "stop_lon": 19.97926,
      "stop_name": "Bieżanowska",
      "stop_num": "03",
      "stop_sequence": 6,
      "stopping": false,
      "time": null,
      "trip_id": "block_342_trip_14_service_1",
      "trip_num": 14
    },
    {
      "delay": null,
      "departure_time": "14:36:00",
      "old": false,
      "stop_lat": 50.018289,
      "stop_lon": 19.977516,
      "stop_name": "Dauna",
      "stop_num": "01",
      "stop_sequence": 7,
      "stopping": false,
      "time": null,
      "trip_id": "block_342_trip_14_service_1",
      "trip_num": 14
    },
    {
      "delay": null,
      "departure_time": "14:38:00",
      "old": false,
      "stop_lat": 50.015482,
      "stop_lon": 19.971574,
      "stop_name": "Piaski Nowe",
      "stop_num": "01",
      "stop_sequence": 8,
      "stopping": false,
      "time": null,
      "trip_id": "block_342_trip_14_service_1",
      "trip_num": 14
    },
    {
      "delay": null,
      "departure_time": "14:39:00",
      "old": false,
      "stop_lat": 50.013455,
      "stop_lon": 19.964635,
      "stop_name": "Nowosądecka",
      "stop_num": "01",
      "stop_sequence": 9,
      "stopping": false,
      "time": null,
      "trip_id": "block_342_trip_14_service_1",
      "trip_num": 14
    },
    {
      "delay": null,
      "departure_time": "14:41:00",
      "old": false,
      "stop_lat": 50.012338,
      "stop_lon": 19.956857,
      "stop_name": "Witosa",
      "stop_num": "01",
      "stop_sequence": 10,
      "stopping": false,
      "time": null,
      "trip_id": "block_342_trip_14_service_1",
      "trip_num": 14
    },
    {
      "delay": null,
      "departure_time": "14:42:00",
      "old": false,
      "stop_lat": 50.01359,
      "stop_lon": 19.95044,
      "stop_name": "Kurdwanów P+R",
      "stop_num": "01",
      "stop_sequence": 11,
      "stopping": false,
      "time": null,
      "trip_id": "block_342_trip_14_service_1",
      "trip_num": 14
    },
    {
      "delay": null,
      "departure_time": "14:43:00",
      "old": false,
      "stop_lat": 50.01407,
      "stop_lon": 19.94809,
      "stop_name": "Kurdwanów P+R",
      "stop_num": "08",
      "stop_sequence": 12,
      "stopping": false,
      "time": null,
      "trip_id": "block_342_trip_14_service_1",
      "trip_num": 14
    },
    {
      "delay": null,
      "departure_time": "14:44:00",
      "old": false,
      "stop_lat": 50.01511,
      "stop_lon": 19.94435,
      "stop_name": "Turowicza",
      "stop_num": "02",
      "stop_sequence": 13,
      "stopping": false,
      "time": null,
      "trip_id": "block_342_trip_14_service_1",
      "trip_num": 14
    },
    {
      "delay": null,
      "departure_time": "14:46:00",
      "old": false,
      "stop_lat": 50.01779,
      "stop_lon": 19.93633,
      "stop_name": "Sanktuarium Bożego Miłosierdzia",
      "stop_num": "02",
      "stop_sequence": 14,
      "stopping": false,
      "time": null,
      "trip_id": "block_342_trip_14_service_1",
      "trip_num": 14
    },
    {
      "delay": null,
      "departure_time": "14:48:00",
      "old": false,
      "stop_lat": 50.02032,
      "stop_lon": 19.9317,
      "stop_name": "Łagiewniki SKA",
      "stop_num": "01",
      "stop_sequence": 15,
      "stopping": false,
      "time": null,
      "trip_id": "block_342_trip_14_service_1",
      "trip_num": 14
    },
    {
      "delay": null,
      "departure_time": "14:49:00",
      "old": false,
      "stop_lat": 50.016651,
      "stop_lon": 19.929831,
      "stop_name": "Kościuszkowców",
      "stop_num": "01",
      "stop_sequence": 16,
      "stopping": false,
      "time": null,
      "trip_id": "block_342_trip_14_service_1",
      "trip_num": 14
    },
    {
      "delay": null,
      "departure_time": "14:50:00",
      "old": false,
      "stop_lat": 50.014606,
      "stop_lon": 19.927852,
      "stop_name": "Solvay",
      "stop_num": "01",
      "stop_sequence": 17,
      "stopping": false,
      "time": null,
      "trip_id": "block_342_trip_14_service_1",
      "trip_num": 14
    },
    {
      "delay": null,
      "departure_time": "14:52:00",
      "old": false,
      "stop_lat": 50.013101,
      "stop_lon": 19.927021,
      "stop_name": "Borek Fałęcki",
      "stop_num": "01",
      "stop_sequence": 18,
      "stopping": false,
      "time": null,
      "trip_id": "block_342_trip_14_service_1",
      "trip_num": 14
    },
    {
      "delay": null,
      "departure_time": "15:07:00",
      "old": false,
      "stop_lat": 50.013101,
      "stop_lon": 19.927021,
      "stop_name": "Borek Fałęcki",
      "stop_num": "01",
      "stop_sequence": 1,
      "stopping": false,
      "time": null,
      "trip_id": "block_342_trip_15_service_1",
      "trip_num": 15
    },
    {
      "delay": null,
      "departure_time": "15:08:00",
      "old": false,
      "stop_lat": 50.014546,
      "stop_lon": 19.927822,
      "stop_name": "Solvay",
      "stop_num": "02",
      "stop_sequence": 2,
      "stopping": false,
      "time": null,
      "trip_id": "block_342_trip_15_service_1",
      "trip_num": 15
    },
    {
      "delay": null,
      "departure_time": "15:09:00",
      "old": false,
      "stop_lat": 50.015661,
      "stop_lon": 19.929342,
      "stop_name": "Kościuszkowców",
      "stop_num": "02",
      "stop_sequence": 3,
      "stopping": false,
      "time": null,
      "trip_id": "block_342_trip_15_service_1",
      "trip_num": 15
    },
    {
      "delay": null,
      "departure_time": "15:11:00",
      "old": false,
      "stop_lat": 50.02111,
      "stop_lon": 19.93288,
      "stop_name": "Łagiewniki SKA",
      "stop_num": "03",
      "stop_sequence": 4,
      "stopping": false,
      "time": null,
      "trip_id": "block_342_trip_15_service_1",
      "trip_num": 15
    },
    {
      "delay": null,
      "departure_time": "15:12:00",
      "old": false,
      "stop_lat": 50.01777,
      "stop_lon": 19.93626,
      "stop_name": "Sanktuarium Bożego Miłosierdzia",
      "stop_num": "01",
      "stop_sequence": 5,
      "stopping": false,
      "time": null,
      "trip_id": "block_342_trip_15_service_1",
      "trip_num": 15
    },
    {
      "delay": null,
      "departure_time": "15:14:00",
      "old": false,
      "stop_lat": 50.01506,
      "stop_lon": 19.94439,
      "stop_name": "Turowicza",
      "stop_num": "01",
      "stop_sequence": 6,
      "stopping": false,
      "time": null,
      "trip_id": "block_342_trip_15_service_1",
      "trip_num": 15
    },
    {
      "delay": null,
      "departure_time": "15:15:00",
      "old": false,
      "stop_lat": 50.01409,
      "stop_lon": 19.94783,
      "stop_name": "Kurdwanów P+R",
      "stop_num": "10",
      "stop_sequence": 7,
      "stopping": false,
      "time": null,
      "trip_id": "block_342_trip_15_service_1",
      "trip_num": 15
    },
    {
      "delay": null,
      "departure_time": "15:16:00",
      "old": false,
      "stop_lat": 50.01356,
      "stop_lon": 19.95042,
      "stop_name": "Kurdwanów P+R",
      "stop_num": "03",
      "stop_sequence": 8,
      "stopping": false,
      "time": null,
      "trip_id": "block_342_trip_15_service_1",
      "trip_num": 15
    },
    {
      "delay": null,
      "departure_time": "15:17:00",
      "old": false,
      "stop_lat": 50.012424,
      "stop_lon": 19.95579,
      "stop_name": "Witosa",
      "stop_num": "02",
      "stop_sequence": 9,
      "stopping": false,
      "time": null,
      "trip_id": "block_342_trip_15_service_1",
      "trip_num": 15
    },
    {
      "delay": null,
      "departure_time": "15:18:00",
      "old": false,
      "stop_lat": 50.013437,
      "stop_lon": 19.964684,
      "stop_name": "Nowosądecka",
      "stop_num": "02",
      "stop_sequence": 10,
      "stopping": false,
      "time": null,
      "trip_id": "block_342_trip_15_service_1",
      "trip_num": 15
    },
    {
      "delay": null,
      "departure_time": "15:19:00",
      "old": false,
      "stop_lat": 50.015447,
      "stop_lon": 19.971604,
      "stop_name": "Piaski Nowe",
      "stop_num": "02",
      "stop_sequence": 11,
      "stopping": false,
      "time": null,
      "trip_id": "block_342_trip_15_service_1",
      "trip_num": 15
    },
    {
      "delay": null,
      "departure_time": "15:21:00",
      "old": false,
      "stop_lat": 50.018408,
      "stop_lon": 19.977585,
      "stop_name": "Dauna",
      "stop_num": "02",
      "stop_sequence": 12,
      "stopping": false,
      "time": null,
      "trip_id": "block_342_trip_15_service_1",
      "trip_num": 15
    },
    {
      "delay": null,
      "departure_time": "15:23:00",
      "old": false,
      "stop_lat": 50.023609,
      "stop_lon": 19.979431,
      "stop_name": "Bieżanowska",
      "stop_num": "04",
      "stop_sequence": 13,
      "stopping": false,
      "time": null,
      "trip_id": "block_342_trip_15_service_1",
      "trip_num": 15
    },
    {
      "delay": null,
      "departure_time": "15:24:00",
      "old": false,
      "stop_lat": 50.026621,
      "stop_lon": 19.977231,
      "stop_name": "Kabel",
      "stop_num": "02",
      "stop_sequence": 14,
      "stopping": false,
      "time": null,
      "trip_id": "block_342_trip_15_service_1",
      "trip_num": 15
    },
    {
      "delay": null,
      "departure_time": "15:26:00",
      "old": false,
      "stop_lat": 50.033556,
      "stop_lon": 19.977196,
      "stop_name": "Dworzec Płaszów Estakada",
      "stop_num": "01",
      "stop_sequence": 15,
      "stopping": false,
      "time": null,
      "trip_id": "block_342_trip_15_service_1",
      "trip_num": 15
    },
    {
      "delay": null,
      "departure_time": "15:29:00",
      "old": false,
      "stop_lat": 50.040641,
      "stop_lon": 19.98442,
      "stop_name": "Lipska",
      "stop_num": "01",
      "stop_sequence": 16,
      "stopping": false,
      "time": null,
      "trip_id": "block_342_trip_15_service_1",
      "trip_num": 15
    },
    {
      "delay": null,
      "departure_time": "15:30:00",
      "old": false,
      "stop_lat": 50.040429,
      "stop_lon": 19.992646,
      "stop_name": "Rzebika",
      "stop_num": "01",
      "stop_sequence": 17,
      "stopping": false,
      "time": null,
      "trip_id": "block_342_trip_15_service_1",
      "trip_num": 15
    },
    {
      "delay": null,
      "departure_time": "15:32:00",
      "old": false,
      "stop_lat": 50.040064,
      "stop_lon": 20.001498,
      "stop_name": "Mały Płaszów P+R",
      "stop_num": "01",
      "stop_sequence": 18,
      "stopping": false,
      "time": null,
      "trip_id": "block_342_trip_15_service_1",
      "trip_num": 15
    },
    {
      "delay": null,
      "departure_time": "15:45:00",
      "old": false,
      "stop_lat": 50.040064,
      "stop_lon": 20.001498,
      "stop_name": "Mały Płaszów P+R",
      "stop_num": "01",
      "stop_sequence": 1,
      "stopping": false,
      "time": null,
      "trip_id": "block_342_trip_16_service_1",
      "trip_num": 16
    },
    {
      "delay": null,
      "departure_time": "15:47:00",
      "old": false,
      "stop_lat": 50.040546,
      "stop_lon": 19.990871,
      "stop_name": "Rzebika",
      "stop_num": "02",
      "stop_sequence": 2,
      "stopping": false,
      "time": null,
      "trip_id": "block_342_trip_16_service_1",
      "trip_num": 16
    },
    {
      "delay": null,
      "departure_time": "15:48:00",
      "old": false,
      "stop_lat": 50.039687,
      "stop_lon": 19.982994,
      "stop_name": "Lipska",
      "stop_num": "03",
      "stop_sequence": 3,
      "stopping": false,
      "time": null,
      "trip_id": "block_342_trip_16_service_1",
      "trip_num": 16
    },
    {
      "delay": null,
      "departure_time": "15:50:00",
      "old": false,
      "stop_lat": 50.033468,
      "stop_lon": 19.976946,
      "stop_name": "Dworzec Płaszów Estakada",
      "stop_num": "02",
      "stop_sequence": 4,
      "stopping": false,
      "time": null,
      "trip_id": "block_342_trip_16_service_1",
      "trip_num": 16
    },
    {
      "delay": null,
      "departure_time": "15:52:00",
      "old": false,
      "stop_lat": 50.027229,
      "stop_lon": 19.976567,
      "stop_name": "Kabel",
      "stop_num": "01",
      "stop_sequence": 5,
      "stopping": false,
      "time": null,
      "trip_id": "block_342_trip_16_service_1",
      "trip_num": 16
    },
    {
      "delay": null,
      "departure_time": "15:54:00",
      "old": false,
      "stop_lat": 50.023562,
      "stop_lon": 19.97926,
      "stop_name": "Bieżanowska",
      "stop_num": "03",
      "stop_sequence": 6,
      "stopping": false,
      "time": null,
      "trip_id": "block_342_trip_16_service_1",
      "trip_num": 16
    },
    {
      "delay": null,
      "departure_time": "15:56:00",
      "old": false,
      "stop_lat": 50.018289,
      "stop_lon": 19.977516,
      "stop_name": "Dauna",
      "stop_num": "01",
      "stop_sequence": 7,
      "stopping": false,
      "time": null,
      "trip_id": "block_342_trip_16_service_1",
      "trip_num": 16
    },
    {
      "delay": null,
      "departure_time": "15:58:00",
      "old": false,
      "stop_lat": 50.015482,
      "stop_lon": 19.971574,
      "stop_name": "Piaski Nowe",
      "stop_num": "01",
      "stop_sequence": 8,
      "stopping": false,
      "time": null,
      "trip_id": "block_342_trip_16_service_1",
      "trip_num": 16
    },
    {
      "delay": null,
      "departure_time": "15:59:00",
      "old": false,
      "stop_lat": 50.013455,
      "stop_lon": 19.964635,
      "stop_name": "Nowosądecka",
      "stop_num": "01",
      "stop_sequence": 9,
      "stopping": false,
      "time": null,
      "trip_id": "block_342_trip_16_service_1",
      "trip_num": 16
    },
    {
      "delay": null,
      "departure_time": "16:01:00",
      "old": false,
      "stop_lat": 50.012338,
      "stop_lon": 19.956857,
      "stop_name": "Witosa",
      "stop_num": "01",
      "stop_sequence": 10,
      "stopping": false,
      "time": null,
      "trip_id": "block_342_trip_16_service_1",
      "trip_num": 16
    },
    {
      "delay": null,
      "departure_time": "16:02:00",
      "old": false,
      "stop_lat": 50.01359,
      "stop_lon": 19.95044,
      "stop_name": "Kurdwanów P+R",
      "stop_num": "01",
      "stop_sequence": 11,
      "stopping": false,
      "time": null,
      "trip_id": "block_342_trip_16_service_1",
      "trip_num": 16
    },
    {
      "delay": null,
      "departure_time": "16:03:00",
      "old": false,
      "stop_lat": 50.01407,
      "stop_lon": 19.94809,
      "stop_name": "Kurdwanów P+R",
      "stop_num": "08",
      "stop_sequence": 12,
      "stopping": false,
      "time": null,
      "trip_id": "block_342_trip_16_service_1",
      "trip_num": 16
    },
    {
      "delay": null,
      "departure_time": "16:04:00",
      "old": false,
      "stop_lat": 50.01511,
      "stop_lon": 19.94435,
      "stop_name": "Turowicza",
      "stop_num": "02",
      "stop_sequence": 13,
      "stopping": false,
      "time": null,
      "trip_id": "block_342_trip_16_service_1",
      "trip_num": 16
    },