{
  "stop_times": [
    {
      "delay": null,
      "departure_time": "09:02:00",
      "old": true,
      "stop_lat": 50.083538,
      "stop_lon": 20.065554,
      "stop_name": "Zajezdnia Nowa Huta",
      "stop_num": "01",
      "stop_sequence": 2,
      "stopping": false,
      "time": null,
      "trip_id": "block_588_trip_1_service_3",
      "trip_num": 1
    },
    {
      "delay": null,
      "departure_time": "09:03:00",
      "old": true,
      "stop_lat": 50.079835,
      "stop_lon": 20.065863,
      "stop_name": "Kombinat",
      "stop_num": "02",
      "stop_sequence": 3,
      "stopping": false,
      "time": null,
      "trip_id": "block_588_trip_1_service_3",
      "trip_num": 1
    },
    {
      "delay": null,
      "departure_time": "09:05:00",
      "old": true,
      "stop_lat": 50.076232,
      "stop_lon": 20.052439,
      "stop_name": "Zalew Nowohucki",
      "stop_num": "02",
      "stop_sequence": 4,
      "stopping": false,
      "time": null,
      "trip_id": "block_588_trip_1_service_3",
      "trip_num": 1
    },
    {
      "delay": null,
      "departure_time": "09:06:00",
      "old": true,
      "stop_lat": 50.074892,
      "stop_lon": 20.047467,
      "stop_name": "Struga",
      "stop_num": "02",
      "stop_sequence": 5,
      "stopping": false,
      "time": null,
      "trip_id": "block_588_trip_1_service_3",
      "trip_num": 1
    },
    {
      "delay": null,
      "departure_time": "09:09:00",
      "old": true,
      "stop_lat": 50.071704,
      "stop_lon": 20.035631,
      "stop_name": "Plac Centralny im. R.Reagana",
      "stop_num": "01",
      "stop_sequence": 6,
      "stopping": false,
      "time": null,
      "trip_id": "block_588_trip_1_service_3",
      "trip_num": 1
    },
    {
      "delay": null,
      "departure_time": "09:10:00",
      "old": true,
      "stop_lat": 50.072371,
      "stop_lon": 20.028517,
      "stop_name": "Os. Kolorowe",
      "stop_num": "02",
      "stop_sequence": 7,
      "stopping": false,
      "time": null,
      "trip_id": "block_588_trip_1_service_3",
      "trip_num": 1
    },
    {
      "delay": null,
      "departure_time": "09:13:00",
      "old": true,
      "stop_lat": 50.072758,
      "stop_lon": 20.017068,
      "stop_name": "Rondo Czyżyńskie",
      "stop_num": "04",
      "stop_sequence": 8,
      "stopping": false,
      "time": null,
      "trip_id": "block_588_trip_1_service_3",
      "trip_num": 1
    },
    {
      "delay": null,
      "departure_time": "09:14:00",
      "old": true,
      "stop_lat": 50.069417,
      "stop_lon": 20.012742,
      "stop_name": "Gałczyńskiego",
      "stop_num": "02",
      "stop_sequence": 9,
      "stopping": false,
      "time": null,
      "trip_id": "block_588_trip_1_service_3",
      "trip_num": 1
    },
    {
      "delay": null,
      "departure_time": "09:15:00",
      "old": true,
      "stop_lat": 50.067398,
      "stop_lon": 20.005374,
      "stop_name": "Rondo 308. Dywizjonu",
      "stop_num": "02",
      "stop_sequence": 10,
      "stopping": false,
      "time": null,
      "trip_id": "block_588_trip_1_service_3",
      "trip_num": 1
    },
    {
      "delay": null,
      "departure_time": "09:17:00",
      "old": true,
      "stop_lat": 50.065502,
      "stop_lon": 19.996324,
      "stop_name": "Ogród Doświadczeń",
      "stop_num": "02",
      "stop_sequence": 11,
      "stopping": false,
      "time": null,
      "trip_id": "block_588_trip_1_service_3",
      "trip_num": 1
    },
    {
      "delay": null,
      "departure_time": "09:18:00",
      "old": true,
      "stop_lat": 50.064416,
      "stop_lon": 19.990077,
      "stop_name": "TAURON Arena Kraków al. Pokoju",
      "stop_num": "02",
      "stop_sequence": 12,
      "stopping": false,
      "time": null,
      "trip_id": "block_588_trip_1_service_3",
      "trip_num": 1
    },
    {
      "delay": null,
      "departure_time": "09:20:00",
      "old": true,
      "stop_lat": 50.060709,
      "stop_lon": 19.979012,
      "stop_name": "Dąbie",
      "stop_num": "02",
      "stop_sequence": 13,
      "stopping": false,
      "time": null,
      "trip_id": "block_588_trip_1_service_3",
      "trip_num": 1
    },
    {
      "delay": null,
      "departure_time": "09:21:00",
      "old": true,
      "stop_lat": 50.059629,
      "stop_lon": 19.976271,
      "stop_name": "Ofiar Dąbia",
      "stop_num": "02",
      "stop_sequence": 14,
      "stopping": false,
      "time": null,
      "trip_id": "block_588_trip_1_service_3",
      "trip_num": 1
    },
    {
      "delay": null,
      "departure_time": "09:22:00",
      "old": true,
      "stop_lat": 50.060251,
      "stop_lon": 19.971272,
      "stop_name": "Fabryczna",
      "stop_num": "02",
      "stop_sequence": 15,
      "stopping": false,
      "time": null,
      "trip_id": "block_588_trip_1_service_3",
      "trip_num": 1
    },
    {
      "delay": null,
      "departure_time": "09:23:00",
      "old": true,
      "stop_lat": 50.060173,
      "stop_lon": 19.967382,
      "stop_name": "Nullo",
      "stop_num": "02",
      "stop_sequence": 16,
      "stopping": false,
      "time": null,
      "trip_id": "block_588_trip_1_service_3",
      "trip_num": 1
    },
    {
      "delay": null,
      "departure_time": "09:24:00",
      "old": true,
      "stop_lat": 50.058827,
      "stop_lon": 19.962374,
      "stop_name": "Teatr Variété",
      "stop_num": "02",
      "stop_sequence": 17,
      "stopping": false,
      "time": null,
      "trip_id": "block_588_trip_1_service_3",
      "trip_num": 1
    },
    {
      "delay": null,
      "departure_time": "09:26:00",
      "old": true,
      "stop_lat": 50.056894,
      "stop_lon": 19.958941,
      "stop_name": "Rondo Grzegórzeckie",
      "stop_num": "04",
      "stop_sequence": 18,
      "stopping": false,
      "time": null,
      "trip_id": "block_588_trip_1_service_3",
      "trip_num": 1
    },
    {
      "delay": null,
      "departure_time": "09:27:00",
      "old": true,
      "stop_lat": 50.0497,
      "stop_lon": 19.965148,
      "stop_name": "Zabłocie",
      "stop_num": "01",
      "stop_sequence": 19,
      "stopping": false,
      "time": null,
      "trip_id": "block_588_trip_1_service_3",
      "trip_num": 1
    },
    {
      "delay": null,
      "departure_time": "09:28:00",
      "old": true,
      "stop_lat": 50.048976,
      "stop_lon": 19.967573,
      "stop_name": "Klimeckiego",
      "stop_num": "01",
      "stop_sequence": 20,
      "stopping": false,
      "time": null,
      "trip_id": "block_588_trip_1_service_3",
      "trip_num": 1
    },
    {
      "delay": null,
      "departure_time": "09:30:00",
      "old": true,
      "stop_lat": 50.044529,
      "stop_lon": 19.973549,
      "stop_name": "Kuklińskiego",
      "stop_num": "01",
      "stop_sequence": 21,
      "stopping": false,
      "time": null,
      "trip_id": "block_588_trip_1_service_3",
      "trip_num": 1
    },
    {
      "delay": null,
      "departure_time": "09:31:00",
      "old": true,
      "stop_lat": 50.040619,
      "stop_lon": 19.978092,
      "stop_name": "Gromadzka",
      "stop_num": "01",
      "stop_sequence": 22,
      "stopping": false,
      "time": null,
      "trip_id": "block_588_trip_1_service_3",
      "trip_num": 1
    },
    {
      "delay": null,
      "departure_time": "09:33:00",
      "old": true,
      "stop_lat": 50.039687,
      "stop_lon": 19.982994,
      "stop_name": "Lipska",
      "stop_num": "03",
      "stop_sequence": 23,
      "stopping": false,
      "time": null,
      "trip_id": "block_588_trip_1_service_3",
      "trip_num": 1
    },
    {
      "delay": null,
      "departure_time": "09:35:00",
      "old": true,
      "stop_lat": 50.033468,
      "stop_lon": 19.976946,
      "stop_name": "Dworzec Płaszów Estakada",
      "stop_num": "02",
      "stop_sequence": 24,
      "stopping": false,
      "time": null,
      "trip_id": "block_588_trip_1_service_3",
      "trip_num": 1
    },
    {
      "delay": null,
      "departure_time": "09:37:00",
      "old": true,
      "stop_lat": 50.027229,
      "stop_lon": 19.976567,
      "stop_name": "Kabel",
      "stop_num": "01",
      "stop_sequence": 25,
      "stopping": false,
      "time": null,
      "trip_id": "block_588_trip_1_service_3",
      "trip_num": 1
    },
    {
      "delay": null,
      "departure_time": "09:40:00",
      "old": true,
      "stop_lat": 50.023027,
      "stop_lon": 19.981791,
      "stop_name": "Bieżanowska",
      "stop_num": "01",
      "stop_sequence": 26,
      "stopping": false,
      "time": null,
      "trip_id": "block_588_trip_1_service_3",
      "trip_num": 1
    },
    {
      "delay": null,
      "departure_time": "09:41:00",
      "old": true,
      "stop_lat": 50.019364,
      "stop_lon": 19.988113,
      "stop_name": "Wlotowa",
      "stop_num": "01",
      "stop_sequence": 27,
      "stopping": false,
      "time": null,
      "trip_id": "block_588_trip_1_service_3",
      "trip_num": 1
    },
    {
      "delay": null,
      "departure_time": "09:42:00",
      "old": true,
      "stop_lat": 50.017526,
      "stop_lon": 19.991105,
      "stop_name": "Prokocim",
      "stop_num": "01",
      "stop_sequence": 28,
      "stopping": false,
      "time": null,
      "trip_id": "block_588_trip_1_service_3",
      "trip_num": 1
    },
    {
      "delay": null,
      "departure_time": "09:44:00",
      "old": true,
      "stop_lat": 50.014443,
      "stop_lon": 19.998952,
      "stop_name": "Prokocim Szpital",
      "stop_num": "01",
      "stop_sequence": 29,
      "stopping": false,
      "time": null,
      "trip_id": "block_588_trip_1_service_3",
      "trip_num": 1
    },
    {
      "delay": null,
      "departure_time": "09:46:00",
      "old": true,
      "stop_lat": 50.016599,
      "stop_lon": 20.007159,
      "stop_name": "Teligi",
      "stop_num": "01",
      "stop_sequence": 30,
      "stopping": false,
      "time": null,
      "trip_id": "block_588_trip_1_service_3",
      "trip_num": 1
    },
    {
      "delay": null,
      "departure_time": "09:47:00",
      "old": true,
      "stop_lat": 50.016128,
      "stop_lon": 20.012098,
      "stop_name": "Nowy Prokocim",
      "stop_num": "01",
      "stop_sequence": 31,
      "stopping": false,
      "time": null,
      "trip_id": "block_588_trip_1_service_3",
      "trip_num": 1
    },
    {
      "delay": null,
      "departure_time": "09:48:00",
      "old": true,
      "stop_lat": 50.016057,
      "stop_lon": 20.019317,
      "stop_name": "Ćwiklińskiej",
      "stop_num": "01",
      "stop_sequence": 32,
      "stopping": false,
      "time": null,
      "trip_id": "block_588_trip_1_service_3",
      "trip_num": 1
    },
    {
      "delay": null,
      "departure_time": "09:49:00",
      "old": true,
      "stop_lat": 50.015608,
      "stop_lon": 20.023053,
      "stop_name": "Nowy Bieżanów P+R",
      "stop_num": "01",
      "stop_sequence": 33,
      "stopping": false,
      "time": null,
      "trip_id": "block_588_trip_1_service_3",
      "trip_num": 1
    },
    {
      "delay": null,
      "departure_time": "09:53:00",
      "old": true,
      "stop_lat": 50.015608,
      "stop_lon": 20.023053,
      "stop_name": "Nowy Bieżanów P+R",
      "stop_num": "01",
      "stop_sequence": 1,
      "stopping": false,
      "time": null,
      "trip_id": "block_588_trip_2_service_3",
      "trip_num": 2
    },
    {
      "delay": null,
      "departure_time": "09:54:00",
      "old": true,
      "stop_lat": 50.015966,
      "stop_lon": 20.019968,
      "stop_name": "Ćwiklińskiej",
      "stop_num": "02",
      "stop_sequence": 2,
      "stopping": false,
      "time": null,
      "trip_id": "block_588_trip_2_service_3",
      "trip_num": 2
    },
    {
      "delay": null,
      "departure_time": "09:55:00",
      "old": true,
      "stop_lat": 50.016318,
      "stop_lon": 20.013226,
      "stop_name": "Nowy Prokocim",
      "stop_num": "02",
      "stop_sequence": 3,
      "stopping": false,
      "time": null,
      "trip_id": "block_588_trip_2_service_3",
      "trip_num": 2
    },
    {
      "delay": null,
      "departure_time": "09:56:00",
      "old": true,
      "stop_lat": 50.016511,
      "stop_lon": 20.007916,
      "stop_name": "Teligi",
      "stop_num": "02",
      "stop_sequence": 4,
      "stopping": false,
      "time": null,
      "trip_id": "block_588_trip_2_service_3",
      "trip_num": 2
    },
    {
      "delay": null,
      "departure_time": "09:57:00",
      "old": true,
      "stop_lat": 50.014585,
      "stop_lon": 20.000171,
      "stop_name": "Prokocim Szpital",
      "stop_num": "02",
      "stop_sequence": 5,
      "stopping": false,
      "time": null,
      "trip_id": "block_588_trip_2_service_3",
      "trip_num": 2
    },
    {
      "delay": null,
      "departure_time": "09:59:00",
      "old": true,
      "stop_lat": 50.017646,
      "stop_lon": 19.990988,
      "stop_name": "Prokocim",
      "stop_num": "02",
      "stop_sequence": 6,
      "stopping": false,
      "time": null,
      "trip_id": "block_588_trip_2_service_3",
      "trip_num": 2
    },
    {
      "delay": null,
      "departure_time": "10:00:00",
      "old": true,
      "stop_lat": 50.019553,
      "stop_lon": 19.987851,
      "stop_name": "Wlotowa",
      "stop_num": "02",
      "stop_sequence": 7,
      "stopping": false,
      "time": null,
      "trip_id": "block_588_trip_2_service_3",
      "trip_num": 2
    },
    {
      "delay": null,
      "departure_time": "10:02:00",
      "old": true,
      "stop_lat": 50.023119,
      "stop_lon": 19.981692,
      "stop_name": "Bieżanowska",
      "stop_num": "02",
      "stop_sequence": 8,
      "stopping": false,
      "time": null,
      "trip_id": "block_588_trip_2_service_3",
      "trip_num": 2
    },
    {
      "delay": null,
      "departure_time": "10:03:00",
      "old": true,
      "stop_lat": 50.026621,
      "stop_lon": 19.977231,
      "stop_name": "Kabel",
      "stop_num": "02",
      "stop_sequence": 9,
      "stopping": false,
      "time": null,
      "trip_id": "block_588_trip_2_service_3",
      "trip_num": 2
    },
    {
      "delay": null,
      "departure_time": "10:05:00",
      "old": true,
      "stop_lat": 50.033556,
      "stop_lon": 19.977196,
      "stop_name": "Dworzec Płaszów Estakada",
      "stop_num": "01",
      "stop_sequence": 10,
      "stopping": false,
      "time": null,
      "trip_id": "block_588_trip_2_service_3",
      "trip_num": 2
    },
    {
      "delay": null,
      "departure_time": "10:07:00",
      "old": true,
      "stop_lat": 50.040688,
      "stop_lon": 19.981676,
      "stop_name": "Lipska",
      "stop_num": "02",
      "stop_sequence": 11,
      "stopping": false,
      "time": null,
      "trip_id": "block_588_trip_2_service_3",
      "trip_num": 2
    },
    {
      "delay": null,
      "departure_time": "10:08:00",
      "old": true,
      "stop_lat": 50.040657,
      "stop_lon": 19.978076,
      "stop_name": "Gromadzka",
      "stop_num": "02",
      "stop_sequence": 12,
      "stopping": false,
      "time": null,
      "trip_id": "block_588_trip_2_service_3",
      "trip_num": 2
    },
    {
      "delay": null,
      "departure_time": "10:10:00",
      "old": true,
      "stop_lat": 50.044575,
      "stop_lon": 19.973602,
      "stop_name": "Kuklińskiego",
      "stop_num": "02",
      "stop_sequence": 13,
      "stopping": false,
      "time": null,
      "trip_id": "block_588_trip_2_service_3",
      "trip_num": 2
    },
    {
      "delay": null,
      "departure_time": "10:11:00",
      "old": true,
      "stop_lat": 50.049016,
      "stop_lon": 19.967621,
      "stop_name": "Klimeckiego",
      "stop_num": "02",
      "stop_sequence": 14,
      "stopping": false,
      "time": null,
      "trip_id": "block_588_trip_2_service_3",
      "trip_num": 2
    },
    {
      "delay": null,
      "departure_time": "10:12:00",
      "old": true,
      "stop_lat": 50.049951,
      "stop_lon": 19.964216,
      "stop_name": "Zabłocie",
      "stop_num": "02",
      "stop_sequence": 15,
      "stopping": false,
      "time": null,
      "trip_id": "block_588_trip_2_service_3",
      "trip_num": 2
    },
    {
      "delay": null,
      "departure_time": "10:15:00",
      "old": true,
      "stop_lat": 50.058426,
      "stop_lon": 19.959244,
      "stop_name": "Rondo Grzegórzeckie",
      "stop_num": "03",
      "stop_sequence": 16,
      "stopping": false,
      "time": null,
      "trip_id": "block_588_trip_2_service_3",
      "trip_num": 2
    },
    {
      "delay": null,
      "departure_time": "10:17:00",
      "old": true,
      "stop_lat": 50.065759,
      "stop_lon": 19.959864,
      "stop_name": "Rondo Mogilskie",
      "stop_num": "02",
      "stop_sequence": 17,
      "stopping": false,
      "time": null,
      "trip_id": "block_588_trip_2_service_3",
      "trip_num": 2
    },
    {
      "delay": null,
      "departure_time": "10:18:00",
      "old": true,
      "stop_lat": 50.066523,
      "stop_lon": 19.970519,
      "stop_name": "Cystersów",
      "stop_num": "01",
      "stop_sequence": 18,
      "stopping": false,
      "time": null,
      "trip_id": "block_588_trip_2_service_3",
      "trip_num": 2
    },
    {
      "delay": null,
      "departure_time": "10:20:00",
      "old": true,
      "stop_lat": 50.067841,
      "stop_lon": 19.977991,
      "stop_name": "Białucha",
      "stop_num": "01",
      "stop_sequence": 19,
      "stopping": false,
      "time": null,
      "trip_id": "block_588_trip_2_service_3",
      "trip_num": 2
    },
    {
      "delay": null,
      "departure_time": "10:23:00",
      "old": true,
      "stop_lat": 50.07352,
      "stop_lon": 19.990472,
      "stop_name": "Muzeum Lotnictwa Polskiego",
      "stop_num": "01",
      "stop_sequence": 20,
      "stopping": false,
      "time": null,
      "trip_id": "block_588_trip_2_service_3",
      "trip_num": 2
    },
    {
      "delay": null,
      "departure_time": "10:24:00",
      "old": true,
      "stop_lat": 50.073967,
      "stop_lon": 19.99881,
      "stop_name": "AKF / PK",
      "stop_num": "01",
      "stop_sequence": 21,
      "stopping": false,
      "time": null,
      "trip_id": "block_588_trip_2_service_3",
      "trip_num": 2
    },
    {
      "delay": null,
      "departure_time": "10:25:00",
      "old": true,
      "stop_lat": 50.074273,
      "stop_lon": 20.004747,
      "stop_name": "Stella-Sawickiego",
      "stop_num": "01",
      "stop_sequence": 22,
      "stopping": false,
      "time": null,
      "trip_id": "block_588_trip_2_service_3",
      "trip_num": 2
    },
    {
      "delay": null,
      "departure_time": "10:26:00",
      "old": true,
      "stop_lat": 50.07399,
      "stop_lon": 20.011459,
      "stop_name": "Czyżyny",
      "stop_num": "01",
      "stop_sequence": 23,
      "stopping": false,
      "time": null,
      "trip_id": "block_588_trip_2_service_3",
      "trip_num": 2
    },
    {
      "delay": null,
      "departure_time": "10:29:00",
      "old": true,
      "stop_lat": 50.074193,
      "stop_lon": 20.018028,
      "stop_name": "Rondo Czyżyńskie",
      "stop_num": "03",
      "stop_sequence": 24,
      "stopping": false,
      "time": null,
      "trip_id": "block_588_trip_2_service_3",
      "trip_num": 2
    },
    {
      "delay": null,
      "departure_time": "10:30:00",
      "old": true,
      "stop_lat": 50.0757,
      "stop_lon": 20.02058,
      "stop_name": "Bieńczycka",
      "stop_num": "02",
      "stop_sequence": 25,
      "stopping": false,
      "time": null,
      "trip_id": "block_588_trip_2_service_3",
      "trip_num": 2
    },
    {
      "delay": null,
      "departure_time": "10:33:00",
      "old": true,
      "stop_lat": 50.080257,
      "stop_lon": 20.026561,
      "stop_name": "Rondo Kocmyrzowskie im. Ks. Gorzelanego",
      "stop_num": "01",
      "stop_sequence": 26,
      "stopping": false,
      "time": null,
      "trip_id": "block_588_trip_2_service_3",
      "trip_num": 2
    },
    {
      "delay": null,
      "departure_time": "10:34:00",
      "old": true,
      "stop_lat": 50.084477,
      "stop_lon": 20.020671,
      "stop_name": "DH Wanda",
      "stop_num": "01",
      "stop_sequence": 27,
      "stopping": false,
      "time": null,
      "trip_id": "block_588_trip_2_service_3",
      "trip_num": 2
    },
    {
      "delay": null,
      "departure_time": "10:36:00",
      "old": true,
      "stop_lat": 50.090094,
      "stop_lon": 20.021355,
      "stop_name": "Rondo Hipokratesa",
      "stop_num": "02",
      "stop_sequence": 28,
      "stopping": false,
      "time": null,
      "trip_id": "block_588_trip_2_service_3",
      "trip_num": 2
    },
    {
      "delay": null,
      "departure_time": "10:47:00",
      "old": true,
      "stop_lat": 50.090094,
      "stop_lon": 20.021355,
      "stop_name": "Rondo Hipokratesa",
      "stop_num": "02",
      "stop_sequence": 1,
      "stopping": false,
      "time": null,
      "trip_id": "block_588_trip_3_service_3",
      "trip_num": 3
    },
    {
      "delay": null,
      "departure_time": "10:48:00",
      "old": true,
      "stop_lat": 50.084432,
      "stop_lon": 20.020689,
      "stop_name": "DH Wanda",
      "stop_num": "02",
      "stop_sequence": 2,
      "stopping": false,
      "time": null,
      "trip_id": "block_588_trip_3_service_3",
      "trip_num": 3
    },
    {
      "delay": null,
      "departure_time": "10:51:00",
      "old": true,
      "stop_lat": 50.07905,
      "stop_lon": 20.026486,
      "stop_name": "Rondo Kocmyrzowskie im. Ks. Gorzelanego",
      "stop_num": "02",
      "stop_sequence": 3,
      "stopping": false,
      "time": null,
      "trip_id": "block_588_trip_3_service_3",
      "trip_num": 3
    },
    {
      "delay": null,
      "departure_time": "10:52:00",
      "old": true,
      "stop_lat": 50.075661,
      "stop_lon": 20.02044,
      "stop_name": "Bieńczycka",
      "stop_num": "01",
      "stop_sequence": 4,
      "stopping": false,
      "time": null,
      "trip_id": "block_588_trip_3_service_3",
      "trip_num": 3
    },
    {
      "delay": null,
      "departure_time": "10:55:00",
      "old": true,
      "stop_lat": 50.07358,
      "stop_lon": 20.01606,
      "stop_name": "Rondo Czyżyńskie",
      "stop_num": "02",
      "stop_sequence": 5,
      "stopping": false,
      "time": null,
      "trip_id": "block_588_trip_3_service_3",
      "trip_num": 3
    },
    {
      "delay": null,
      "departure_time": "10:56:00",
      "old": true,
      "stop_lat": 50.074038,
      "stop_lon": 20.011272,
      "stop_name": "Czyżyny",
      "stop_num": "02",
      "stop_sequence": 6,
      "stopping": false,
      "time": null,
      "trip_id": "block_588_trip_3_service_3",
      "trip_num": 3
    },
    {
      "delay": null,
      "departure_time": "10:57:00",
      "old": true,
      "stop_lat": 50.074302,
      "stop_lon": 20.00459,
      "stop_name": "Stella-Sawickiego",
      "stop_num": "02",
      "stop_sequence": 7,
      "stopping": false,
      "time": null,
      "trip_id": "block_588_trip_3_service_3",
      "trip_num": 3
    },
    {
      "delay": null,
      "departure_time": "10:58:00",
      "old": true,
      "stop_lat": 50.074015,
      "stop_lon": 19.998685,
      "stop_name": "AKF / PK",
      "stop_num": "02",
      "stop_sequence": 8,
      "stopping": false,
      "time": null,
      "trip_id": "block_588_trip_3_service_3",
      "trip_num": 3
    },
    {
      "delay": null,
      "departure_time": "10:59:00",
      "old": true,
      "stop_lat": 50.073539,
      "stop_lon": 19.990254,
      "stop_name": "Muzeum Lotnictwa Polskiego",
      "stop_num": "02",
      "stop_sequence": 9,
      "stopping": false,
      "time": null,
      "trip_id": "block_588_trip_3_service_3",
      "trip_num": 3
    },
    {
      "delay": null,
      "departure_time": "11:02:00",
      "old": true,
      "stop_lat": 50.067597,
      "stop_lon": 19.977192,
      "stop_name": "Białucha",
      "stop_num": "02",
      "stop_sequence": 10,
      "stopping": false,
      "time": null,
      "trip_id": "block_588_trip_3_service_3",
      "trip_num": 3
    },
    {
      "delay": null,
      "departure_time": "11:04:00",
      "old": true,
      "stop_lat": 50.06654,
      "stop_lon": 19.969149,
      "stop_name": "Cystersów",
      "stop_num": "02",
      "stop_sequence": 11,
      "stopping": false,
      "time": null,
      "trip_id": "block_588_trip_3_service_3",
      "trip_num": 3
    },
    {
      "delay": null,
      "departure_time": "11:06:00",
      "old": true,
      "stop_lat": 50.064865,
      "stop_lon": 19.959303,
      "stop_name": "Rondo Mogilskie",
      "stop_num": "03",
      "stop_sequence": 12,
      "stopping": false,
      "time": null,
      "trip_id": "block_588_trip_3_service_3",
      "trip_num": 3
    },
    {
      "delay": null,
      "departure_time": "11:09:00",
      "old": true,
      "stop_lat": 50.056894,
      "stop_lon": 19.958941,
      "stop_name": "Rondo Grzegórzeckie",
      "stop_num": "04",
      "stop_sequence": 13,
      "stopping": false,
      "time": null,
      "trip_id": "block_588_trip_3_service_3",
      "trip_num": 3
    },
    {
      "delay": null,
      "departure_time": "11:10:00",
      "old": true,
      "stop_lat": 50.0497,
      "stop_lon": 19.965148,
      "stop_name": "Zabłocie",
      "stop_num": "01",
      "stop_sequence": 14,
      "stopping": false,
      "time": null,
      "trip_id": "block_588_trip_3_service_3",
      "trip_num": 3
    },
    {
      "delay": null,
      "departure_time": "11:11:00",
      "old": true,
      "stop_lat": 50.048976,
      "stop_lon": 19.967573,
      "stop_name": "Klimeckiego",
      "stop_num": "01",
      "stop_sequence": 15,
      "stopping": false,
      "time": null,
      "trip_id": "block_588_trip_3_service_3",
      "trip_num": 3
    },
    {
      "delay": null,
      "departure_time": "11:13:00",
      "old": true,
      "stop_lat": 50.044529,
      "stop_lon": 19.973549,
      "stop_name": "Kuklińskiego",
      "stop_num": "01",
      "stop_sequence": 16,
      "stopping": false,
      "time": null,
      "trip_id": "block_588_trip_3_service_3",
      "trip_num": 3
    },
    {
      "delay": null,
      "departure_time": "11:14:00",
      "old": true,
      "stop_lat": 50.040619,
      "stop_lon": 19.978092,
      "stop_name": "Gromadzka",
      "stop_num": "01",
      "stop_sequence": 17,
      "stopping": false,
      "time": null,
      "trip_id": "block_588_trip_3_service_3",
      "trip_num": 3
    },
    {
      "delay": null,
      "departure_time": "11:16:00",
      "old": true,
      "stop_lat": 50.039687,
      "stop_lon": 19.982994,
      "stop_name": "Lipska",
      "stop_num": "03",
      "stop_sequence": 18,
      "stopping": false,
      "time": null,
      "trip_id": "block_588_trip_3_service_3",
      "trip_num": 3
    },
    {
      "delay": null,
      "departure_time": "11:18:00",
      "old": true,
      "stop_lat": 50.033468,
      "stop_lon": 19.976946,
      "stop_name": "Dworzec Płaszów Estakada",
      "stop_num": "02",
      "stop_sequence": 19,
      "stopping": false,
      "time": null,
      "trip_id": "block_588_trip_3_service_3",
      "trip_num": 3
    },
    {
      "delay": null,
      "departure_time": "11:20:00",
      "old": true,
      "stop_lat": 50.027229,
      "stop_lon": 19.976567,
      "stop_name": "Kabel",
      "stop_num": "01",
      "stop_sequence": 20,
      "stopping": false,
      "time": null,
      "trip_id": "block_588_trip_3_service_3",
      "trip_num": 3
    },
    {
      "delay": null,
      "departure_time": "11:23:00",
      "old": true,
      "stop_lat": 50.023027,
      "stop_lon": 19.981791,
      "stop_name": "Bieżanowska",
      "stop_num": "01",
      "stop_sequence": 21,
      "stopping": false,
      "time": null,
      "trip_id": "block_588_trip_3_service_3",
      "trip_num": 3
    },
    {
      "delay": null,
      "departure_time": "11:24:00",
      "old": true,
      "stop_lat": 50.019364,
      "stop_lon": 19.988113,
      "stop_name": "Wlotowa",
      "stop_num": "01",
      "stop_sequence": 22,
      "stopping": false,
      "time": null,
      "trip_id": "block_588_trip_3_service_3",
      "trip_num": 3
    },
    {
      "delay": null,
      "departure_time": "11:25:00",
      "old": true,
      "stop_lat": 50.017526,
      "stop_lon": 19.991105,
      "stop_name": "Prokocim",
      "stop_num": "01",
      "stop_sequence": 23,
      "stopping": false,
      "time": null,
      "trip_id": "block_588_trip_3_service_3",
      "trip_num": 3
    },
    {
      "delay": null,
      "departure_time": "11:27:00",
      "old": true,
      "stop_lat": 50.014443,
      "stop_lon": 19.998952,
      "stop_name": "Prokocim Szpital",
      "stop_num": "01",
      "stop_sequence": 24,
      "stopping": false,
      "time": null,
      "trip_id": "block_588_trip_3_service_3",
      "trip_num": 3
    },
    {
      "delay": null,
      "departure_time": "11:29:00",
      "old": true,
      "stop_lat": 50.016599,
      "stop_lon": 20.007159,
      "stop_name": "Teligi",
      "stop_num": "01",
      "stop_sequence": 25,
      "stopping": false,
      "time": null,
      "trip_id": "block_588_trip_3_service_3",
      "trip_num": 3
    },
    {
      "delay": null,
      "departure_time": "11:30:00",
      "old": true,
      "stop_lat": 50.016128,
      "stop_lon": 20.012098,
      "stop_name": "Nowy Prokocim",
      "stop_num": "01",
      "stop_sequence": 26,
      "stopping": false,
      "time": null,
      "trip_id": "block_588_trip_3_service_3",
      "trip_num": 3
    },
    {
      "delay": null,
      "departure_time": "11:31:00",
      "old": true,
      "stop_lat": 50.016057,
      "stop_lon": 20.019317,
      "stop_name": "Ćwiklińskiej",
      "stop_num": "01",
      "stop_sequence": 27,
      "stopping": false,
      "time": null,
      "trip_id": "block_588_trip_3_service_3",
      "trip_num": 3
    },
    {
      "delay": null,
      "departure_time": "11:32:00",
      "old": true,
      "stop_lat": 50.015608,
      "stop_lon": 20.023053,
      "stop_name": "Nowy Bieżanów P+R",
      "stop_num": "01",
      "stop_sequence": 28,
      "stopping": false,
      "time": null,
      "trip_id": "block_588_trip_3_service_3",
      "trip_num": 3
    },
    {
      "delay": null,
      "departure_time": "11:53:00",
      "old": true,
      "stop_lat": 50.015608,
      "stop_lon": 20.023053,
      "stop_name": "Nowy Bieżanów P+R",
      "stop_num": "01",
      "stop_sequence": 1,
      "stopping": false,
      "time": null,
      "trip_id": "block_588_trip_4_service_3",
      "trip_num": 4
    },
    {
      "delay": null,
      "departure_time": "11:54:00",
      "old": true,
      "stop_lat": 50.015966,
      "stop_lon": 20.019968,
      "stop_name": "Ćwiklińskiej",
      "stop_num": "02",
      "stop_sequence": 2,
      "stopping": false,
      "time": null,
      "trip_id": "block_588_trip_4_service_3",
      "trip_num": 4
    },
    {
      "delay": null,
      "departure_time": "11:55:00",
      "old": true,
      "stop_lat": 50.016318,
      "stop_lon": 20.013226,
      "stop_name": "Nowy Prokocim",
      "stop_num": "02",
      "stop_sequence": 3,
      "stopping": false,
      "time": null,
      "trip_id": "block_588_trip_4_service_3",
      "trip_num": 4
    },
    {
      "delay": null,
      "departure_time": "11:56:00",
      "old": true,
      "stop_lat": 50.016511,
      "stop_lon": 20.007916,
      "stop_name": "Teligi",
      "stop_num": "02",
      "stop_sequence": 4,
      "stopping": false,
      "time": null,
      "trip_id": "block_588_trip_4_service_3",
      "trip_num": 4
    },
    {
      "delay": null,
      "departure_time": "11:57:00",
      "old": true,
      "stop_lat": 50.014585,
      "stop_lon": 20.000171,
      "stop_name": "Prokocim Szpital",
      "stop_num": "02",
      "stop_sequence": 5,
      "stopping": false,
      "time": null,
      "trip_id": "block_588_trip_4_service_3",
      "trip_num": 4
    },
    {
      "delay": null,
      "departure_time": "11:59:00",
      "old": true,
      "stop_lat": 50.017646,
      "stop_lon": 19.990988,
      "stop_name": "Prokocim",
      "stop_num": "02",
      "stop_sequence": 6,
      "stopping": false,
      "time": null,
      "trip_id": "block_588_trip_4_service_3",
      "trip_num": 4
    },
    {
      "delay": null,
      "departure_time": "12:00:00",
      "old": true,
      "stop_lat": 50.019553,
      "stop_lon": 19.987851,
      "stop_name": "Wlotowa",
      "stop_num": "02",
      "stop_sequence": 7,
      "stopping": false,
      "time": null,
      "trip_id": "block_588_trip_4_service_3",
      "trip_num": 4
    },
    {
      "delay": null,
      "departure_time": "12:02:00",
      "old": true,
      "stop_lat": 50.023119,
      "stop_lon": 19.981692,
      "stop_name": "Bieżanowska",
      "stop_num": "02",
      "stop_sequence": 8,
      "stopping": false,
      "time": null,
      "trip_id": "block_588_trip_4_service_3",
      "trip_num": 4
    },
    {
      "delay": null,
      "departure_time": "12:03:00",
      "old": true,
      "stop_lat": 50.026621,
      "stop_lon": 19.977231,
      "stop_name": "Kabel",
      "stop_num": "02",
      "stop_sequence": 9,
      "stopping": false,
      "time": null,
      "trip_id": "block_588_trip_4_service_3",
      "trip_num": 4
    },
    {
      "delay": null,
      "departure_time": "12:05:00",
      "old": true,
      "stop_lat": 50.033556,
      "stop_lon": 19.977196,
      "stop_name": "Dworzec Płaszów Estakada",
      "stop_num": "01",
      "stop_sequence": 10,
      "stopping": false,
      "time": null,
      "trip_id": "block_588_trip_4_service_3",
      "trip_num": 4
    },
    {
      "delay": null,
      "departure_time": "12:07:00",
      "old": true,
      "stop_lat": 50.040688,
      "stop_lon": 19.981676,
      "stop_name": "Lipska",
      "stop_num": "02",
      "stop_sequence": 11,
      "stopping": false,
      "time": null,
      "trip_id": "block_588_trip_4_service_3",
      "trip_num": 4
    },
    {
      "delay": null,
      "departure_time": "12:08:00",
      "old": true,
      "stop_lat": 50.040657,
      "stop_lon": 19.978076,
      "stop_name": "Gromadzka",
      "stop_num": "02",
      "stop_sequence": 12,
      "stopping": false,
      "time": null,
      "trip_id": "block_588_trip_4_service_3",
      "trip_num": 4
    },
    {
      "delay": null,
      "departure_time": "12:10:00",
      "old": true,
      "stop_lat": 50.044575,
      "stop_lon": 19.973602,
      "stop_name": "Kuklińskiego",
      "stop_num": "02",
      "stop_sequence": 13,
      "stopping": false,
      "time": null,
      "trip_id": "block_588_trip_4_service_3",
      "trip_num": 4
    },
    {
      "delay": null,
      "departure_time": "12:11:00",
      "old": true,
      "stop_lat": 50.049016,
      "stop_lon": 19.967621,
      "stop_name": "Klimeckiego",
      "stop_num": "02",
      "stop_sequence": 14,
      "stopping": false,
      "time": null,
      "trip_id": "block_588_trip_4_service_3",
      "trip_num": 4
    },
    {
      "delay": null,
      "departure_time": "12:12:00",
      "old": true,
      "stop_lat": 50.049951,
      "stop_lon": 19.964216,
      "stop_name": "Zabłocie",
      "stop_num": "02",
      "stop_sequence": 15,
      "stopping": false,
      "time": null,
      "trip_id": "block_588_trip_4_service_3",
      "trip_num": 4
    },
    {
      "delay": null,
      "departure_time": "12:15:00",
      "old": true,
      "stop_lat": 50.058426,
      "stop_lon": 19.959244,
      "stop_name": "Rondo Grzegórzeckie",
      "stop_num": "03",
      "stop_sequence": 16,
      "stopping": false,
      "time": null,
      "trip_id": "block_588_trip_4_service_3",
      "trip_num": 4
    },
    {
      "delay": null,
      "departure_time": "12:17:00",
      "old": true,
      "stop_lat": 50.065759,
      "stop_lon": 19.959864,
      "stop_name": "Rondo Mogilskie",
      "stop_num": "02",
      "stop_sequence": 17,
      "stopping": false,
      "time": null,
      "trip_id": "block_588_trip_4_service_3",
      "trip_num": 4
    },
    {
      "delay": null,
      "departure_time": "12:18:00",
      "old": true,
      "stop_lat": 50.066523,
      "stop_lon": 19.970519,
      "stop_name": "Cystersów",
      "stop_num": "01",
      "stop_sequence": 18,
      "stopping": false,
      "time": null,
      "trip_id": "block_588_trip_4_service_3",
      "trip_num": 4
    },
    {
      "delay": null,
      "departure_time": "12:20:00",
      "old": true,
      "stop_lat": 50.067841,
      "stop_lon": 19.977991,
      "stop_name": "Białucha",
      "stop_num": "01",
      "stop_sequence": 19,
      "stopping": false,
      "time": null,
      "trip_id": "block_588_trip_4_service_3",
      "trip_num": 4
    },
    {
      "delay": null,
      "departure_time": "12:23:00",
      "old": true,
      "stop_lat": 50.07352,
      "stop_lon": 19.990472,
      "stop_name": "Muzeum Lotnictwa Polskiego",
      "stop_num": "01",
      "stop_sequence": 20,
      "stopping": false,
      "time": null,
      "trip_id": "block_588_trip_4_service_3",
      "trip_num": 4
    },
    {
      "delay": null,
      "departure_time": "12:24:00",
      "old": true,
      "stop_lat": 50.073967,
      "stop_lon": 19.99881,
      "stop_name": "AKF / PK",
      "stop_num": "01",
      "stop_sequence": 21,
      "stopping": false,
      "time": null,
      "trip_id": "block_588_trip_4_service_3",
      "trip_num": 4
    },
    {
      "delay": null,
      "departure_time": "12:25:00",
      "old": true,
      "stop_lat": 50.074273,
      "stop_lon": 20.004747,
      "stop_name": "Stella-Sawickiego",
      "stop_num": "01",
      "stop_sequence": 22,
      "stopping": false,
      "time": null,
      "trip_id": "block_588_trip_4_service_3",
      "trip_num": 4
    },
    {
      "delay": null,
      "departure_time": "12:26:00",
      "old": true,
      "stop_lat": 50.07399,
      "stop_lon": 20.011459,
      "stop_name": "Czyżyny",
      "stop_num": "01",
      "stop_sequence": 23,
      "stopping": false,
      "time": null,
      "trip_id": "block_588_trip_4_service_3",
      "trip_num": 4
    },
    {
      "delay": null,
      "departure_time": "12:29:00",
      "old": true,
      "stop_lat": 50.074193,
      "stop_lon": 20.018028,
      "stop_name": "Rondo Czyżyńskie",
      "stop_num": "03",
      "stop_sequence": 24,
      "stopping": false,
      "time": null,
      "trip_id": "block_588_trip_4_service_3",
      "trip_num": 4
    },
    {
      "delay": null,
      "departure_time": "12:30:00",
      "old": true,
      "stop_lat": 50.0757,
      "stop_lon": 20.02058,
      "stop_name": "Bieńczycka",
      "stop_num": "02",
      "stop_sequence": 25,
      "stopping": false,
      "time": null,
      "trip_id": "block_588_trip_4_service_3",
      "trip_num": 4
    },
    {
      "delay": null,
      "departure_time": "12:33:00",
      "old": true,
      "stop_lat": 50.080257,
      "stop_lon": 20.026561,
      "stop_name": "Rondo Kocmyrzowskie im. Ks. Gorzelanego",
      "stop_num": "01",
      "stop_sequence": 26,
      "stopping": false,
      "time": null,
      "trip_id": "block_588_trip_4_service_3",
      "trip_num": 4
    },
    {
      "delay": null,
      "departure_time": "12:34:00",
      "old": true,
      "stop_lat": 50.084477,
      "stop_lon": 20.020671,
      "stop_name": "DH Wanda",
      "stop_num": "01",
      "stop_sequence": 27,
      "stopping": false,
      "time": null,
      "trip_id": "block_588_trip_4_service_3",
      "trip_num": 4
    },
    {
      "delay": null,
      "departure_time": "12:36:00",
      "old": true,
      "stop_lat": 50.090094,
      "stop_lon": 20.021355,
      "stop_name": "Rondo Hipokratesa",
      "stop_num": "02",
      "stop_sequence": 28,
      "stopping": false,
      "time": null,
      "trip_id": "block_588_trip_4_service_3",
      "trip_num": 4
    },
    {
      "delay": null,
      "departure_time": "12:47:00",
      "old": true,
      "stop_lat": 50.090094,
      "stop_lon": 20.021355,
      "stop_name": "Rondo Hipokratesa",
      "stop_num": "02",
      "stop_sequence": 1,
      "stopping": false,
      "time": null,
      "trip_id": "block_588_trip_5_service_3",
      "trip_num": 5
    },
    {
      "delay": null,
      "departure_time": "12:48:00",
      "old": true,
      "stop_lat": 50.084432,
      "stop_lon": 20.020689,
      "stop_name": "DH Wanda",
      "stop_num": "02",
      "stop_sequence": 2,
      "stopping": false,
      "time": null,
      "trip_id": "block_588_trip_5_service_3",
      "trip_num": 5
    },
    {
      "delay": null,
      "departure_time": "12:51:00",
      "old": true,
      "stop_lat": 50.07905,
      "stop_lon": 20.026486,
      "stop_name": "Rondo Kocmyrzowskie im. Ks. Gorzelanego",
      "stop_num": "02",
      "stop_sequence": 3,
      "stopping": false,
      "time": null,
      "trip_id": "block_588_trip_5_service_3",
      "trip_num": 5
    },
    {
      "delay": null,
      "departure_time": "12:52:00",
      "old": true,
      "stop_lat": 50.075661,
      "stop_lon": 20.02044,
      "stop_name": "Bieńczycka",
      "stop_num": "01",
      "stop_sequence": 4,
      "stopping": false,
      "time": null,
      "trip_id": "block_588_trip_5_service_3",
      "trip_num": 5
    },
    {
      "delay": null,
      "departure_time": "12:55:00",
      "old": true,
      "stop_lat": 50.07358,
      "stop_lon": 20.01606,
      "stop_name": "Rondo Czyżyńskie",
      "stop_num": "02",
      "stop_sequence": 5,
      "stopping": false,
      "time": null,
      "trip_id": "block_588_trip_5_service_3",
      "trip_num": 5
    },
    {
      "delay": null,
      "departure_time": "12:56:00",
      "old": true,
      "stop_lat": 50.074038,
      "stop_lon": 20.011272,
      "stop_name": "Czyżyny",
      "stop_num": "02",
      "stop_sequence": 6,
      "stopping": false,
      "time": null,
      "trip_id": "block_588_trip_5_service_3",
      "trip_num": 5
    },
    {
      "delay": null,
      "departure_time": "12:57:00",
      "old": true,
      "stop_lat": 50.074302,
      "stop_lon": 20.00459,
      "stop_name": "Stella-Sawickiego",
      "stop_num": "02",
      "stop_sequence": 7,
      "stopping": false,
      "time": null,
      "trip_id": "block_588_trip_5_service_3",
      "trip_num": 5
    },
    {
      "delay": null,
      "departure_time": "12:58:00",
      "old": true,
      "stop_lat": 50.074015,
      "stop_lon": 19.998685,
      "stop_name": "AKF / PK",
      "stop_num": "02",
      "stop_sequence": 8,
      "stopping": false,
      "time": null,
      "trip_id": "block_588_trip_5_service_3",
      "trip_num": 5
    },
    {
      "delay": null,
      "departure_time": "12:59:00",
      "old": true,
      "stop_lat": 50.073539,
      "stop_lon": 19.990254,
      "stop_name": "Muzeum Lotnictwa Polskiego",
      "stop_num": "02",
      "stop_sequence": 9,
      "stopping": false,
      "time": null,
      "trip_id": "block_588_trip_5_service_3",
      "trip_num": 5
    },
    {
      "delay": null,
      "departure_time": "13:02:00",
      "old": true,
      "stop_lat": 50.067597,
      "stop_lon": 19.977192,
      "stop_name": "Białucha",
      "stop_num": "02",
      "stop_sequence": 10,
      "stopping": false,
      "time": null,
      "trip_id": "block_588_trip_5_service_3",
      "trip_num": 5
    },
    {
      "delay": null,
      "departure_time": "13:04:00",
      "old": true,
      "stop_lat": 50.06654,
      "stop_lon": 19.969149,
      "stop_name": "Cystersów",
      "stop_num": "02",
      "stop_sequence": 11,
      "stopping": false,
      "time": null,
      "trip_id": "block_588_trip_5_service_3",
      "trip_num": 5
    },
    {
      "delay": null,
      "departure_time": "13:06:00",
      "old": true,
      "stop_lat": 50.064865,
      "stop_lon": 19.959303,
      "stop_name": "Rondo Mogilskie",
      "stop_num": "03",
      "stop_sequence": 12,
      "stopping": false,
      "time": null,
      "trip_id": "block_588_trip_5_service_3",
      "trip_num": 5
    },
    {
      "delay": null,
      "departure_time": "13:09:00",
      "old": true,
      "stop_lat": 50.056894,
      "stop_lon": 19.958941,
      "stop_name": "Rondo Grzegórzeckie",
      "stop_num": "04",
      "stop_sequence": 13,
      "stopping": false,
      "time": null,
      "trip_id": "block_588_trip_5_service_3",
      "trip_num": 5
    },
    {
      "delay": null,
      "departure_time": "13:10:00",
      "old": true,
      "stop_lat": 50.0497,
      "stop_lon": 19.965148,
      "stop_name": "Zabłocie",
      "stop_num": "01",
      "stop_sequence": 14,
      "stopping": false,
      "time": null,
      "trip_id": "block_588_trip_5_service_3",
      "trip_num": 5
    },
    {
      "delay": null,
      "departure_time": "13:11:00",
      "old": true,
      "stop_lat": 50.048976,
      "stop_lon": 19.967573,
      "stop_name": "Klimeckiego",
      "stop_num": "01",
      "stop_sequence": 15,
      "stopping": false,
      "time": null,
      "trip_id": "block_588_trip_5_service_3",
      "trip_num": 5
    },
    {
      "delay": null,
      "departure_time": "13:13:00",
      "old": true,
      "stop_lat": 50.044529,
      "stop_lon": 19.973549,
      "stop_name": "Kuklińskiego",
      "stop_num": "01",
      "stop_sequence": 16,
      "stopping": false,
      "time": null,
      "trip_id": "block_588_trip_5_service_3",
      "trip_num": 5
    },
    {
      "delay": null,
      "departure_time": "13:14:00",
      "old": true,
      "stop_lat": 50.040619,
      "stop_lon": 19.978092,
      "stop_name": "Gromadzka",
      "stop_num": "01",
      "stop_sequence": 17,
      "stopping": false,
      "time": null,
      "trip_id": "block_588_trip_5_service_3",
      "trip_num": 5
    },
    {
      "delay": null,
      "departure_time": "13:16:00",
      "old": true,
      "stop_lat": 50.039687,
      "stop_lon": 19.982994,
      "stop_name": "Lipska",
      "stop_num": "03",
      "stop_sequence": 18,
      "stopping": false,
      "time": null,
      "trip_id": "block_588_trip_5_service_3",
      "trip_num": 5
    },
    {
      "delay": null,
      "departure_time": "13:18:00",
      "old": true,
      "stop_lat": 50.033468,
      "stop_lon": 19.976946,
      "stop_name": "Dworzec Płaszów Estakada",
      "stop_num": "02",
      "stop_sequence": 19,
      "stopping": false,
      "time": null,
      "trip_id": "block_588_trip_5_service_3",
      "trip_num": 5
    },
    {
      "delay": null,
      "departure_time": "13:20:00",
      "old": true,
      "stop_lat": 50.027229,
      "stop_lon": 19.976567,
      "stop_name": "Kabel",
      "stop_num": "01",
      "stop_sequence": 20,
      "stopping": false,
      "time": null,
      "trip_id": "block_588_trip_5_service_3",
      "trip_num": 5
    },
    {
      "delay": null,
      "departure_time": "13:23:00",
      "old": true,
      "stop_lat": 50.023027,
      "stop_lon": 19.981791,
      "stop_name": "Bieżanowska",
      "stop_num": "01",
      "stop_sequence": 21,
      "stopping": false,
      "time": null,
      "trip_id": "block_588_trip_5_service_3",
      "trip_num": 5
    },
    {
      "delay": null,
      "departure_time": "13:24:00",
      "old": true,
      "stop_lat": 50.019364,
      "stop_lon": 19.988113,
      "stop_name": "Wlotowa",
      "stop_num": "01",
      "stop_sequence": 22,
      "stopping": false,
      "time": null,
      "trip_id": "block_588_trip_5_service_3",
      "trip_num": 5
    },
    {
      "delay": null,
      "departure_time": "13:25:00",
      "old": true,
      "stop_lat": 50.017526,
      "stop_lon": 19.991105,
      "stop_name": "Prokocim",
      "stop_num": "01",
      "stop_sequence": 23,
      "stopping": false,
      "time": null,
      "trip_id": "block_588_trip_5_service_3",
      "trip_num": 5
    },
    {
      "delay": null,
      "departure_time": "13:27:00",
      "old": true,
      "stop_lat": 50.014443,
      "stop_lon": 19.998952,
      "stop_name": "Prokocim Szpital",
      "stop_num": "01",
      "stop_sequence": 24,
      "stopping": false,
      "time": null,
      "trip_id": "block_588_trip_5_service_3",
      "trip_num": 5
    },
    {
      "delay": null,
      "departure_time": "13:29:00",
      "old": true,
      "stop_lat": 50.016599,
      "stop_lon": 20.007159,
      "stop_name": "Teligi",
      "stop_num": "01",
      "stop_sequence": 25,
      "stopping": false,
      "time": null,
      "trip_id": "block_588_trip_5_service_3",
      "trip_num": 5
    },
    {
      "delay": null,
      "departure_time": "13:30:00",
      "old": true,
      "stop_lat": 50.016128,
      "stop_lon": 20.012098,
      "stop_name": "Nowy Prokocim",
      "stop_num": "01",
      "stop_sequence": 26,
      "stopping": false,
      "time": null,
      "trip_id": "block_588_trip_5_service_3",
      "trip_num": 5
    },
    {
      "delay": null,
      "departure_time": "13:31:00",
      "old": true,
      "stop_lat": 50.016057,
      "stop_lon": 20.019317,
      "stop_name": "Ćwiklińskiej",
      "stop_num": "01",
      "stop_sequence": 27,
      "stopping": false,
      "time": null,
      "trip_id": "block_588_trip_5_service_3",
      "trip_num": 5
    },
    {
      "delay": null,
      "departure_time": "13:32:00",
      "old": true,
      "stop_lat": 50.015608,
      "stop_lon": 20.023053,
      "stop_name": "Nowy Bieżanów P+R",
      "stop_num": "01",
      "stop_sequence": 28,
      "stopping": false,
      "time": null,
      "trip_id": "block_588_trip_5_service_3",
      "trip_num": 5
    },
    {
      "delay": null,
      "departure_time": "13:53:00",
      "old": true,
      "stop_lat": 50.015608,
      "stop_lon": 20.023053,
      "stop_name": "Nowy Bieżanów P+R",
      "stop_num": "01",
      "stop_sequence": 1,
      "stopping": false,
      "time": null,
      "trip_id": "block_588_trip_6_service_3",
      "trip_num": 6
    },
    {
      "delay": null,
      "departure_time": "13:54:00",
      "old": true,
      "stop_lat": 50.015966,
      "stop_lon": 20.019968,
      "stop_name": "Ćwiklińskiej",
      "stop_num": "02",
      "stop_sequence": 2,
      "stopping": false,
      "time": null,
      "trip_id": "block_588_trip_6_service_3",
      "trip_num": 6
    },
    {
      "delay": null,
      "departure_time": "13:55:00",
      "old": true,
      "stop_lat": 50.016318,
      "stop_lon": 20.013226,
      "stop_name": "Nowy Prokocim",
      "stop_num": "02",
      "stop_sequence": 3,
      "stopping": false,
      "time": null,
      "trip_id": "block_588_trip_6_service_3",
      "trip_num": 6
    },
    {
      "delay": null,
      "departure_time": "13:56:00",
      "old": true,
      "stop_lat": 50.016511,
      "stop_lon": 20.007916,
      "stop_name": "Teligi",
      "stop_num": "02",
      "stop_sequence": 4,
      "stopping": false,
      "time": null,
      "trip_id": "block_588_trip_6_service_3",
      "trip_num": 6
    },
    {
      "delay": null,
      "departure_time": "13:57:00",
      "old": true,
      "stop_lat": 50.014585,
      "stop_lon": 20.000171,
      "stop_name": "Prokocim Szpital",
      "stop_num": "02",
      "stop_sequence": 5,
      "stopping": false,
      "time": null,
      "trip_id": "block_588_trip_6_service_3",
      "trip_num": 6
    },
    {
      "delay": null,
      "departure_time": "13:59:00",
      "old": true,
      "stop_lat": 50.017646,
      "stop_lon": 19.990988,
      "stop_name": "Prokocim",
      "stop_num": "02",
      "stop_sequence": 6,
      "stopping": false,
      "time": null,
      "trip_id": "block_588_trip_6_service_3",
      "trip_num": 6
    },
    {
      "delay": null,
      "departure_time": "14:00:00",
      "old": true,
      "stop_lat": 50.019553,
      "stop_lon": 19.987851,
      "stop_name": "Wlotowa",
      "stop_num": "02",
      "stop_sequence": 7,
      "stopping": false,
      "time": null,
      "trip_id": "block_588_trip_6_service_3",
      "trip_num": 6
    },
    {
      "delay": null,
      "departure_time": "14:02:00",
      "old": true,
      "stop_lat": 50.023119,
      "stop_lon": 19.981692,
      "stop_name": "Bieżanowska",
      "stop_num": "02",
      "stop_sequence": 8,
      "stopping": false,
      "time": null,
      "trip_id": "block_588_trip_6_service_3",
      "trip_num": 6
    },
    {
      "delay": null,
      "departure_time": "14:03:00",
      "old": true,
      "stop_lat": 50.026621,
      "stop_lon": 19.977231,
      "stop_name": "Kabel",
      "stop_num": "02",
      "stop_sequence": 9,
      "stopping": false,
      "time": null,
      "trip_id": "block_588_trip_6_service_3",
      "trip_num": 6
    },
    {
      "delay": null,
      "departure_time": "14:05:00",
      "old": true,
      "stop_lat": 50.033556,
      "stop_lon": 19.977196,
      "stop_name": "Dworzec Płaszów Estakada",
      "stop_num": "01",
      "stop_sequence": 10,
      "stopping": false,
      "time": null,
      "trip_id": "block_588_trip_6_service_3",
      "trip_num": 6
    },
    {
      "delay": null,
      "departure_time": "14:07:00",
      "old": true,
      "stop_lat": 50.040688,
      "stop_lon": 19.981676,
      "stop_name": "Lipska",
      "stop_num": "02",
      "stop_sequence": 11,
      "stopping": false,
      "time": null,
      "trip_id": "block_588_trip_6_service_3",
      "trip_num": 6
    },
    {
      "delay": null,
      "departure_time": "14:08:00",
      "old": true,
      "stop_lat": 50.040657,
      "stop_lon": 19.978076,
      "stop_name": "Gromadzka",
      "stop_num": "02",
      "stop_sequence": 12,
      "stopping": false,
      "time": null,
      "trip_id": "block_588_trip_6_service_3",
      "trip_num": 6
    },
    {
      "delay": null,
      "departure_time": "14:10:00",
      "old": true,
      "stop_lat": 50.044575,
      "stop_lon": 19.973602,
      "stop_name": "Kuklińskiego",
      "stop_num": "02",
      "stop_sequence": 13,
      "stopping": false,
      "time": null,
      "trip_id": "block_588_trip_6_service_3",
      "trip_num": 6
    },
    {
      "delay": null,
      "departure_time": "14:11:00",
      "old": true,
      "stop_lat": 50.049016,
      "stop_lon": 19.967621,
      "stop_name": "Klimeckiego",
      "stop_num": "02",
      "stop_sequence": 14,
      "stopping": false,
      "time": null,
      "trip_id": "block_588_trip_6_service_3",
      "trip_num": 6
    },
    {
      "delay": null,
      "departure_time": "14:12:00",
      "old": true,
      "stop_lat": 50.049951,
      "stop_lon": 19.964216,
      "stop_name": "Zabłocie",
      "stop_num": "02",
      "stop_sequence": 15,
      "stopping": false,
      "time": null,
      "trip_id": "block_588_trip_6_service_3",
      "trip_num": 6
    },
    {
      "delay": null,
      "departure_time": "14:15:00",
      "old": true,
      "stop_lat": 50.058426,
      "stop_lon": 19.959244,
      "stop_name": "Rondo Grzegórzeckie",
      "stop_num": "03",
      "stop_sequence": 16,
      "stopping": false,
      "time": null,
      "trip_id": "block_588_trip_6_service_3",
      "trip_num": 6
    },
    {
      "delay": null,
      "departure_time": "14:17:00",
      "old": true,
      "stop_lat": 50.065759,
      "stop_lon": 19.959864,
      "stop_name": "Rondo Mogilskie",
      "stop_num": "02",
      "stop_sequence": 17,
      "stopping": false,
      "time": null,
      "trip_id": "block_588_trip_6_service_3",
      "trip_num": 6
    },
    {
      "delay": null,
      "departure_time": "14:18:00",
      "old": true,
      "stop_lat": 50.066523,
      "stop_lon": 19.970519,
      "stop_name": "Cystersów",
      "stop_num": "01",
      "stop_sequence": 18,
      "stopping": false,
      "time": null,
      "trip_id": "block_588_trip_6_service_3",
      "trip_num": 6
    },
    {
      "delay": null,
      "departure_time": "14:20:00",
      "old": true,
      "stop_lat": 50.067841,
      "stop_lon": 19.977991,
      "stop_name": "Białucha",
      "stop_num": "01",
      "stop_sequence": 19,
      "stopping": false,
      "time": null,
      "trip_id": "block_588_trip_6_service_3",
      "trip_num": 6
    },
    {
      "delay": null,
      "departure_time": "14:23:00",
      "old": true,
      "stop_lat": 50.07352,
      "stop_lon": 19.990472,
      "stop_name": "Muzeum Lotnictwa Polskiego",
      "stop_num": "01",
      "stop_sequence": 20,
      "stopping": false,
      "time": null,
      "trip_id": "block_588_trip_6_service_3",
      "trip_num": 6
    },
    {
      "delay": null,
      "departure_time": "14:24:00",
      "old": true,
      "stop_lat": 50.073967,
      "stop_lon": 19.99881,
      "stop_name": "AKF / PK",
      "stop_num": "01",
      "stop_sequence": 21,
      "stopping": false,
      "time": null,
      "trip_id": "block_588_trip_6_service_3",
      "trip_num": 6
    },
    {
      "delay": null,
      "departure_time": "14:25:00",
      "old": true,
      "stop_lat": 50.074273,
      "stop_lon": 20.004747,
      "stop_name": "Stella-Sawickiego",
      "stop_num": "01",
      "stop_sequence": 22,
      "stopping": false,
      "time": null,
      "trip_id": "block_588_trip_6_service_3",
      "trip_num": 6
    },
    {
      "delay": null,
      "departure_time": "14:26:00",
      "old": true,
      "stop_lat": 50.07399,
      "stop_lon": 20.011459,
      "stop_name": "Czyżyny",
      "stop_num": "01",
      "stop_sequence": 23,
      "stopping": false,
      "time": null,
      "trip_id": "block_588_trip_6_service_3",
      "trip_num": 6
    },
    {
      "delay": null,
      "departure_time": "14:29:00",
      "old": true,
      "stop_lat": 50.074193,
      "stop_lon": 20.018028,
      "stop_name": "Rondo Czyżyńskie",
      "stop_num": "03",
      "stop_sequence": 24,
      "stopping": false,
      "time": null,
      "trip_id": "block_588_trip_6_service_3",
      "trip_num": 6
    },
    {
      "delay": null,
      "departure_time": "14:30:00",
      "old": true,
      "stop_lat": 50.0757,
      "stop_lon": 20.02058,
      "stop_name": "Bieńczycka",
      "stop_num": "02",
      "stop_sequence": 25,
      "stopping": false,
      "time": null,
      "trip_id": "block_588_trip_6_service_3",
      "trip_num": 6
    },
    {
      "delay": null,
      "departure_time": "14:33:00",
      "old": true,
      "stop_lat": 50.080257,
      "stop_lon": 20.026561,
      "stop_name": "Rondo Kocmyrzowskie im. Ks. Gorzelanego",
      "stop_num": "01",
      "stop_sequence": 26,
      "stopping": false,
      "time": null,
      "trip_id": "block_588_trip_6_service_3",
      "trip_num": 6
    },
    {
      "delay": null,
      "departure_time": "14:34:00",
      "old": true,
      "stop_lat": 50.084477,
      "stop_lon": 20.020671,
      "stop_name": "DH Wanda",
      "stop_num": "01",
      "stop_sequence": 27,
      "stopping": false,
      "time": null,
      "trip_id": "block_588_trip_6_service_3",
      "trip_num": 6
    },
    {
      "delay": null,
      "departure_time": "14:36:00",
      "old": true,
      "stop_lat": 50.090094,
      "stop_lon": 20.021355,
      "stop_name": "Rondo Hipokratesa",
      "stop_num": "02",
      "stop_sequence": 28,
      "stopping": false,
      "time": null,
      "trip_id": "block_588_trip_6_service_3",
      "trip_num": 6
    },
    {
      "delay": null,
      "departure_time": "14:47:00",
      "old": true,
      "stop_lat": 50.090094,
      "stop_lon": 20.021355,
      "stop_name": "Rondo Hipokratesa",
      "stop_num": "02",
      "stop_sequence": 1,
      "stopping": false,
      "time": null,
      "trip_id": "block_588_trip_7_service_3",
      "trip_num": 7
    },
    {
      "delay": null,
      "departure_time": "14:48:00",
      "old": true,
      "stop_lat": 50.084432,
      "stop_lon": 20.020689,
      "stop_name": "DH Wanda",
      "stop_num": "02",
      "stop_sequence": 2,
      "stopping": false,
      "time": null,
      "trip_id": "block_588_trip_7_service_3",
      "trip_num": 7
    },
    {
      "delay": null,
      "departure_time": "14:51:00",
      "old": true,
      "stop_lat": 50.07905,
      "stop_lon": 20.026486,
      "stop_name": "Rondo Kocmyrzowskie im. Ks. Gorzelanego",
      "stop_num": "02",
      "stop_sequence": 3,
      "stopping": false,
      "time": null,
      "trip_id": "block_588_trip_7_service_3",
      "trip_num": 7
    },
    {
      "delay": null,
      "departure_time": "14:52:00",
      "old": true,
      "stop_lat": 50.075661,
      "stop_lon": 20.02044,
      "stop_name": "Bieńczycka",
      "stop_num": "01",
      "stop_sequence": 4,
      "stopping": false,
      "time": null,
      "trip_id": "block_588_trip_7_service_3",
      "trip_num": 7
    },
    {
      "delay": null,
      "departure_time": "14:55:00",
      "old": true,
      "stop_lat": 50.07358,
      "stop_lon": 20.01606,
      "stop_name": "Rondo Czyżyńskie",
      "stop_num": "02",
      "stop_sequence": 5,
      "stopping": false,
      "time": null,
      "trip_id": "block_588_trip_7_service_3",
      "trip_num": 7
    },
    {
      "delay": null,
      "departure_time": "14:56:00",
      "old": true,
      "stop_lat": 50.074038,
      "stop_lon": 20.011272,
      "stop_name": "Czyżyny",
      "stop_num": "02",
      "stop_sequence": 6,
      "stopping": false,
      "time": null,
      "trip_id": "block_588_trip_7_service_3",
      "trip_num": 7
    },
    {
      "delay": null,
      "departure_time": "14:57:00",
      "old": true,
      "stop_lat": 50.074302,
      "stop_lon": 20.00459,
      "stop_name": "Stella-Sawickiego",
      "stop_num": "02",
      "stop_sequence": 7,
      "stopping": false,
      "time": null,
      "trip_id": "block_588_trip_7_service_3",
      "trip_num": 7
    },
    {
      "delay": null,
      "departure_time": "14:58:00",
      "old": true,
      "stop_lat": 50.074015,
      "stop_lon": 19.998685,
      "stop_name": "AKF / PK",
      "stop_num": "02",
      "stop_sequence": 8,
      "stopping": false,
      "time": null,
      "trip_id": "block_588_trip_7_service_3",
      "trip_num": 7
    },
    {
      "delay": null,
      "departure_time": "14:59:00",
      "old": true,
      "stop_lat": 50.073539,
      "stop_lon": 19.990254,
      "stop_name": "Muzeum Lotnictwa Polskiego",
      "stop_num": "02",
      "stop_sequence": 9,
      "stopping": false,
      "time": null,
      "trip_id": "block_588_trip_7_service_3",
      "trip_num": 7
    },
    {
      "delay": null,
      "departure_time": "15:02:00",
      "old": true,
      "stop_lat": 50.067597,
      "stop_lon": 19.977192,
      "stop_name": "Białucha",
      "stop_num": "02",
      "stop_sequence": 10,
      "stopping": false,
      "time": null,
      "trip_id": "block_588_trip_7_service_3",
      "trip_num": 7
    },
    {
      "delay": null,
      "departure_time": "15:04:00",
      "old": true,
      "stop_lat": 50.06654,
      "stop_lon": 19.969149,
      "stop_name": "Cystersów",
      "stop_num": "02",
      "stop_sequence": 11,
      "stopping": false,
      "time": null,
      "trip_id": "block_588_trip_7_service_3",
      "trip_num": 7
    },
    {
      "delay": null,
      "departure_time": "15:06:00",
      "old": true,
      "stop_lat": 50.064865,
      "stop_lon": 19.959303,
      "stop_name": "Rondo Mogilskie",
      "stop_num": "03",
      "stop_sequence": 12,
      "stopping": false,
      "time": null,
      "trip_id": "block_588_trip_7_service_3",
      "trip_num": 7
    },
    {
      "delay": null,
      "departure_time": "15:09:00",
      "old": true,
      "stop_lat": 50.056894,
      "stop_lon": 19.958941,
      "stop_name": "Rondo Grzegórzeckie",
      "stop_num": "04",
      "stop_sequence": 13,
      "stopping": false,
      "time": null,
      "trip_id": "block_588_trip_7_service_3",
      "trip_num": 7
    },
    {
      "delay": null,
      "departure_time": "15:10:00",
      "old": true,
      "stop_lat": 50.0497,
      "stop_lon": 19.965148,
      "stop_name": "Zabłocie",
      "stop_num": "01",
      "stop_sequence": 14,
      "stopping": false,
      "time": null,
      "trip_id": "block_588_trip_7_service_3",
      "trip_num": 7
    },
    {
      "delay": null,
      "departure_time": "15:11:00",
      "old": true,
      "stop_lat": 50.048976,
      "stop_lon": 19.967573,
      "stop_name": "Klimeckiego",
      "stop_num": "01",
      "stop_sequence": 15,
      "stopping": false,
      "time": null,
      "trip_id": "block_588_trip_7_service_3",
      "trip_num": 7
    },
    {
      "delay": null,
      "departure_time": "15:13:00",
      "old": true,
      "stop_lat": 50.044529,
      "stop_lon": 19.973549,
      "stop_name": "Kuklińskiego",
      "stop_num": "01",
      "stop_sequence": 16,
      "stopping": false,
      "time": null,
      "trip_id": "block_588_trip_7_service_3",
      "trip_num": 7
    },
    {
      "delay": null,
      "departure_time": "15:14:00",
      "old": true,
      "stop_lat": 50.040619,
      "stop_lon": 19.978092,
      "stop_name": "Gromadzka",
      "stop_num": "01",
      "stop_sequence": 17,
      "stopping": false,
      "time": null,
      "trip_id": "block_588_trip_7_service_3",
      "trip_num": 7
    },
    {
      "delay": null,
      "departure_time": "15:16:00",
      "old": true,
      "stop_lat": 50.039687,
      "stop_lon": 19.982994,
      "stop_name": "Lipska",
      "stop_num": "03",
      "stop_sequence": 18,
      "stopping": false,
      "time": null,
      "trip_id": "block_588_trip_7_service_3",
      "trip_num": 7
    },
    {
      "delay": null,
      "departure_time": "15:18:00",
      "old": true,
      "stop_lat": 50.033468,
      "stop_lon": 19.976946,
      "stop_name": "Dworzec Płaszów Estakada",
      "stop_num": "02",
      "stop_sequence": 19,
      "stopping": false,
      "time": null,
      "trip_id": "block_588_trip_7_service_3",
      "trip_num": 7
    },
    {
      "delay": null,
      "departure_time": "15:20:00",
      "old": true,
      "stop_lat": 50.027229,
      "stop_lon": 19.976567,
      "stop_name": "Kabel",
      "stop_num": "01",
      "stop_sequence": 20,
      "stopping": false,
      "time": null,
      "trip_id": "block_588_trip_7_service_3",
      "trip_num": 7
    },
    {
      "delay": null,
      "departure_time": "15:23:00",
      "old": true,
      "stop_lat": 50.023027,
      "stop_lon": 19.981791,
      "stop_name": "Bieżanowska",
      "stop_num": "01",
      "stop_sequence": 21,
      "stopping": false,
      "time": null,
      "trip_id": "block_588_trip_7_service_3",
      "trip_num": 7
    },
    {
      "delay": null,
      "departure_time": "15:24:00",
      "old": true,
      "stop_lat": 50.019364,
      "stop_lon": 19.988113,
      "stop_name": "Wlotowa",
      "stop_num": "01",
      "stop_sequence": 22,
      "stopping": false,
      "time": null,
      "trip_id": "block_588_trip_7_service_3",
      "trip_num": 7
    },
    {
      "delay": null,
      "departure_time": "15:25:00",
      "old": true,
      "stop_lat": 50.017526,
      "stop_lon": 19.991105,
      "stop_name": "Prokocim",
      "stop_num": "01",
      "stop_sequence": 23,
      "stopping": false,
      "time": null,
      "trip_id": "block_588_trip_7_service_3",
      "trip_num": 7
    },
    {
      "delay": null,
      "departure_time": "15:27:00",
      "old": true,
      "stop_lat": 50.014443,
      "stop_lon": 19.998952,
      "stop_name": "Prokocim Szpital",
      "stop_num": "01",
      "stop_sequence": 24,
      "stopping": false,
      "time": null,
      "trip_id": "block_588_trip_7_service_3",
      "trip_num": 7
    },
    {
      "delay": null,
      "departure_time": "15:29:00",
      "old": true,
      "stop_lat": 50.016599,
      "stop_lon": 20.007159,
      "stop_name": "Teligi",
      "stop_num": "01",
      "stop_sequence": 25,
      "stopping": false,
      "time": null,
      "trip_id": "block_588_trip_7_service_3",
      "trip_num": 7
    },
    {
      "delay": null,
      "departure_time": "15:30:00",
      "old": true,
      "stop_lat": 50.016128,
      "stop_lon": 20.012098,
      "stop_name": "Nowy Prokocim",
      "stop_num": "01",
      "stop_sequence": 26,
      "stopping": false,
      "time": null,
      "trip_id": "block_588_trip_7_service_3",
      "trip_num": 7
    },
    {
      "delay": null,
      "departure_time": "15:31:00",
      "old": true,
      "stop_lat": 50.016057,
      "stop_lon": 20.019317,
      "stop_name": "Ćwiklińskiej",
      "stop_num": "01",
      "stop_sequence": 27,
      "stopping": false,
      "time": null,
      "trip_id": "block_588_trip_7_service_3",
      "trip_num": 7
    },
    {
      "delay": null,
      "departure_time": "15:32:00",
      "old": true,
      "stop_lat": 50.015608,
      "stop_lon": 20.023053,
      "stop_name": "Nowy Bieżanów P+R",
      "stop_num": "01",
      "stop_sequence": 28,
      "stopping": false,
      "time": null,
      "trip_id": "block_588_trip_7_service_3",
      "trip_num": 7
    },
    {
      "delay": null,
      "departure_time": "15:53:00",
      "old": true,
      "stop_lat": 50.015608,
      "stop_lon": 20.023053,
      "stop_name": "Nowy Bieżanów P+R",
      "stop_num": "01",
      "stop_sequence": 1,
      "stopping": false,
      "time": null,
      "trip_id": "block_588_trip_8_service_3",
      "trip_num": 8
    },
    {
      "delay": null,
      "departure_time": "15:54:00",
      "old": true,
      "stop_lat": 50.015966,
      "stop_lon": 20.019968,
      "stop_name": "Ćwiklińskiej",
      "stop_num": "02",
      "stop_sequence": 2,
      "stopping": false,
      "time": null,
      "trip_id": "block_588_trip_8_service_3",
      "trip_num": 8
    },
    {
      "delay": null,
      "departure_time": "15:55:00",
      "old": true,
      "stop_lat": 50.016318,
      "stop_lon": 20.013226,
      "stop_name": "Nowy Prokocim",
      "stop_num": "02",
      "stop_sequence": 3,
      "stopping": false,
      "time": null,
      "trip_id": "block_588_trip_8_service_3",
      "trip_num": 8
    },
    {
      "delay": null,
      "departure_time": "15:56:00",
      "old": true,
      "stop_lat": 50.016511,
      "stop_lon": 20.007916,
      "stop_name": "Teligi",
      "stop_num": "02",
      "stop_sequence": 4,
      "stopping": false,
      "time": null,
      "trip_id": "block_588_trip_8_service_3",
      "trip_num": 8
    },
    {
      "delay": null,
      "departure_time": "15:57:00",
      "old": true,
      "stop_lat": 50.014585,
      "stop_lon": 20.000171,
      "stop_name": "Prokocim Szpital",
      "stop_num": "02",
      "stop_sequence": 5,
      "stopping": false,
      "time": null,
      "trip_id": "block_588_trip_8_service_3",
      "trip_num": 8
    },
    {
      "delay": null,
      "departure_time": "15:59:00",
      "old": true,
      "stop_lat": 50.017646,
      "stop_lon": 19.990988,
      "stop_name": "Prokocim",
      "stop_num": "02",
      "stop_sequence": 6,
      "stopping": false,
      "time": null,
      "trip_id": "block_588_trip_8_service_3",
      "trip_num": 8
    },
    {
      "delay": null,
      "departure_time": "16:00:00",
      "old": true,
      "stop_lat": 50.019553,
      "stop_lon": 19.987851,
      "stop_name": "Wlotowa",
      "stop_num": "02",
      "stop_sequence": 7,
      "stopping": false,
      "time": null,
      "trip_id": "block_588_trip_8_service_3",
      "trip_num": 8
    },
    {
      "delay": null,
      "departure_time": "16:02:00",
      "old": true,
      "stop_lat": 50.023119,
      "stop_lon": 19.981692,
      "stop_name": "Bieżanowska",
      "stop_num": "02",
      "stop_sequence": 8,
      "stopping": false,
      "time": null,
      "trip_id": "block_588_trip_8_service_3",
      "trip_num": 8
    },
    {
      "delay": null,
      "departure_time": "16:03:00",
      "old": true,
      "stop_lat": 50.026621,
      "stop_lon": 19.977231,
      "stop_name": "Kabel",
      "stop_num": "02",
      "stop_sequence": 9,
      "stopping": false,
      "time": null,
      "trip_id": "block_588_trip_8_service_3",
      "trip_num": 8
    },
    {
      "delay": null,
      "departure_time": "16:05:00",
      "old": true,
      "stop_lat": 50.033556,
      "stop_lon": 19.977196,
      "stop_name": "Dworzec Płaszów Estakada",
      "stop_num": "01",
      "stop_sequence": 10,
      "stopping": false,
      "time": null,
      "trip_id": "block_588_trip_8_service_3",
      "trip_num": 8
    },
    {
      "delay": null,
      "departure_time": "16:07:00",
      "old": true,
      "stop_lat": 50.040688,
      "stop_lon": 19.981676,
      "stop_name": "Lipska",
      "stop_num": "02",
      "stop_sequence": 11,
      "stopping": false,
      "time": null,
      "trip_id": "block_588_trip_8_service_3",
      "trip_num": 8
    },
    {
      "delay": null,
      "departure_time": "16:08:00",
      "old": true,
      "stop_lat": 50.040657,
      "stop_lon": 19.978076,
      "stop_name": "Gromadzka",
      "stop_num": "02",
      "stop_sequence": 12,
      "stopping": false,
      "time": null,
      "trip_id": "block_588_trip_8_service_3",
      "trip_num": 8
    },
    {
      "delay": null,
      "departure_time": "16:10:00",
      "old": true,
      "stop_lat": 50.044575,
      "stop_lon": 19.973602,
      "stop_name": "Kuklińskiego",
      "stop_num": "02",
      "stop_sequence": 13,
      "stopping": false,
      "time": null,
      "trip_id": "block_588_trip_8_service_3",
      "trip_num": 8
    },
    {
      "delay": null,
      "departure_time": "16:11:00",
      "old": true,
      "stop_lat": 50.049016,
      "stop_lon": 19.967621,
      "stop_name": "Klimeckiego",
      "stop_num": "02",
      "stop_sequence": 14,
      "stopping": false,
      "time": null,
      "trip_id": "block_588_trip_8_service_3",
      "trip_num": 8
    },
    {
      "delay": null,
      "departure_time": "16:12:00",
      "old": true,
      "stop_lat": 50.049951,
      "stop_lon": 19.964216,
      "stop_name": "Zabłocie",
      "stop_num": "02",
      "stop_sequence": 15,
      "stopping": false,
      "time": null,
      "trip_id": "block_588_trip_8_service_3",
      "trip_num": 8
    },
    {
      "delay": null,
      "departure_time": "16:15:00",
      "old": true,
      "stop_lat": 50.058426,
      "stop_lon": 19.959244,
      "stop_name": "Rondo Grzegórzeckie",
      "stop_num": "03",
      "stop_sequence": 16,
      "stopping": false,
      "time": null,
      "trip_id": "block_588_trip_8_service_3",
      "trip_num": 8
    },
    {
      "delay": null,
      "departure_time": "16:17:00",
      "old": true,
      "stop_lat": 50.065759,
      "stop_lon": 19.959864,
      "stop_name": "Rondo Mogilskie",
      "stop_num": "02",
      "stop_sequence": 17,
      "stopping": false,
      "time": null,
      "trip_id": "block_588_trip_8_service_3",
      "trip_num": 8
    },
    {
      "delay": null,
      "departure_time": "16:18:00",
      "old": true,
      "stop_lat": 50.066523,
      "stop_lon": 19.970519,
      "stop_name": "Cystersów",
      "stop_num": "01",
      "stop_sequence": 18,
      "stopping": false,
      "time": null,
      "trip_id": "block_588_trip_8_service_3",
      "trip_num": 8
    },
    {
      "delay": null,
      "departure_time": "16:20:00",
      "old": true,
      "stop_lat": 50.067841,
      "stop_lon": 19.977991,
      "stop_name": "Białucha",
      "stop_num": "01",
      "stop_sequence": 19,
      "stopping": false,
      "time": null,
      "trip_id": "block_588_trip_8_service_3",
      "trip_num": 8
    },
    {
      "delay": null,
      "departure_time": "16:23:00",
      "old": true,
      "stop_lat": 50.07352,
      "stop_lon": 19.990472,
      "stop_name": "Muzeum Lotnictwa Polskiego",
      "stop_num": "01",
      "stop_sequence": 20,
      "stopping": false,
      "time": null,
      "trip_id": "block_588_trip_8_service_3",
      "trip_num": 8
    },
    {
      "delay": null,
      "departure_time": "16:24:00",
      "old": true,
      "stop_lat": 50.073967,
      "stop_lon": 19.99881,
      "stop_name": "AKF / PK",
      "stop_num": "01",
      "stop_sequence": 21,
      "stopping": false,
      "time": null,
      "trip_id": "block_588_trip_8_service_3",
      "trip_num": 8
    },
    {
      "delay": null,
      "departure_time": "16:25:00",
      "old": true,
      "stop_lat": 50.074273,
      "stop_lon": 20.004747,
      "stop_name": "Stella-Sawickiego",
      "stop_num": "01",
      "stop_sequence": 22,
      "stopping": false,
      "time": null,
      "trip_id": "block_588_trip_8_service_3",
      "trip_num": 8
    },
    {
      "delay": null,
      "departure_time": "16:26:00",
      "old": true,
      "stop_lat": 50.07399,
      "stop_lon": 20.011459,
      "stop_name": "Czyżyny",
      "stop_num": "01",
      "stop_sequence": 23,
      "stopping": false,
      "time": null,
      "trip_id": "block_588_trip_8_service_3",
      "trip_num": 8
    },
    {
      "delay": null,
      "departure_time": "16:29:00",
      "old": true,
      "stop_lat": 50.074193,
      "stop_lon": 20.018028,
      "stop_name": "Rondo Czyżyńskie",
      "stop_num": "03",
      "stop_sequence": 24,
      "stopping": false,
      "time": null,
      "trip_id": "block_588_trip_8_service_3",
      "trip_num": 8
    },
    {
      "delay": null,
      "departure_time": "16:30:00",
      "old": true,
      "stop_lat": 50.0757,
      "stop_lon": 20.02058,
      "stop_name": "Bieńczycka",
      "stop_num": "02",
      "stop_sequence": 25,
      "stopping": false,
      "time": null,
      "trip_id": "block_588_trip_8_service_3",
      "trip_num": 8
    },
    {
      "delay": null,
      "departure_time": "16:33:00",
      "old": true,
      "stop_lat": 50.080257,
      "stop_lon": 20.026561,
      "stop_name": "Rondo Kocmyrzowskie im. Ks. Gorzelanego",
      "stop_num": "01",
      "stop_sequence": 26,
      "stopping": false,
      "time": null,
      "trip_id": "block_588_trip_8_service_3",
      "trip_num": 8
    },
    {
      "delay": null,
      "departure_time": "16:34:00",
      "old": true,
      "stop_lat": 50.084477,
      "stop_lon": 20.020671,
      "stop_name": "DH Wanda",
      "stop_num": "01",
      "stop_sequence": 27,
      "stopping": false,
      "time": null,
      "trip_id": "block_588_trip_8_service_3",
      "trip_num": 8
    },
    {
      "delay": null,
      "departure_time": "16:36:00",
      "old": true,
      "stop_lat": 50.090094,
      "stop_lon": 20.021355,
      "stop_name": "Rondo Hipokratesa",
      "stop_num": "02",
      "stop_sequence": 28,
      "stopping": false,
      "time": null,
      "trip_id": "block_588_trip_8_service_3",
      "trip_num": 8
    },
    {
      "delay": null,
      "departure_time": "16:47:00",
      "old": true,
      "stop_lat": 50.090094,
      "stop_lon": 20.021355,
      "stop_name": "Rondo Hipokratesa",
      "stop_num": "02",
      "stop_sequence": 1,
      "stopping": false,
      "time": null,
      "trip_id": "block_588_trip_9_service_3",
      "trip_num": 9
    },
    {
      "delay": 7.0,
      "departure_time": "16:48:00",
      "old": false,
      "stop_lat": 50.084432,
      "stop_lon": 20.020689,
      "stop_name": "DH Wanda",
      "stop_num": "02",
      "stop_sequence": 2,
      "stopping": false,
      "time": 1762703287.0,
      "trip_id": "block_588_trip_9_service_3",
      "trip_num": 9
    },
    {
      "delay": 7.0,
      "departure_time": "16:51:00",
      "old": false,
      "stop_lat": 50.07905,
      "stop_lon": 20.026486,
      "stop_name": "Rondo Kocmyrzowskie im. Ks. Gorzelanego",
      "stop_num": "02",
      "stop_sequence": 3,
      "stopping": false,
      "time": 1762703467.0,
      "trip_id": "block_588_trip_9_service_3",
      "trip_num": 9
    },
    {
      "delay": 7.0,
      "departure_time": "16:52:00",
      "old": false,
      "stop_lat": 50.075661,
      "stop_lon": 20.02044,
      "stop_name": "Bieńczycka",
      "stop_num": "01",
      "stop_sequence": 4,
      "stopping": false,
      "time": 1762703527.0,
      "trip_id": "block_588_trip_9_service_3",
      "trip_num": 9
    },
    {
      "delay": 7.0,
      "departure_time": "16:55:00",
      "old": false,
      "stop_lat": 50.07358,
      "stop_lon": 20.01606,
      "stop_name": "Rondo Czyżyńskie",
      "stop_num": "02",
      "stop_sequence": 5,
      "stopping": false,
      "time": 1762703707.0,
      "trip_id": "block_588_trip_9_service_3",
      "trip_num": 9
    },
    {
      "delay": 7.0,
      "departure_time": "16:56:00",
      "old": false,
      "stop_lat": 50.074038,
      "stop_lon": 20.011272,
      "stop_name": "Czyżyny",
      "stop_num": "02",
      "stop_sequence": 6,
      "stopping": false,
      "time": 1762703767.0,
      "trip_id": "block_588_trip_9_service_3",
      "trip_num": 9
    },
    {
      "delay": 7.0,
      "departure_time": "16:57:00",
      "old": false,
      "stop_lat": 50.074302,
      "stop_lon": 20.00459,
      "stop_name": "Stella-Sawickiego",
      "stop_num": "02",
      "stop_sequence": 7,
      "stopping": false,
      "time": 1762703827.0,
      "trip_id": "block_588_trip_9_service_3",
      "trip_num": 9
    },
    {
      "delay": 7.0,
      "departure_time": "16:58:00",
      "old": false,
      "stop_lat": 50.074015,
      "stop_lon": 19.998685,
      "stop_name": "AKF / PK",
      "stop_num": "02",
      "stop_sequence": 8,
      "stopping": false,
      "time": 1762703887.0,
      "trip_id": "block_588_trip_9_service_3",
      "trip_num": 9
    },
    {
      "delay": 7.0,
      "departure_time": "16:59:00",
      "old": false,
      "stop_lat": 50.073539,
      "stop_lon": 19.990254,
      "stop_name": "Muzeum Lotnictwa Polskiego",
      "stop_num": "02",
      "stop_sequence": 9,
      "stopping": false,
      "time": 1762703947.0,
      "trip_id": "block_588_trip_9_service_3",
      "trip_num": 9
    },
    {
      "delay": 7.0,
      "departure_time": "17:02:00",
      "old": false,
      "stop_lat": 50.067597,
      "stop_lon": 19.977192,
      "stop_name": "Białucha",
      "stop_num": "02",
      "stop_sequence": 10,
      "stopping": false,
      "time": 1762704127.0,
      "trip_id": "block_588_trip_9_service_3",
      "trip_num": 9
    },
    {
      "delay": 7.0,
      "departure_time": "17:04:00",
      "old": false,
      "stop_lat": 50.06654,
      "stop_lon": 19.969149,
      "stop_name": "Cystersów",
      "stop_num": "02",
      "stop_sequence": 11,
      "stopping": false,
      "time": 1762704247.0,
      "trip_id": "block_588_trip_9_service_3",
      "trip_num": 9
    },
    {
      "delay": 7.0,
      "departure_time": "17:06:00",
      "old": false,
      "stop_lat": 50.064865,
      "stop_lon": 19.959303,
      "stop_name": "Rondo Mogilskie",
      "stop_num": "03",
      "stop_sequence": 12,
      "stopping": false,
      "time": 1762704367.0,
      "trip_id": "block_588_trip_9_service_3",
      "trip_num": 9
    },
    {
      "delay": 7.0,
      "departure_time": "17:09:00",
      "old": false,
      "stop_lat": 50.056894,
      "stop_lon": 19.958941,
      "stop_name": "Rondo Grzegórzeckie",
      "stop_num": "04",
      "stop_sequence": 13,
      "stopping": false,
      "time": 1762704547.0,
      "trip_id": "block_588_trip_9_service_3",
      "trip_num": 9
    },
    {
      "delay": 7.0,
      "departure_time": "17:10:00",
      "old": false,
      "stop_lat": 50.0497,
      "stop_lon": 19.965148,
      "stop_name": "Zabłocie",
      "stop_num": "01",
      "stop_sequence": 14,
      "stopping": false,
      "time": 1762704607.0,
      "trip_id": "block_588_trip_9_service_3",
      "trip_num": 9
    },
    {
      "delay": 7.0,
      "departure_time": "17:11:00",
      "old": false,
      "stop_lat": 50.048976,
      "stop_lon": 19.967573,
      "stop_name": "Klimeckiego",
      "stop_num": "01",
      "stop_sequence": 15,
      "stopping": false,
      "time": 1762704667.0,
      "trip_id": "block_588_trip_9_service_3",
      "trip_num": 9
    },
    {
      "delay": 7.0,
      "departure_time": "17:13:00",
      "old": false,
      "stop_lat": 50.044529,
      "stop_lon": 19.973549,
      "stop_name": "Kuklińskiego",
      "stop_num": "01",
      "stop_sequence": 16,
      "stopping": false,
      "time": 1762704787.0,
      "trip_id": "block_588_trip_9_service_3",
      "trip_num": 9
    },
    {
      "delay": 7.0,
      "departure_time": "17:14:00",
      "old": false,
      "stop_lat": 50.040619,
      "stop_lon": 19.978092,
      "stop_name": "Gromadzka",
      "stop_num": "01",
      "stop_sequence": 17,
      "stopping": false,
      "time": 1762704847.0,
      "trip_id": "block_588_trip_9_service_3",
      "trip_num": 9
    },
    {
      "delay": 7.0,
      "departure_time": "17:16:00",
      "old": false,
      "stop_lat": 50.039687,
      "stop_lon": 19.982994,
      "stop_name": "Lipska",
      "stop_num": "03",
      "stop_sequence": 18,
      "stopping": false,
      "time": 1762704967.0,
      "trip_id": "block_588_trip_9_service_3",
      "trip_num": 9
    },
    {
      "delay": 7.0,
      "departure_time": "17:18:00",
      "old": false,
      "stop_lat": 50.033468,
      "stop_lon": 19.976946,
      "stop_name": "Dworzec Płaszów Estakada",
      "stop_num": "02",
      "stop_sequence": 19,
      "stopping": false,
      "time": 1762705087.0,
      "trip_id": "block_588_trip_9_service_3",
      "trip_num": 9
    },
    {
      "delay": 7.0,
      "departure_time": "17:20:00",
      "old": false,
      "stop_lat": 50.027229,
      "stop_lon": 19.976567,
      "stop_name": "Kabel",
      "stop_num": "01",
      "stop_sequence": 20,
      "stopping": false,
      "time": 1762705207.0,
      "trip_id": "block_588_trip_9_service_3",
      "trip_num": 9
    },
    {
      "delay": 7.0,
      "departure_time": "17:23:00",
      "old": false,
      "stop_lat": 50.023027,
      "stop_lon": 19.981791,
      "stop_name": "Bieżanowska",
      "stop_num": "01",
      "stop_sequence": 21,
      "stopping": false,
      "time": 1762705387.0,
      "trip_id": "block_588_trip_9_service_3",
      "trip_num": 9
    },
    {
      "delay": 7.0,
      "departure_time": "17:24:00",
      "old": false,
      "stop_lat": 50.019364,
      "stop_lon": 19.988113,
      "stop_name": "Wlotowa",
      "stop_num": "01",
      "stop_sequence": 22,
      "stopping": false,
      "time": 1762705447.0,
      "trip_id": "block_588_trip_9_service_3",
      "trip_num": 9
    },
    {
      "delay": 7.0,
      "departure_time": "17:25:00",
      "old": false,
      "stop_lat": 50.017526,
      "stop_lon": 19.991105,
      "stop_name": "Prokocim",
      "stop_num": "01",
      "stop_sequence": 23,
      "stopping": false,
      "time": 1762705507.0,
      "trip_id": "block_588_trip_9_service_3",
      "trip_num": 9
    },
    {
      "delay": 7.0,
      "departure_time": "17:27:00",
      "old": false,
      "stop_lat": 50.014443,
      "stop_lon": 19.998952,
      "stop_name": "Prokocim Szpital",
      "stop_num": "01",
      "stop_sequence": 24,
      "stopping": false,
      "time": 1762705627.0,
      "trip_id": "block_588_trip_9_service_3",
      "trip_num": 9
    },
    {
      "delay": 7.0,
      "departure_time": "17:29:00",
      "old": false,
      "stop_lat": 50.016599,
      "stop_lon": 20.007159,
      "stop_name": "Teligi",
      "stop_num": "01",
      "stop_sequence": 25,
      "stopping": false,
      "time": 1762705747.0,
      "trip_id": "block_588_trip_9_service_3",
      "trip_num": 9
    },
    {
      "delay": 7.0,
      "departure_time": "17:30:00",
      "old": false,
      "stop_lat": 50.016128,
      "stop_lon": 20.012098,
      "stop_name": "Nowy Prokocim",
      "stop_num": "01",
      "stop_sequence": 26,
      "stopping": false,
      "time": 1762705807.0,
      "trip_id": "block_588_trip_9_service_3",
      "trip_num": 9
    },
    {
      "delay": 7.0,
      "departure_time": "17:31:00",
      "old": false,
      "stop_lat": 50.016057,
      "stop_lon": 20.019317,
      "stop_name": "Ćwiklińskiej",
      "stop_num": "01",
      "stop_sequence": 27,
      "stopping": false,
      "time": 1762705867.0,
      "trip_id": "block_588_trip_9_service_3",
      "trip_num": 9
    },
    {
      "delay": 7.0,
      "departure_time": "17:32:00",
      "old": false,
      "stop_lat": 50.015608,
      "stop_lon": 20.023053,
      "stop_name": "Nowy Bieżanów P+R",
      "stop_num": "01",
      "stop_sequence": 28,
      "stopping": false,
      "time": 1762705927.0,
      "trip_id": "block_588_trip_9_service_3",
      "trip_num": 9
    },
    {
      "delay": null,
      "departure_time": "17:53:00",
      "old": false,
      "stop_lat": 50.015608,
      "stop_lon": 20.023053,
      "stop_name": "Nowy Bieżanów P+R",
      "stop_num": "01",
      "stop_sequence": 1,
      "stopping": false,
      "time": null,
      "trip_id": "block_588_trip_10_service_3",
      "trip_num": 10
    },
    {
      "delay": null,
      "departure_time": "17:54:00",
      "old": false,
      "stop_lat": 50.015966,
      "stop_lon": 20.019968,
      "stop_name": "Ćwiklińskiej",
      "stop_num": "02",
      "stop_sequence": 2,
      "stopping": false,
      "time": null,
      "trip_id": "block_588_trip_10_service_3",
      "trip_num": 10
    },
    {
      "delay": null,
      "departure_time": "17:55:00",
      "old": false,
      "stop_lat": 50.016318,
      "stop_lon": 20.013226,
      "stop_name": "Nowy Prokocim",
      "stop_num": "02",
      "stop_sequence": 3,
      "stopping": false,
      "time": null,
      "trip_id": "block_588_trip_10_service_3",
      "trip_num": 10
    },
    {
      "delay": null,
      "departure_time": "17:56:00",
      "old": false,
      "stop_lat": 50.016511,
      "stop_lon": 20.007916,
      "stop_name": "Teligi",
      "stop_num": "02",
      "stop_sequence": 4,
      "stopping": false,
      "time": null,
      "trip_id": "block_588_trip_10_service_3",
      "trip_num": 10
    },
    {
      "delay": null,
      "departure_time": "17:57:00",
      "old": false,
      "stop_lat": 50.014585,
      "stop_lon": 20.000171,
      "stop_name": "Prokocim Szpital",
      "stop_num": "02",
      "stop_sequence": 5,
      "stopping": false,
      "time": null,
      "trip_id": "block_588_trip_10_service_3",
      "trip_num": 10
    },
    {
      "delay": null,
      "departure_time": "17:59:00",
      "old": false,
      "stop_lat": 50.017646,
      "stop_lon": 19.990988,
      "stop_name": "Prokocim",
      "stop_num": "02",
      "stop_sequence": 6,
      "stopping": false,
      "time": null,
      "trip_id": "block_588_trip_10_service_3",
      "trip_num": 10
    },
    {
      "delay": null,
      "departure_time": "18:00:00",
      "old": false,
      "stop_lat": 50.019553,
      "stop_lon": 19.987851,
      "stop_name": "Wlotowa",
      "stop_num": "02",
      "stop_sequence": 7,
      "stopping": false,
      "time": null,
      "trip_id": "block_588_trip_10_service_3",
      "trip_num": 10
    },
    {
      "delay": null,
      "departure_time": "18:02:00",
      "old": false,
      "stop_lat": 50.023119,
      "stop_lon": 19.981692,
      "stop_name": "Bieżanowska",
      "stop_num": "02",
      "stop_sequence": 8,
      "stopping": false,
      "time": null,
      "trip_id": "block_588_trip_10_service_3",
      "trip_num": 10
    },
    {
      "delay": null,
      "departure_time": "18:03:00",
      "old": false,
      "stop_lat": 50.026621,
      "stop_lon": 19.977231,
      "stop_name": "Kabel",
      "stop_num": "02",
      "stop_sequence": 9,
      "stopping": false,
      "time": null,
      "trip_id": "block_588_trip_10_service_3",
      "trip_num": 10
    },
    {
      "delay": null,
      "departure_time": "18:05:00",
      "old": false,
      "stop_lat": 50.033556,
      "stop_lon": 19.977196,
      "stop_name": "Dworzec Płaszów Estakada",
      "stop_num": "01",
      "stop_sequence": 10,
      "stopping": false,
      "time": null,
      "trip_id": "block_588_trip_10_service_3",
      "trip_num": 10
    },
    {
      "delay": null,
      "departure_time": "18:07:00",
      "old": false,
      "stop_lat": 50.040688,
      "stop_lon": 19.981676,
      "stop_name": "Lipska",
      "stop_num": "02",
      "stop_sequence": 11,
      "stopping": false,
      "time": null,
      "trip_id": "block_588_trip_10_service_3",
      "trip_num": 10
    },
    {
      "delay": null,
      "departure_time": "18:08:00",
      "old": false,
      "stop_lat": 50.040657,
      "stop_lon": 19.978076,
      "stop_name": "Gromadzka",
      "stop_num": "02",
      "stop_sequence": 12,
      "stopping": false,
      "time": null,
      "trip_id": "block_588_trip_10_service_3",
      "trip_num": 10
    },
    {
      "delay": null,
      "departure_time": "18:10:00",
      "old": false,
      "stop_lat": 50.044575,
      "stop_lon": 19.973602,
      "stop_name": "Kuklińskiego",
      "stop_num": "02",
      "stop_sequence": 13,
      "stopping": false,
      "time": null,
      "trip_id": "block_588_trip_10_service_3",
      "trip_num": 10
    },
    {
      "delay": null,
      "departure_time": "18:11:00",
      "old": false,
      "stop_lat": 50.049016,
      "stop_lon": 19.967621,
      "stop_name": "Klimeckiego",
      "stop_num": "02",
      "stop_sequence": 14,
      "stopping": false,
      "time": null,
      "trip_id": "block_588_trip_10_service_3",
      "trip_num": 10
    },
    {
      "delay": null,
      "departure_time": "18:12:00",
      "old": false,
      "stop_lat": 50.049951,
      "stop_lon": 19.964216,
      "stop_name": "Zabłocie",
      "stop_num": "02",
      "stop_sequence": 15,
      "stopping": false,
      "time": null,
      "trip_id": "block_588_trip_10_service_3",
      "trip_num": 10
    },
    {
      "delay": null,
      "departure_time": "18:15:00",
      "old": false,
      "stop_lat": 50.058426,
      "stop_lon": 19.959244,
      "stop_name": "Rondo Grzegórzeckie",
      "stop_num": "03",
      "stop_sequence": 16,
      "stopping": false,
      "time": null,
      "trip_id": "block_588_trip_10_service_3",
      "trip_num": 10
    },
    {
      "delay": null,
      "departure_time": "18:17:00",
      "old": false,
      "stop_lat": 50.065759,
      "stop_lon": 19.959864,
      "stop_name": "Rondo Mogilskie",
      "stop_num": "02",
      "stop_sequence": 17,
      "stopping": false,
      "time": null,
      "trip_id": "block_588_trip_10_service_3",
      "trip_num": 10
    },
    {
      "delay": null,
      "departure_time": "18:18:00",
      "old": false,
      "stop_lat": 50.066523,
      "stop_lon": 19.970519,
      "stop_name": "Cystersów",
      "stop_num": "01",
      "stop_sequence": 18,
      "stopping": false,
      "time": null,
      "trip_id": "block_588_trip_10_service_3",
      "trip_num": 10
    },
    {
      "delay": null,
      "departure_time": "18:20:00",
      "old": false,
      "stop_lat": 50.067841,
      "stop_lon": 19.977991,
      "stop_name": "Białucha",
      "stop_num": "01",
      "stop_sequence": 19,
      "stopping": false,
      "time": null,
      "trip_id": "block_588_trip_10_service_3",
      "trip_num": 10
    },
    {
      "delay": null,
      "departure_time": "18:23:00",
      "old": false,
      "stop_lat": 50.07352,
      "stop_lon": 19.990472,
      "stop_name": "Muzeum Lotnictwa Polskiego",
      "stop_num": "01",
      "stop_sequence": 20,
      "stopping": false,
      "time": null,
      "trip_id": "block_588_trip_10_service_3",
      "trip_num": 10
    },
    {
      "delay": null,
      "departure_time": "18:24:00",
      "old": false,
      "stop_lat": 50.073967,
      "stop_lon": 19.99881,
      "stop_name": "AKF / PK",
      "stop_num": "01",
      "stop_sequence": 21,
      "stopping": false,
      "time": null,
      "trip_id": "block_588_trip_10_service_3",
      "trip_num": 10
    },
    {
      "delay": null,
      "departure_time": "18:25:00",
      "old": false,
      "stop_lat": 50.074273,
      "stop_lon": 20.004747,
      "stop_name": "Stella-Sawickiego",
      "stop_num": "01",
      "stop_sequence": 22,
      "stopping": false,
      "time": null,
      "trip_id": "block_588_trip_10_service_3",
      "trip_num": 10
    },
    {
      "delay": null,
      "departure_time": "18:26:00",
      "old": false,
      "stop_lat": 50.07399,
      "stop_lon": 20.011459,
      "stop_name": "Czyżyny",
      "stop_num": "01",
      "stop_sequence": 23,
      "stopping": false,
      "time": null,
      "trip_id": "block_588_trip_10_service_3",
      "trip_num": 10
    },
    {
      "delay": null,
      "departure_time": "18:29:00",
      "old": false,
      "stop_lat": 50.074193,
      "stop_lon": 20.018028,
      "stop_name": "Rondo Czyżyńskie",
      "stop_num": "03",
      "stop_sequence": 24,
      "stopping": false,
      "time": null,
      "trip_id": "block_588_trip_10_service_3",
      "trip_num": 10
    },
    {
      "delay": null,
      "departure_time": "18:30:00",
      "old": false,
      "stop_lat": 50.0757,
      "stop_lon": 20.02058,
      "stop_name": "Bieńczycka",
      "stop_num": "02",
      "stop_sequence": 25,
      "stopping": false,
      "time": null,
      "trip_id": "block_588_trip_10_service_3",
      "trip_num": 10
    },
    {
      "delay": null,
      "departure_time": "18:33:00",
      "old": false,
      "stop_lat": 50.080257,
      "stop_lon": 20.026561,
      "stop_name": "Rondo Kocmyrzowskie im. Ks. Gorzelanego",
      "stop_num": "01",
      "stop_sequence": 26,
      "stopping": false,
      "time": null,
      "trip_id": "block_588_trip_10_service_3",
      "trip_num": 10
    },
    {
      "delay": null,
      "departure_time": "18:34:00",
      "old": false,
      "stop_lat": 50.084477,
      "stop_lon": 20.020671,
      "stop_name": "DH Wanda",
      "stop_num": "01",
      "stop_sequence": 27,
      "stopping": false,
      "time": null,
      "trip_id": "block_588_trip_10_service_3",
      "trip_num": 10
    },
    {
      "delay": null,
      "departure_time": "18:36:00",
      "old": false,
      "stop_lat": 50.090094,
      "stop_lon": 20.021355,
      "stop_name": "Rondo Hipokratesa",
      "stop_num": "02",
      "stop_sequence": 28,
      "stopping": false,
      "time": null,
      "trip_id": "block_588_trip_10_service_3",
      "trip_num": 10
    },
    {
      "delay": null,
      "departure_time": "18:47:00",
      "old": false,
      "stop_lat": 50.090094,
      "stop_lon": 20.021355,
      "stop_name": "Rondo Hipokratesa",
      "stop_num": "02",
      "stop_sequence": 1,
      "stopping": false,
      "time": null,
      "trip_id": "block_588_trip_11_service_3",
      "trip_num": 11
    },
    {
      "delay": null,
      "departure_time": "18:48:00",
      "old": false,
      "stop_lat": 50.084432,
      "stop_lon": 20.020689,
      "stop_name": "DH Wanda",
      "stop_num": "02",
      "stop_sequence": 2,
      "stopping": false,
      "time": null,
      "trip_id": "block_588_trip_11_service_3",
      "trip_num": 11
    },
    {
      "delay": null,
      "departure_time": "18:51:00",
      "old": false,
      "stop_lat": 50.07905,
      "stop_lon": 20.026486,
      "stop_name": "Rondo Kocmyrzowskie im. Ks. Gorzelanego",
      "stop_num": "02",
      "stop_sequence": 3,
      "stopping": false,
      "time": null,
      "trip_id": "block_588_trip_11_service_3",
      "trip_num": 11
    },
    {
      "delay": null,
      "departure_time": "18:52:00",
      "old": false,
      "stop_lat": 50.075661,
      "stop_lon": 20.02044,
      "stop_name": "Bieńczycka",
      "stop_num": "01",
      "stop_sequence": 4,
      "stopping": false,
      "time": null,
      "trip_id": "block_588_trip_11_service_3",
      "trip_num": 11
    },