{
  "stop_times": [
    {
      "delay": null,
      "departure_time": "04:50:00",
      "old": false,
      "stop_lat": 50.083538,
      "stop_lon": 20.065554,
      "stop_name": "Zajezdnia Nowa Huta",
      "stop_num": "01",
      "stop_sequence": 2,
      "stopping": false,
      "time": null,
      "trip_id": "block_213_trip_1_service_5",
      "trip_num": 1
    },
    {
      "delay": null,
      "departure_time": "04:51:00",
      "old": false,
      "stop_lat": 50.079835,
      "stop_lon": 20.065863,
      "stop_name": "Kombinat",
      "stop_num": "02",
      "stop_sequence": 3,
      "stopping": false,
      "time": null,
      "trip_id": "block_213_trip_1_service_5",
      "trip_num": 1
    },
    {
      "delay": null,
      "departure_time": "04:53:00",
      "old": false,
      "stop_lat": 50.076232,
      "stop_lon": 20.052439,
      "stop_name": "Zalew Nowohucki",
      "stop_num": "02",
      "stop_sequence": 4,
      "stopping": false,
      "time": null,
      "trip_id": "block_213_trip_1_service_5",
      "trip_num": 1
    },
    {
      "delay": null,
      "departure_time": "04:53:00",
      "old": false,
      "stop_lat": 50.076232,
      "stop_lon": 20.052439,
      "stop_name": "Zalew Nowohucki",
      "stop_num": "02",
      "stop_sequence": 1,
      "stopping": false,
      "time": null,
      "trip_id": "block_213_trip_2_service_5",
      "trip_num": 2
    },
    {
      "delay": null,
      "departure_time": "04:54:00",
      "old": false,
      "stop_lat": 50.074892,
      "stop_lon": 20.047467,
      "stop_name": "Struga",
      "stop_num": "02",
      "stop_sequence": 2,
      "stopping": false,
      "time": null,
      "trip_id": "block_213_trip_2_service_5",
      "trip_num": 2
    },
    {
      "delay": null,
      "departure_time": "04:56:00",
      "old": false,
      "stop_lat": 50.072961,
      "stop_lon": 20.036331,
      "stop_name": "Plac Centralny im. R.Reagana",
      "stop_num": "02",
      "stop_sequence": 3,
      "stopping": false,
      "time": null,
      "trip_id": "block_213_trip_2_service_5",
      "trip_num": 2
    },
    {
      "delay": null,
      "departure_time": "04:57:00",
      "old": false,
      "stop_lat": 50.076456,
      "stop_lon": 20.031524,
      "stop_name": "Os. Zgody",
      "stop_num": "02",
      "stop_sequence": 4,
      "stopping": false,
      "time": null,
      "trip_id": "block_213_trip_2_service_5",
      "trip_num": 2
    },
    {
      "delay": null,
      "departure_time": "05:00:00",
      "old": false,
      "stop_lat": 50.080257,
      "stop_lon": 20.026561,
      "stop_name": "Rondo Kocmyrzowskie im. Ks. Gorzelanego",
      "stop_num": "01",
      "stop_sequence": 5,
      "stopping": false,
      "time": null,
      "trip_id": "block_213_trip_2_service_5",
      "trip_num": 2
    },
    {
      "delay": null,
      "departure_time": "05:01:00",
      "old": false,
      "stop_lat": 50.084477,
      "stop_lon": 20.020671,
      "stop_name": "DH Wanda",
      "stop_num": "01",
      "stop_sequence": 6,
      "stopping": false,
      "time": null,
      "trip_id": "block_213_trip_2_service_5",
      "trip_num": 2
    },
    {
      "delay": null,
      "departure_time": "05:03:00",
      "old": false,
      "stop_lat": 50.090025,
      "stop_lon": 20.021395,
      "stop_name": "Rondo Hipokratesa",
      "stop_num": "01",
      "stop_sequence": 7,
      "stopping": false,
      "time": null,
      "trip_id": "block_213_trip_2_service_5",
      "trip_num": 2
    },
    {
      "delay": null,
      "departure_time": "05:04:00",
      "old": false,
      "stop_lat": 50.092201,
      "stop_lon": 20.016038,
      "stop_name": "Dunikowskiego",
      "stop_num": "01",
      "stop_sequence": 8,
      "stopping": false,
      "time": null,
      "trip_id": "block_213_trip_2_service_5",
      "trip_num": 2
    },
    {
      "delay": null,
      "departure_time": "05:06:00",
      "old": false,
      "stop_lat": 50.095792,
      "stop_lon": 20.012713,
      "stop_name": "Kleeberga",
      "stop_num": "01",
      "stop_sequence": 9,
      "stopping": false,
      "time": null,
      "trip_id": "block_213_trip_2_service_5",
      "trip_num": 2
    },
    {
      "delay": null,
      "departure_time": "05:07:00",
      "old": false,
      "stop_lat": 50.097862,
      "stop_lon": 20.013018,
      "stop_name": "Piasta Kołodzieja",
      "stop_num": "01",
      "stop_sequence": 10,
      "stopping": false,
      "time": null,
      "trip_id": "block_213_trip_2_service_5",
      "trip_num": 2
    },
    {
      "delay": null,
      "departure_time": "05:09:00",
      "old": false,
      "stop_lat": 50.101977,
      "stop_lon": 20.012058,
      "stop_name": "Os. Piastów",
      "stop_num": "01",
      "stop_sequence": 11,
      "stopping": false,
      "time": null,
      "trip_id": "block_213_trip_2_service_5",
      "trip_num": 2
    },
    {
      "delay": null,
      "departure_time": "05:15:00",
      "old": false,
      "stop_lat": 50.101977,
      "stop_lon": 20.012058,
      "stop_name": "Os. Piastów",
      "stop_num": "01",
      "stop_sequence": 1,
      "stopping": false,
      "time": null,
      "trip_id": "block_213_trip_3_service_5",
      "trip_num": 3
    },
    {
      "delay": null,
      "departure_time": "05:16:00",
      "old": false,
      "stop_lat": 50.098526,
      "stop_lon": 20.013051,
      "stop_name": "Piasta Kołodzieja",
      "stop_num": "02",
      "stop_sequence": 2,
      "stopping": false,
      "time": null,
      "trip_id": "block_213_trip_3_service_5",
      "trip_num": 3
    },
    {
      "delay": null,
      "departure_time": "05:17:00",
      "old": false,
      "stop_lat": 50.095759,
      "stop_lon": 20.012638,
      "stop_name": "Kleeberga",
      "stop_num": "02",
      "stop_sequence": 3,
      "stopping": false,
      "time": null,
      "trip_id": "block_213_trip_3_service_5",
      "trip_num": 3
    },
    {
      "delay": null,
      "departure_time": "05:19:00",
      "old": false,
      "stop_lat": 50.092518,
      "stop_lon": 20.015491,
      "stop_name": "Dunikowskiego",
      "stop_num": "02",
      "stop_sequence": 4,
      "stopping": false,
      "time": null,
      "trip_id": "block_213_trip_3_service_5",
      "trip_num": 3
    },
    {
      "delay": null,
      "departure_time": "05:21:00",
      "old": false,
      "stop_lat": 50.090094,
      "stop_lon": 20.021355,
      "stop_name": "Rondo Hipokratesa",
      "stop_num": "02",
      "stop_sequence": 5,
      "stopping": false,
      "time": null,
      "trip_id": "block_213_trip_3_service_5",
      "trip_num": 3
    },
    {
      "delay": null,
      "departure_time": "05:22:00",
      "old": false,
      "stop_lat": 50.084432,
      "stop_lon": 20.020689,
      "stop_name": "DH Wanda",
      "stop_num": "02",
      "stop_sequence": 6,
      "stopping": false,
      "time": null,
      "trip_id": "block_213_trip_3_service_5",
      "trip_num": 3
    },
    {
      "delay": null,
      "departure_time": "05:25:00",
      "old": false,
      "stop_lat": 50.079056,
      "stop_lon": 20.02806,
      "stop_name": "Rondo Kocmyrzowskie im. Ks. Gorzelanego",
      "stop_num": "04",
      "stop_sequence": 7,
      "stopping": false,
      "time": null,
      "trip_id": "block_213_trip_3_service_5",
      "trip_num": 3
    },
    {
      "delay": null,
      "departure_time": "05:26:00",
      "old": false,
      "stop_lat": 50.076921,
      "stop_lon": 20.030839,
      "stop_name": "Os. Zgody",
      "stop_num": "01",
      "stop_sequence": 8,
      "stopping": false,
      "time": null,
      "trip_id": "block_213_trip_3_service_5",
      "trip_num": 3
    },
    {
      "delay": null,
      "departure_time": "05:29:00",
      "old": false,
      "stop_lat": 50.072556,
      "stop_lon": 20.038845,
      "stop_name": "Plac Centralny im. R.Reagana",
      "stop_num": "03",
      "stop_sequence": 9,
      "stopping": false,
      "time": null,
      "trip_id": "block_213_trip_3_service_5",
      "trip_num": 3
    },
    {
      "delay": null,
      "departure_time": "05:30:00",
      "old": false,
      "stop_lat": 50.074547,
      "stop_lon": 20.046307,
      "stop_name": "Struga",
      "stop_num": "01",
      "stop_sequence": 10,
      "stopping": false,
      "time": null,
      "trip_id": "block_213_trip_3_service_5",
      "trip_num": 3
    },
    {
      "delay": null,
      "departure_time": "05:31:00",
      "old": false,
      "stop_lat": 50.076158,
      "stop_lon": 20.052488,
      "stop_name": "Zalew Nowohucki",
      "stop_num": "01",
      "stop_sequence": 11,
      "stopping": false,
      "time": null,
      "trip_id": "block_213_trip_3_service_5",
      "trip_num": 3
    },
    {
      "delay": null,
      "departure_time": "05:33:00",
      "old": false,
      "stop_lat": 50.079135,
      "stop_lon": 20.065059,
      "stop_name": "Kombinat",
      "stop_num": "01",
      "stop_sequence": 12,
      "stopping": false,
      "time": null,
      "trip_id": "block_213_trip_3_service_5",
      "trip_num": 3
    },
    {
      "delay": null,
      "departure_time": "05:36:00",
      "old": false,
      "stop_lat": 50.069952,
      "stop_lon": 20.066722,
      "stop_name": "Kopiec Wandy",
      "stop_num": "01",
      "stop_sequence": 13,
      "stopping": false,
      "time": null,
      "trip_id": "block_213_trip_3_service_5",
      "trip_num": 3
    },
    {
      "delay": null,
      "departure_time": "05:37:00",
      "old": false,
      "stop_lat": 50.066659,
      "stop_lon": 20.070794,
      "stop_name": "Fort Mogiła (nż)",
      "stop_num": "01",
      "stop_sequence": 14,
      "stopping": false,
      "time": null,
      "trip_id": "block_213_trip_3_service_5",
      "trip_num": 3
    },
    {
      "delay": null,
      "departure_time": "05:38:00",
      "old": false,
      "stop_lat": 50.064955,
      "stop_lon": 20.074756,
      "stop_name": "Brama nr 4 (nż)",
      "stop_num": "01",
      "stop_sequence": 15,
      "stopping": false,
      "time": null,
      "trip_id": "block_213_trip_3_service_5",
      "trip_num": 3
    },
    {
      "delay": null,
      "departure_time": "05:39:00",
      "old": false,
      "stop_lat": 50.06462,
      "stop_lon": 20.08447,
      "stop_name": "Giedroycia (nż)",
      "stop_num": "01",
      "stop_sequence": 16,
      "stopping": false,
      "time": null,
      "trip_id": "block_213_trip_3_service_5",
      "trip_num": 3
    },
    {
      "delay": null,
      "departure_time": "05:40:00",
      "old": false,
      "stop_lat": 50.069176,
      "stop_lon": 20.09178,
      "stop_name": "Brama nr 5 (nż)",
      "stop_num": "01",
      "stop_sequence": 17,
      "stopping": false,
      "time": null,
      "trip_id": "block_213_trip_3_service_5",
      "trip_num": 3
    },
    {
      "delay": null,
      "departure_time": "05:41:00",
      "old": false,
      "stop_lat": 50.069815,
      "stop_lon": 20.09469,
      "stop_name": "Meksyk (nż)",
      "stop_num": "01",
      "stop_sequence": 18,
      "stopping": false,
      "time": null,
      "trip_id": "block_213_trip_3_service_5",
      "trip_num": 3
    },
    {
      "delay": null,
      "departure_time": "05:42:00",
      "old": false,
      "stop_lat": 50.071926,
      "stop_lon": 20.104695,
      "stop_name": "Koksochemia (nż)",
      "stop_num": "01",
      "stop_sequence": 19,
      "stopping": false,
      "time": null,
      "trip_id": "block_213_trip_3_service_5",
      "trip_num": 3
    },
    {
      "delay": null,
      "departure_time": "05:44:00",
      "old": false,
      "stop_lat": 50.072893,
      "stop_lon": 20.11689,
      "stop_name": "Pleszów",
      "stop_num": "01",
      "stop_sequence": 20,
      "stopping": false,
      "time": null,
      "trip_id": "block_213_trip_3_service_5",
      "trip_num": 3
    },
    {
      "delay": null,
      "departure_time": "06:04:00",
      "old": false,
      "stop_lat": 50.072893,
      "stop_lon": 20.11689,
      "stop_name": "Pleszów",
      "stop_num": "01",
      "stop_sequence": 1,
      "stopping": false,
      "time": null,
      "trip_id": "block_213_trip_4_service_5",
      "trip_num": 4
    },
    {
      "delay": null,
      "departure_time": "06:05:00",
      "old": false,
      "stop_lat": 50.071926,
      "stop_lon": 20.104459,
      "stop_name": "Koksochemia (nż)",
      "stop_num": "02",
      "stop_sequence": 2,
      "stopping": false,
      "time": null,
      "trip_id": "block_213_trip_4_service_5",
      "trip_num": 4
    },
    {
      "delay": null,
      "departure_time": "06:06:00",
      "old": false,
      "stop_lat": 50.069892,
      "stop_lon": 20.095243,
      "stop_name": "Meksyk (nż)",
      "stop_num": "02",
      "stop_sequence": 3,
      "stopping": false,
      "time": null,
      "trip_id": "block_213_trip_4_service_5",
      "trip_num": 4
    },
    {
      "delay": null,
      "departure_time": "06:07:00",
      "old": false,
      "stop_lat": 50.069071,
      "stop_lon": 20.091584,
      "stop_name": "Brama nr 5 (nż)",
      "stop_num": "02",
      "stop_sequence": 4,
      "stopping": false,
      "time": null,
      "trip_id": "block_213_trip_4_service_5",
      "trip_num": 4
    },
    {
      "delay": null,
      "departure_time": "06:08:00",
      "old": false,
      "stop_lat": 50.06473,
      "stop_lon": 20.08479,
      "stop_name": "Giedroycia (nż)",
      "stop_num": "02",
      "stop_sequence": 5,
      "stopping": false,
      "time": null,
      "trip_id": "block_213_trip_4_service_5",
      "trip_num": 4
    },
    {
      "delay": null,
      "departure_time": "06:09:00",
      "old": false,
      "stop_lat": 50.064899,
      "stop_lon": 20.075212,
      "stop_name": "Brama nr 4 (nż)",
      "stop_num": "02",
      "stop_sequence": 6,
      "stopping": false,
      "time": null,
      "trip_id": "block_213_trip_4_service_5",
      "trip_num": 4
    },
    {
      "delay": null,
      "departure_time": "06:10:00",
      "old": false,
      "stop_lat": 50.066394,
      "stop_lon": 20.071325,
      "stop_name": "Fort Mogiła (nż)",
      "stop_num": "02",
      "stop_sequence": 7,
      "stopping": false,
      "time": null,
      "trip_id": "block_213_trip_4_service_5",
      "trip_num": 4
    },
    {
      "delay": null,
      "departure_time": "06:12:00",
      "old": false,
      "stop_lat": 50.069726,
      "stop_lon": 20.067014,
      "stop_name": "Kopiec Wandy",
      "stop_num": "02",
      "stop_sequence": 8,
      "stopping": false,
      "time": null,
      "trip_id": "block_213_trip_4_service_5",
      "trip_num": 4
    },
    {
      "delay": null,
      "departure_time": "06:14:00",
      "old": false,
      "stop_lat": 50.0787,
      "stop_lon": 20.066005,
      "stop_name": "Kombinat",
      "stop_num": "03",
      "stop_sequence": 9,
      "stopping": false,
      "time": null,
      "trip_id": "block_213_trip_4_service_5",
      "trip_num": 4
    },
    {
      "delay": null,
      "departure_time": "06:16:00",
      "old": false,
      "stop_lat": 50.076232,
      "stop_lon": 20.052439,
      "stop_name": "Zalew Nowohucki",
      "stop_num": "02",
      "stop_sequence": 10,
      "stopping": false,
      "time": null,
      "trip_id": "block_213_trip_4_service_5",
      "trip_num": 4
    },
    {
      "delay": null,
      "departure_time": "06:17:00",
      "old": false,
      "stop_lat": 50.074892,
      "stop_lon": 20.047467,
      "stop_name": "Struga",
      "stop_num": "02",
      "stop_sequence": 11,
      "stopping": false,
      "time": null,
      "trip_id": "block_213_trip_4_service_5",
      "trip_num": 4
    },
    {
      "delay": null,
      "departure_time": "06:19:00",
      "old": false,
      "stop_lat": 50.072961,
      "stop_lon": 20.036331,
      "stop_name": "Plac Centralny im. R.Reagana",
      "stop_num": "02",
      "stop_sequence": 12,
      "stopping": false,
      "time": null,
      "trip_id": "block_213_trip_4_service_5",
      "trip_num": 4
    },
    {
      "delay": null,
      "departure_time": "06:20:00",
      "old": false,
      "stop_lat": 50.076456,
      "stop_lon": 20.031524,
      "stop_name": "Os. Zgody",
      "stop_num": "02",
      "stop_sequence": 13,
      "stopping": false,
      "time": null,
      "trip_id": "block_213_trip_4_service_5",
      "trip_num": 4
    },
    {
      "delay": null,
      "departure_time": "06:23:00",
      "old": false,
      "stop_lat": 50.080257,
      "stop_lon": 20.026561,
      "stop_name": "Rondo Kocmyrzowskie im. Ks. Gorzelanego",
      "stop_num": "01",
      "stop_sequence": 14,
      "stopping": false,
      "time": null,
      "trip_id": "block_213_trip_4_service_5",
      "trip_num": 4
    },
    {
      "delay": null,
      "departure_time": "06:24:00",
      "old": false,
      "stop_lat": 50.084477,
      "stop_lon": 20.020671,
      "stop_name": "DH Wanda",
      "stop_num": "01",
      "stop_sequence": 15,
      "stopping": false,
      "time": null,
      "trip_id": "block_213_trip_4_service_5",
      "trip_num": 4
    },
    {
      "delay": null,
      "departure_time": "06:26:00",
      "old": false,
      "stop_lat": 50.090025,
      "stop_lon": 20.021395,
      "stop_name": "Rondo Hipokratesa",
      "stop_num": "01",
      "stop_sequence": 16,
      "stopping": false,
      "time": null,
      "trip_id": "block_213_trip_4_service_5",
      "trip_num": 4
    },
    {
      "delay": null,
      "departure_time": "06:27:00",
      "old": false,
      "stop_lat": 50.092201,
      "stop_lon": 20.016038,
      "stop_name": "Dunikowskiego",
      "stop_num": "01",
      "stop_sequence": 17,
      "stopping": false,
      "time": null,
      "trip_id": "block_213_trip_4_service_5",
      "trip_num": 4
    },
    {
      "delay": null,
      "departure_time": "06:29:00",
      "old": false,
      "stop_lat": 50.095792,
      "stop_lon": 20.012713,
      "stop_name": "Kleeberga",
      "stop_num": "01",
      "stop_sequence": 18,
      "stopping": false,
      "time": null,
      "trip_id": "block_213_trip_4_service_5",
      "trip_num": 4
    },
    {
      "delay": null,
      "departure_time": "06:30:00",
      "old": false,
      "stop_lat": 50.097862,
      "stop_lon": 20.013018,
      "stop_name": "Piasta Kołodzieja",
      "stop_num": "01",
      "stop_sequence": 19,
      "stopping": false,
      "time": null,
      "trip_id": "block_213_trip_4_service_5",
      "trip_num": 4
    },
    {
      "delay": null,
      "departure_time": "06:32:00",
      "old": false,
      "stop_lat": 50.101977,
      "stop_lon": 20.012058,
      "stop_name": "Os. Piastów",
      "stop_num": "01",
      "stop_sequence": 20,
      "stopping": false,
      "time": null,
      "trip_id": "block_213_trip_4_service_5",
      "trip_num": 4
    },
    {
      "delay": null,
      "departure_time": "06:45:00",
      "old": false,
      "stop_lat": 50.101977,
      "stop_lon": 20.012058,
      "stop_name": "Os. Piastów",
      "stop_num": "01",
      "stop_sequence": 1,
      "stopping": false,
      "time": null,
      "trip_id": "block_213_trip_5_service_5",
      "trip_num": 5
    },
    {
      "delay": null,
      "departure_time": "06:46:00",
      "old": false,
      "stop_lat": 50.098526,
      "stop_lon": 20.013051,
      "stop_name": "Piasta Kołodzieja",
      "stop_num": "02",
      "stop_sequence": 2,
      "stopping": false,
      "time": null,
      "trip_id": "block_213_trip_5_service_5",
      "trip_num": 5
    },
    {
      "delay": null,
      "departure_time": "06:47:00",
      "old": false,
      "stop_lat": 50.095759,
      "stop_lon": 20.012638,
      "stop_name": "Kleeberga",
      "stop_num": "02",
      "stop_sequence": 3,
      "stopping": false,
      "time": null,
      "trip_id": "block_213_trip_5_service_5",
      "trip_num": 5
    },
    {
      "delay": null,
      "departure_time": "06:49:00",
      "old": false,
      "stop_lat": 50.092518,
      "stop_lon": 20.015491,
      "stop_name": "Dunikowskiego",
      "stop_num": "02",
      "stop_sequence": 4,
      "stopping": false,
      "time": null,
      "trip_id": "block_213_trip_5_service_5",
      "trip_num": 5
    },
    {
      "delay": null,
      "departure_time": "06:51:00",
      "old": false,
      "stop_lat": 50.090094,
      "stop_lon": 20.021355,
      "stop_name": "Rondo Hipokratesa",
      "stop_num": "02",
      "stop_sequence": 5,
      "stopping": false,
      "time": null,
      "trip_id": "block_213_trip_5_service_5",
      "trip_num": 5
    },
    {
      "delay": null,
      "departure_time": "06:52:00",
      "old": false,
      "stop_lat": 50.084432,
      "stop_lon": 20.020689,
      "stop_name": "DH Wanda",
      "stop_num": "02",
      "stop_sequence": 6,
      "stopping": false,
      "time": null,
      "trip_id": "block_213_trip_5_service_5",
      "trip_num": 5
    },
    {
      "delay": null,
      "departure_time": "06:55:00",
      "old": false,
      "stop_lat": 50.079056,
      "stop_lon": 20.02806,
      "stop_name": "Rondo Kocmyrzowskie im. Ks. Gorzelanego",
      "stop_num": "04",
      "stop_sequence": 7,
      "stopping": false,
      "time": null,
      "trip_id": "block_213_trip_5_service_5",
      "trip_num": 5
    },
    {
      "delay": null,
      "departure_time": "06:56:00",
      "old": false,
      "stop_lat": 50.076921,
      "stop_lon": 20.030839,
      "stop_name": "Os. Zgody",
      "stop_num": "01",
      "stop_sequence": 8,
      "stopping": false,
      "time": null,
      "trip_id": "block_213_trip_5_service_5",
      "trip_num": 5
    },
    {
      "delay": null,
      "departure_time": "06:59:00",
      "old": false,
      "stop_lat": 50.072556,
      "stop_lon": 20.038845,
      "stop_name": "Plac Centralny im. R.Reagana",
      "stop_num": "03",
      "stop_sequence": 9,
      "stopping": false,
      "time": null,
      "trip_id": "block_213_trip_5_service_5",
      "trip_num": 5
    },
    {
      "delay": null,
      "departure_time": "07:00:00",
      "old": false,
      "stop_lat": 50.074547,
      "stop_lon": 20.046307,
      "stop_name": "Struga",
      "stop_num": "01",
      "stop_sequence": 10,
      "stopping": false,
      "time": null,
      "trip_id": "block_213_trip_5_service_5",
      "trip_num": 5
    },
    {
      "delay": null,
      "departure_time": "07:01:00",
      "old": false,
      "stop_lat": 50.076158,
      "stop_lon": 20.052488,
      "stop_name": "Zalew Nowohucki",
      "stop_num": "01",
      "stop_sequence": 11,
      "stopping": false,
      "time": null,
      "trip_id": "block_213_trip_5_service_5",
      "trip_num": 5
    },
    {
      "delay": null,
      "departure_time": "07:03:00",
      "old": false,
      "stop_lat": 50.079135,
      "stop_lon": 20.065059,
      "stop_name": "Kombinat",
      "stop_num": "01",
      "stop_sequence": 12,
      "stopping": false,
      "time": null,
      "trip_id": "block_213_trip_5_service_5",
      "trip_num": 5
    },
    {
      "delay": null,
      "departure_time": "07:06:00",
      "old": false,
      "stop_lat": 50.069952,
      "stop_lon": 20.066722,
      "stop_name": "Kopiec Wandy",
      "stop_num": "01",
      "stop_sequence": 13,
      "stopping": false,
      "time": null,
      "trip_id": "block_213_trip_5_service_5",
      "trip_num": 5
    },
    {
      "delay": null,
      "departure_time": "07:07:00",
      "old": false,
      "stop_lat": 50.066659,
      "stop_lon": 20.070794,
      "stop_name": "Fort Mogiła (nż)",
      "stop_num": "01",
      "stop_sequence": 14,
      "stopping": false,
      "time": null,
      "trip_id": "block_213_trip_5_service_5",
      "trip_num": 5
    },
    {
      "delay": null,
      "departure_time": "07:08:00",
      "old": false,
      "stop_lat": 50.064955,
      "stop_lon": 20.074756,
      "stop_name": "Brama nr 4 (nż)",
      "stop_num": "01",
      "stop_sequence": 15,
      "stopping": false,
      "time": null,
      "trip_id": "block_213_trip_5_service_5",
      "trip_num": 5
    },
    {
      "delay": null,
      "departure_time": "07:09:00",
      "old": false,
      "stop_lat": 50.06462,
      "stop_lon": 20.08447,
      "stop_name": "Giedroycia (nż)",
      "stop_num": "01",
      "stop_sequence": 16,
      "stopping": false,
      "time": null,
      "trip_id": "block_213_trip_5_service_5",
      "trip_num": 5
    },
    {
      "delay": null,
      "departure_time": "07:10:00",
      "old": false,
      "stop_lat": 50.069176,
      "stop_lon": 20.09178,
      "stop_name": "Brama nr 5 (nż)",
      "stop_num": "01",
      "stop_sequence": 17,
      "stopping": false,
      "time": null,
      "trip_id": "block_213_trip_5_service_5",
      "trip_num": 5
    },
    {
      "delay": null,
      "departure_time": "07:11:00",
      "old": false,
      "stop_lat": 50.069815,
      "stop_lon": 20.09469,
      "stop_name": "Meksyk (nż)",
      "stop_num": "01",
      "stop_sequence": 18,
      "stopping": false,
      "time": null,
      "trip_id": "block_213_trip_5_service_5",
      "trip_num": 5
    },
    {
      "delay": null,
      "departure_time": "07:12:00",
      "old": false,
      "stop_lat": 50.071926,
      "stop_lon": 20.104695,
      "stop_name": "Koksochemia (nż)",
      "stop_num": "01",
      "stop_sequence": 19,
      "stopping": false,
      "time": null,
      "trip_id": "block_213_trip_5_service_5",
      "trip_num": 5
    },
    {
      "delay": null,
      "departure_time": "07:14:00",
      "old": false,
      "stop_lat": 50.072893,
      "stop_lon": 20.11689,
      "stop_name": "Pleszów",
      "stop_num": "01",
      "stop_sequence": 20,
      "stopping": false,
      "time": null,
      "trip_id": "block_213_trip_5_service_5",
      "trip_num": 5
    },
    {
      "delay": null,
      "departure_time": "07:31:00",
      "old": false,
      "stop_lat": 50.072893,
      "stop_lon": 20.11689,
      "stop_name": "Pleszów",
      "stop_num": "01",
      "stop_sequence": 1,
      "stopping": false,
      "time": null,
      "trip_id": "block_213_trip_6_service_5",
      "trip_num": 6
    },
    {
      "delay": null,
      "departure_time": "07:32:00",
      "old": false,
      "stop_lat": 50.071926,
      "stop_lon": 20.104459,
      "stop_name": "Koksochemia (nż)",
      "stop_num": "02",
      "stop_sequence": 2,
      "stopping": false,
      "time": null,
      "trip_id": "block_213_trip_6_service_5",
      "trip_num": 6
    },
    {
      "delay": null,
      "departure_time": "07:33:00",
      "old": false,
      "stop_lat": 50.069892,
      "stop_lon": 20.095243,
      "stop_name": "Meksyk (nż)",
      "stop_num": "02",
      "stop_sequence": 3,
      "stopping": false,
      "time": null,
      "trip_id": "block_213_trip_6_service_5",
      "trip_num": 6
    },
    {
      "delay": null,
      "departure_time": "07:34:00",
      "old": false,
      "stop_lat": 50.069071,
      "stop_lon": 20.091584,
      "stop_name": "Brama nr 5 (nż)",
      "stop_num": "02",
      "stop_sequence": 4,
      "stopping": false,
      "time": null,
      "trip_id": "block_213_trip_6_service_5",
      "trip_num": 6
    },
    {
      "delay": null,
      "departure_time": "07:35:00",
      "old": false,
      "stop_lat": 50.06473,
      "stop_lon": 20.08479,
      "stop_name": "Giedroycia (nż)",
      "stop_num": "02",
      "stop_sequence": 5,
      "stopping": false,
      "time": null,
      "trip_id": "block_213_trip_6_service_5",
      "trip_num": 6
    },
    {
      "delay": null,
      "departure_time": "07:36:00",
      "old": false,
      "stop_lat": 50.064899,
      "stop_lon": 20.075212,
      "stop_name": "Brama nr 4 (nż)",
      "stop_num": "02",
      "stop_sequence": 6,
      "stopping": false,
      "time": null,
      "trip_id": "block_213_trip_6_service_5",
      "trip_num": 6
    },
    {
      "delay": null,
      "departure_time": "07:37:00",
      "old": false,
      "stop_lat": 50.066394,
      "stop_lon": 20.071325,
      "stop_name": "Fort Mogiła (nż)",
      "stop_num": "02",
      "stop_sequence": 7,
      "stopping": false,
      "time": null,
      "trip_id": "block_213_trip_6_service_5",
      "trip_num": 6
    },
    {
      "delay": null,
      "departure_time": "07:39:00",
      "old": false,
      "stop_lat": 50.069726,
      "stop_lon": 20.067014,
      "stop_name": "Kopiec Wandy",
      "stop_num": "02",
      "stop_sequence": 8,
      "stopping": false,
      "time": null,
      "trip_id": "block_213_trip_6_service_5",
      "trip_num": 6
    },
    {
      "delay": null,
      "departure_time": "07:41:00",
      "old": false,
      "stop_lat": 50.0787,
      "stop_lon": 20.066005,
      "stop_name": "Kombinat",
      "stop_num": "03",
      "stop_sequence": 9,
      "stopping": false,
      "time": null,
      "trip_id": "block_213_trip_6_service_5",
      "trip_num": 6
    },
    {
      "delay": null,
      "departure_time": "07:43:00",
      "old": false,
      "stop_lat": 50.076232,
      "stop_lon": 20.052439,
      "stop_name": "Zalew Nowohucki",
      "stop_num": "02",
      "stop_sequence": 10,
      "stopping": false,
      "time": null,
      "trip_id": "block_213_trip_6_service_5",
      "trip_num": 6
    },
    {
      "delay": null,
      "departure_time": "07:44:00",
      "old": false,
      "stop_lat": 50.074892,
      "stop_lon": 20.047467,
      "stop_name": "Struga",
      "stop_num": "02",
      "stop_sequence": 11,
      "stopping": false,
      "time": null,
      "trip_id": "block_213_trip_6_service_5",
      "trip_num": 6
    },
    {
      "delay": null,
      "departure_time": "07:46:00",
      "old": false,
      "stop_lat": 50.072961,
      "stop_lon": 20.036331,
      "stop_name": "Plac Centralny im. R.Reagana",
      "stop_num": "02",
      "stop_sequence": 12,
      "stopping": false,
      "time": null,
      "trip_id": "block_213_trip_6_service_5",
      "trip_num": 6
    },
    {
      "delay": null,
      "departure_time": "07:47:00",
      "old": false,
      "stop_lat": 50.076456,
      "stop_lon": 20.031524,
      "stop_name": "Os. Zgody",
      "stop_num": "02",
      "stop_sequence": 13,
      "stopping": false,
      "time": null,
      "trip_id": "block_213_trip_6_service_5",
      "trip_num": 6
    },
    {
      "delay": null,
      "departure_time": "07:50:00",
      "old": false,
      "stop_lat": 50.080257,
      "stop_lon": 20.026561,
      "stop_name": "Rondo Kocmyrzowskie im. Ks. Gorzelanego",
      "stop_num": "01",
      "stop_sequence": 14,
      "stopping": false,
      "time": null,
      "trip_id": "block_213_trip_6_service_5",
      "trip_num": 6
    },
    {
      "delay": null,
      "departure_time": "07:51:00",
      "old": false,
      "stop_lat": 50.084477,
      "stop_lon": 20.020671,
      "stop_name": "DH Wanda",
      "stop_num": "01",
      "stop_sequence": 15,
      "stopping": false,
      "time": null,
      "trip_id": "block_213_trip_6_service_5",
      "trip_num": 6
    },
    {
      "delay": null,
      "departure_time": "07:53:00",
      "old": false,
      "stop_lat": 50.090025,
      "stop_lon": 20.021395,
      "stop_name": "Rondo Hipokratesa",
      "stop_num": "01",
      "stop_sequence": 16,
      "stopping": false,
      "time": null,
      "trip_id": "block_213_trip_6_service_5",
      "trip_num": 6
    },
    {
      "delay": null,
      "departure_time": "07:54:00",
      "old": false,
      "stop_lat": 50.092201,
      "stop_lon": 20.016038,
      "stop_name": "Dunikowskiego",
      "stop_num": "01",
      "stop_sequence": 17,
      "stopping": false,
      "time": null,
      "trip_id": "block_213_trip_6_service_5",
      "trip_num": 6
    },
    {
      "delay": null,
      "departure_time": "07:56:00",
      "old": false,
      "stop_lat": 50.095792,
      "stop_lon": 20.012713,
      "stop_name": "Kleeberga",
      "stop_num": "01",
      "stop_sequence": 18,
      "stopping": false,
      "time": null,
      "trip_id": "block_213_trip_6_service_5",
      "trip_num": 6
    },
    {
      "delay": null,
      "departure_time": "07:57:00",
      "old": false,
      "stop_lat": 50.097862,
      "stop_lon": 20.013018,
      "stop_name": "Piasta Kołodzieja",
      "stop_num": "01",
      "stop_sequence": 19,
      "stopping": false,
      "time": null,
      "trip_id": "block_213_trip_6_service_5",
      "trip_num": 6
    },
    {
      "delay": null,
      "departure_time": "07:59:00",
      "old": false,
      "stop_lat": 50.101977,
      "stop_lon": 20.012058,
      "stop_name": "Os. Piastów",
      "stop_num": "01",
      "stop_sequence": 20,
      "stopping": false,
      "time": null,
      "trip_id": "block_213_trip_6_service_5",
      "trip_num": 6
    },
    {
      "delay": null,
      "departure_time": "08:15:00",
      "old": false,
      "stop_lat": 50.101977,
      "stop_lon": 20.012058,
      "stop_name": "Os. Piastów",
      "stop_num": "01",
      "stop_sequence": 1,
      "stopping": false,
      "time": null,
      "trip_id": "block_213_trip_7_service_5",
      "trip_num": 7
    },
    {
      "delay": null,
      "departure_time": "08:16:00",
      "old": false,
      "stop_lat": 50.098526,
      "stop_lon": 20.013051,
      "stop_name": "Piasta Kołodzieja",
      "stop_num": "02",
      "stop_sequence": 2,
      "stopping": false,
      "time": null,
      "trip_id": "block_213_trip_7_service_5",
      "trip_num": 7
    },
    {
      "delay": null,
      "departure_time": "08:17:00",
      "old": false,
      "stop_lat": 50.095759,
      "stop_lon": 20.012638,
      "stop_name": "Kleeberga",
      "stop_num": "02",
      "stop_sequence": 3,
      "stopping": false,
      "time": null,
      "trip_id": "block_213_trip_7_service_5",
      "trip_num": 7
    },
    {
      "delay": null,
      "departure_time": "08:19:00",
      "old": false,
      "stop_lat": 50.092518,
      "stop_lon": 20.015491,
      "stop_name": "Dunikowskiego",
      "stop_num": "02",
      "stop_sequence": 4,
      "stopping": false,
      "time": null,
      "trip_id": "block_213_trip_7_service_5",
      "trip_num": 7
    },
    {
      "delay": null,
      "departure_time": "08:21:00",
      "old": false,
      "stop_lat": 50.090094,
      "stop_lon": 20.021355,
      "stop_name": "Rondo Hipokratesa",
      "stop_num": "02",
      "stop_sequence": 5,
      "stopping": false,
      "time": null,
      "trip_id": "block_213_trip_7_service_5",
      "trip_num": 7
    },
    {
      "delay": null,
      "departure_time": "08:22:00",
      "old": false,
      "stop_lat": 50.084432,
      "stop_lon": 20.020689,
      "stop_name": "DH Wanda",
      "stop_num": "02",
      "stop_sequence": 6,
      "stopping": false,
      "time": null,
      "trip_id": "block_213_trip_7_service_5",
      "trip_num": 7
    },
    {
      "delay": null,
      "departure_time": "08:25:00",
      "old": false,
      "stop_lat": 50.079056,
      "stop_lon": 20.02806,
      "stop_name": "Rondo Kocmyrzowskie im. Ks. Gorzelanego",
      "stop_num": "04",
      "stop_sequence": 7,
      "stopping": false,
      "time": null,
      "trip_id": "block_213_trip_7_service_5",
      "trip_num": 7
    },
    {
      "delay": null,
      "departure_time": "08:26:00",
      "old": false,
      "stop_lat": 50.076921,
      "stop_lon": 20.030839,
      "stop_name": "Os. Zgody",
      "stop_num": "01",
      "stop_sequence": 8,
      "stopping": false,
      "time": null,
      "trip_id": "block_213_trip_7_service_5",
      "trip_num": 7
    },
    {
      "delay": null,
      "departure_time": "08:29:00",
      "old": false,
      "stop_lat": 50.072556,
      "stop_lon": 20.038845,
      "stop_name": "Plac Centralny im. R.Reagana",
      "stop_num": "03",
      "stop_sequence": 9,
      "stopping": false,
      "time": null,
      "trip_id": "block_213_trip_7_service_5",
      "trip_num": 7
    },
    {
      "delay": null,
      "departure_time": "08:30:00",
      "old": false,
      "stop_lat": 50.074547,
      "stop_lon": 20.046307,
      "stop_name": "Struga",
      "stop_num": "01",
      "stop_sequence": 10,
      "stopping": false,
      "time": null,
      "trip_id": "block_213_trip_7_service_5",
      "trip_num": 7
    },
    {
      "delay": null,
      "departure_time": "08:31:00",
      "old": false,
      "stop_lat": 50.076158,
      "stop_lon": 20.052488,
      "stop_name": "Zalew Nowohucki",
      "stop_num": "01",
      "stop_sequence": 11,
      "stopping": false,
      "time": null,
      "trip_id": "block_213_trip_7_service_5",
      "trip_num": 7
    },
    {
      "delay": null,
      "departure_time": "08:33:00",
      "old": false,
      "stop_lat": 50.079135,
      "stop_lon": 20.065059,
      "stop_name": "Kombinat",
      "stop_num": "01",
      "stop_sequence": 12,
      "stopping": false,
      "time": null,
      "trip_id": "block_213_trip_7_service_5",
      "trip_num": 7
    },
    {
      "delay": null,
      "departure_time": "08:36:00",
      "old": false,
      "stop_lat": 50.069952,
      "stop_lon": 20.066722,
      "stop_name": "Kopiec Wandy",
      "stop_num": "01",
      "stop_sequence": 13,
      "stopping": false,
      "time": null,
      "trip_id": "block_213_trip_7_service_5",
      "trip_num": 7
    },
    {
      "delay": null,
      "departure_time": "08:37:00",
      "old": false,
      "stop_lat": 50.066659,
      "stop_lon": 20.070794,
      "stop_name": "Fort Mogiła (nż)",
      "stop_num": "01",
      "stop_sequence": 14,
      "stopping": false,
      "time": null,
      "trip_id": "block_213_trip_7_service_5",
      "trip_num": 7
    },
    {
      "delay": null,
      "departure_time": "08:38:00",
      "old": false,
      "stop_lat": 50.064955,
      "stop_lon": 20.074756,
      "stop_name": "Brama nr 4 (nż)",
      "stop_num": "01",
      "stop_sequence": 15,
      "stopping": false,
      "time": null,
      "trip_id": "block_213_trip_7_service_5",
      "trip_num": 7
    },
    {
      "delay": null,
      "departure_time": "08:39:00",
      "old": false,
      "stop_lat": 50.06462,
      "stop_lon": 20.08447,
      "stop_name": "Giedroycia (nż)",
      "stop_num": "01",
      "stop_sequence": 16,
      "stopping": false,
      "time": null,
      "trip_id": "block_213_trip_7_service_5",
      "trip_num": 7
    },
    {
      "delay": null,
      "departure_time": "08:40:00",
      "old": false,
      "stop_lat": 50.069176,
      "stop_lon": 20.09178,
      "stop_name": "Brama nr 5 (nż)",
      "stop_num": "01",
      "stop_sequence": 17,
      "stopping": false,
      "time": null,
      "trip_id": "block_213_trip_7_service_5",
      "trip_num": 7
    },
    {
      "delay": null,
      "departure_time": "08:41:00",
      "old": false,
      "stop_lat": 50.069815,
      "stop_lon": 20.09469,
      "stop_name": "Meksyk (nż)",
      "stop_num": "01",
      "stop_sequence": 18,
      "stopping": false,
      "time": null,
      "trip_id": "block_213_trip_7_service_5",
      "trip_num": 7
    },
    {
      "delay": null,
      "departure_time": "08:42:00",
      "old": false,
      "stop_lat": 50.071926,
      "stop_lon": 20.104695,
      "stop_name": "Koksochemia (nż)",
      "stop_num": "01",
      "stop_sequence": 19,
      "stopping": false,
      "time": null,
      "trip_id": "block_213_trip_7_service_5",
      "trip_num": 7
    },
    {
      "delay": null,
      "departure_time": "08:44:00",
      "old": false,
      "stop_lat": 50.072893,
      "stop_lon": 20.11689,
      "stop_name": "Pleszów",
      "stop_num": "01",
      "stop_sequence": 20,
      "stopping": false,
      "time": null,
      "trip_id": "block_213_trip_7_service_5",
      "trip_num": 7
    },
    {
      "delay": null,
      "departure_time": "09:01:00",
      "old": false,
      "stop_lat": 50.072893,
      "stop_lon": 20.11689,
      "stop_name": "Pleszów",
      "stop_num": "01",
      "stop_sequence": 1,
      "stopping": false,
      "time": null,
      "trip_id": "block_213_trip_8_service_5",
      "trip_num": 8
    },
    {
      "delay": null,
      "departure_time": "09:02:00",
      "old": false,
      "stop_lat": 50.071926,
      "stop_lon": 20.104459,
      "stop_name": "Koksochemia (nż)",
      "stop_num": "02",
      "stop_sequence": 2,
      "stopping": false,
      "time": null,
      "trip_id": "block_213_trip_8_service_5",
      "trip_num": 8
    },
    {
      "delay": null,
      "departure_time": "09:03:00",
      "old": false,
      "stop_lat": 50.069892,
      "stop_lon": 20.095243,
      "stop_name": "Meksyk (nż)",
      "stop_num": "02",
      "stop_sequence": 3,
      "stopping": false,
      "time": null,
      "trip_id": "block_213_trip_8_service_5",
      "trip_num": 8
    },
    {
      "delay": null,
      "departure_time": "09:04:00",
      "old": false,
      "stop_lat": 50.069071,
      "stop_lon": 20.091584,
      "stop_name": "Brama nr 5 (nż)",
      "stop_num": "02",
      "stop_sequence": 4,
      "stopping": false,
      "time": null,
      "trip_id": "block_213_trip_8_service_5",
      "trip_num": 8
    },
    {
      "delay": null,
      "departure_time": "09:05:00",
      "old": false,
      "stop_lat": 50.06473,
      "stop_lon": 20.08479,
      "stop_name": "Giedroycia (nż)",
      "stop_num": "02",
      "stop_sequence": 5,
      "stopping": false,
      "time": null,
      "trip_id": "block_213_trip_8_service_5",
      "trip_num": 8
    },
    {
      "delay": null,
      "departure_time": "09:06:00",
      "old": false,
      "stop_lat": 50.064899,
      "stop_lon": 20.075212,
      "stop_name": "Brama nr 4 (nż)",
      "stop_num": "02",
      "stop_sequence": 6,
      "stopping": false,
      "time": null,
      "trip_id": "block_213_trip_8_service_5",
      "trip_num": 8
    },
    {
      "delay": null,
      "departure_time": "09:07:00",
      "old": false,
      "stop_lat": 50.066394,
      "stop_lon": 20.071325,
      "stop_name": "Fort Mogiła (nż)",
      "stop_num": "02",
      "stop_sequence": 7,
      "stopping": false,
      "time": null,
      "trip_id": "block_213_trip_8_service_5",
      "trip_num": 8
    },
    {
      "delay": null,
      "departure_time": "09:09:00",
      "old": false,
      "stop_lat": 50.069726,
      "stop_lon": 20.067014,
      "stop_name": "Kopiec Wandy",
      "stop_num": "02",
      "stop_sequence": 8,
      "stopping": false,
      "time": null,
      "trip_id": "block_213_trip_8_service_5",
      "trip_num": 8
    },
    {
      "delay": null,
      "departure_time": "09:11:00",
      "old": false,
      "stop_lat": 50.0787,
      "stop_lon": 20.066005,
      "stop_name": "Kombinat",
      "stop_num": "03",
      "stop_sequence": 9,
      "stopping": false,
      "time": null,
      "trip_id": "block_213_trip_8_service_5",
      "trip_num": 8
    },
    {
      "delay": null,
      "departure_time": "09:13:00",
      "old": false,
      "stop_lat": 50.076232,
      "stop_lon": 20.052439,
      "stop_name": "Zalew Nowohucki",
      "stop_num": "02",
      "stop_sequence": 10,
      "stopping": false,
      "time": null,
      "trip_id": "block_213_trip_8_service_5",
      "trip_num": 8
    },
    {
      "delay": null,
      "departure_time": "09:14:00",
      "old": false,
      "stop_lat": 50.074892,
      "stop_lon": 20.047467,
      "stop_name": "Struga",
      "stop_num": "02",
      "stop_sequence": 11,
      "stopping": false,
      "time": null,
      "trip_id": "block_213_trip_8_service_5",
      "trip_num": 8
    },
    {
      "delay": null,
      "departure_time": "09:16:00",
      "old": false,
      "stop_lat": 50.072961,
      "stop_lon": 20.036331,
      "stop_name": "Plac Centralny im. R.Reagana",
      "stop_num": "02",
      "stop_sequence": 12,
      "stopping": false,
      "time": null,
      "trip_id": "block_213_trip_8_service_5",
      "trip_num": 8
    },
    {
      "delay": null,
      "departure_time": "09:17:00",
      "old": false,
      "stop_lat": 50.076456,
      "stop_lon": 20.031524,
      "stop_name": "Os. Zgody",
      "stop_num": "02",
      "stop_sequence": 13,
      "stopping": false,
      "time": null,
      "trip_id": "block_213_trip_8_service_5",
      "trip_num": 8
    },
    {
      "delay": null,
      "departure_time": "09:20:00",
      "old": false,
      "stop_lat": 50.080257,
      "stop_lon": 20.026561,
      "stop_name": "Rondo Kocmyrzowskie im. Ks. Gorzelanego",
      "stop_num": "01",
      "stop_sequence": 14,
      "stopping": false,
      "time": null,
      "trip_id": "block_213_trip_8_service_5",
      "trip_num": 8
    },
    {
      "delay": null,
      "departure_time": "09:21:00",
      "old": false,
      "stop_lat": 50.084477,
      "stop_lon": 20.020671,
      "stop_name": "DH Wanda",
      "stop_num": "01",
      "stop_sequence": 15,
      "stopping": false,
      "time": null,
      "trip_id": "block_213_trip_8_service_5",
      "trip_num": 8
    },
    {
      "delay": null,
      "departure_time": "09:23:00",
      "old": false,
      "stop_lat": 50.090025,
      "stop_lon": 20.021395,
      "stop_name": "Rondo Hipokratesa",
      "stop_num": "01",
      "stop_sequence": 16,
      "stopping": false,
      "time": null,
      "trip_id": "block_213_trip_8_service_5",
      "trip_num": 8
    },
    {
      "delay": null,
      "departure_time": "09:24:00",
      "old": false,
      "stop_lat": 50.092201,
      "stop_lon": 20.016038,
      "stop_name": "Dunikowskiego",
      "stop_num": "01",
      "stop_sequence": 17,
      "stopping": false,
      "time": null,
      "trip_id": "block_213_trip_8_service_5",
      "trip_num": 8
    },
    {
      "delay": null,
      "departure_time": "09:26:00",
      "old": false,
      "stop_lat": 50.095792,
      "stop_lon": 20.012713,
      "stop_name": "Kleeberga",
      "stop_num": "01",
      "stop_sequence": 18,
      "stopping": false,
      "time": null,
      "trip_id": "block_213_trip_8_service_5",
      "trip_num": 8
    },
    {
      "delay": null,
      "departure_time": "09:27:00",
      "old": false,
      "stop_lat": 50.097862,
      "stop_lon": 20.013018,
      "stop_name": "Piasta Kołodzieja",
      "stop_num": "01",
      "stop_sequence": 19,
      "stopping": false,
      "time": null,
      "trip_id": "block_213_trip_8_service_5",
      "trip_num": 8
    },
    {
      "delay": null,
      "departure_time": "09:29:00",
      "old": false,
      "stop_lat": 50.101977,
      "stop_lon": 20.012058,
      "stop_name": "Os. Piastów",
      "stop_num": "01",
      "stop_sequence": 20,
      "stopping": false,
      "time": null,
      "trip_id": "block_213_trip_8_service_5",
      "trip_num": 8
    },
    {
      "delay": null,
      "departure_time": "09:45:00",
      "old": false,
      "stop_lat": 50.101977,
      "stop_lon": 20.012058,
      "stop_name": "Os. Piastów",
      "stop_num": "01",
      "stop_sequence": 1,
      "stopping": false,
      "time": null,
      "trip_id": "block_213_trip_9_service_5",
      "trip_num": 9
    },
    {
      "delay": null,
      "departure_time": "09:46:00",
      "old": false,
      "stop_lat": 50.098526,
      "stop_lon": 20.013051,
      "stop_name": "Piasta Kołodzieja",
      "stop_num": "02",
      "stop_sequence": 2,
      "stopping": false,
      "time": null,
      "trip_id": "block_213_trip_9_service_5",
      "trip_num": 9
    },
    {
      "delay": null,
      "departure_time": "09:47:00",
      "old": false,
      "stop_lat": 50.095759,
      "stop_lon": 20.012638,
      "stop_name": "Kleeberga",
      "stop_num": "02",
      "stop_sequence": 3,
      "stopping": false,
      "time": null,
      "trip_id": "block_213_trip_9_service_5",
      "trip_num": 9
    },
    {
      "delay": null,
      "departure_time": "09:49:00",
      "old": false,
      "stop_lat": 50.092518,
      "stop_lon": 20.015491,
      "stop_name": "Dunikowskiego",
      "stop_num": "02",
      "stop_sequence": 4,
      "stopping": false,
      "time": null,
      "trip_id": "block_213_trip_9_service_5",
      "trip_num": 9
    },
    {
      "delay": null,
      "departure_time": "09:51:00",
      "old": false,
      "stop_lat": 50.090094,
      "stop_lon": 20.021355,
      "stop_name": "Rondo Hipokratesa",
      "stop_num": "02",
      "stop_sequence": 5,
      "stopping": false,
      "time": null,
      "trip_id": "block_213_trip_9_service_5",
      "trip_num": 9
    },
    {
      "delay": null,
      "departure_time": "09:52:00",
      "old": false,
      "stop_lat": 50.084432,
      "stop_lon": 20.020689,
      "stop_name": "DH Wanda",
      "stop_num": "02",
      "stop_sequence": 6,
      "stopping": false,
      "time": null,
      "trip_id": "block_213_trip_9_service_5",
      "trip_num": 9
    },
    {
      "delay": null,
      "departure_time": "09:55:00",
      "old": false,
      "stop_lat": 50.079056,
      "stop_lon": 20.02806,
      "stop_name": "Rondo Kocmyrzowskie im. Ks. Gorzelanego",
      "stop_num": "04",
      "stop_sequence": 7,
      "stopping": false,
      "time": null,
      "trip_id": "block_213_trip_9_service_5",
      "trip_num": 9
    },
    {
      "delay": null,
      "departure_time": "09:56:00",
      "old": false,
      "stop_lat": 50.076921,
      "stop_lon": 20.030839,
      "stop_name": "Os. Zgody",
      "stop_num": "01",
      "stop_sequence": 8,
      "stopping": false,
      "time": null,
      "trip_id": "block_213_trip_9_service_5",
      "trip_num": 9
    },
    {
      "delay": null,
      "departure_time": "09:59:00",
      "old": false,
      "stop_lat": 50.072556,
      "stop_lon": 20.038845,
      "stop_name": "Plac Centralny im. R.Reagana",
      "stop_num": "03",
      "stop_sequence": 9,
      "stopping": false,
      "time": null,
      "trip_id": "block_213_trip_9_service_5",
      "trip_num": 9
    },
    {
      "delay": null,
      "departure_time": "10:00:00",
      "old": false,
      "stop_lat": 50.074547,
      "stop_lon": 20.046307,
      "stop_name": "Struga",
      "stop_num": "01",
      "stop_sequence": 10,
      "stopping": false,
      "time": null,
      "trip_id": "block_213_trip_9_service_5",
      "trip_num": 9
    },
    {
      "delay": null,
      "departure_time": "10:01:00",
      "old": false,
      "stop_lat": 50.076158,
      "stop_lon": 20.052488,
      "stop_name": "Zalew Nowohucki",
      "stop_num": "01",
      "stop_sequence": 11,
      "stopping": false,
      "time": null,
      "trip_id": "block_213_trip_9_service_5",
      "trip_num": 9
    },
    {
      "delay": null,
      "departure_time": "10:03:00",
      "old": false,
      "stop_lat": 50.079135,
      "stop_lon": 20.065059,
      "stop_name": "Kombinat",
      "stop_num": "01",
      "stop_sequence": 12,
      "stopping": false,
      "time": null,
      "trip_id": "block_213_trip_9_service_5",
      "trip_num": 9
    },
    {
      "delay": null,
      "departure_time": "10:06:00",
      "old": false,
      "stop_lat": 50.069952,
      "stop_lon": 20.066722,
      "stop_name": "Kopiec Wandy",
      "stop_num": "01",
      "stop_sequence": 13,
      "stopping": false,
      "time": null,
      "trip_id": "block_213_trip_9_service_5",
      "trip_num": 9
    },
    {
      "delay": null,
      "departure_time": "10:07:00",
      "old": false,
      "stop_lat": 50.066659,
      "stop_lon": 20.070794,
      "stop_name": "Fort Mogiła (nż)",
      "stop_num": "01",
      "stop_sequence": 14,
      "stopping": false,
      "time": null,
      "trip_id": "block_213_trip_9_service_5",
      "trip_num": 9
    },
    {
      "delay": null,
      "departure_time": "10:08:00",
      "old": false,
      "stop_lat": 50.064955,
      "stop_lon": 20.074756,
      "stop_name": "Brama nr 4 (nż)",
      "stop_num": "01",
      "stop_sequence": 15,
      "stopping": false,
      "time": null,
      "trip_id": "block_213_trip_9_service_5",
      "trip_num": 9
    },
    {
      "delay": null,
      "departure_time": "10:09:00",
      "old": false,
      "stop_lat": 50.06462,
      "stop_lon": 20.08447,
      "stop_name": "Giedroycia (nż)",
      "stop_num": "01",
      "stop_sequence": 16,
      "stopping": false,
      "time": null,
      "trip_id": "block_213_trip_9_service_5",
      "trip_num": 9
    },
    {
      "delay": null,
      "departure_time": "10:10:00",
      "old": false,
      "stop_lat": 50.069176,
      "stop_lon": 20.09178,
      "stop_name": "Brama nr 5 (nż)",
      "stop_num": "01",
      "stop_sequence": 17,
      "stopping": false,
      "time": null,
      "trip_id": "block_213_trip_9_service_5",
      "trip_num": 9
    },
    {
      "delay": null,
      "departure_time": "10:11:00",
      "old": false,
      "stop_lat": 50.069815,
      "stop_lon": 20.09469,
      "stop_name": "Meksyk (nż)",
      "stop_num": "01",
      "stop_sequence": 18,
      "stopping": false,
      "time": null,
      "trip_id": "block_213_trip_9_service_5",
      "trip_num": 9
    },
    {
      "delay": null,
      "departure_time": "10:12:00",
      "old": false,
      "stop_lat": 50.071926,
      "stop_lon": 20.104695,
      "stop_name": "Koksochemia (nż)",
      "stop_num": "01",
      "stop_sequence": 19,
      "stopping": false,
      "time": null,
      "trip_id": "block_213_trip_9_service_5",
      "trip_num": 9
    },
    {
      "delay": null,
      "departure_time": "10:14:00",
      "old": false,
      "stop_lat": 50.072893,
      "stop_lon": 20.11689,
      "stop_name": "Pleszów",
      "stop_num": "01",
      "stop_sequence": 20,
      "stopping": false,
      "time": null,
      "trip_id": "block_213_trip_9_service_5",
      "trip_num": 9
    },
    {
      "delay": null,
      "departure_time": "10:46:00",
      "old": false,
      "stop_lat": 50.072893,
      "stop_lon": 20.11689,
      "stop_name": "Pleszów",
      "stop_num": "01",
      "stop_sequence": 1,
      "stopping": false,
      "time": null,
      "trip_id": "block_213_trip_10_service_5",
      "trip_num": 10
    },
    {
      "delay": null,
      "departure_time": "10:47:00",
      "old": false,
      "stop_lat": 50.071926,
      "stop_lon": 20.104459,
      "stop_name": "Koksochemia (nż)",
      "stop_num": "02",
      "stop_sequence": 2,
      "stopping": false,
      "time": null,
      "trip_id": "block_213_trip_10_service_5",
      "trip_num": 10
    },
    {
      "delay": null,
      "departure_time": "10:48:00",
      "old": false,
      "stop_lat": 50.069892,
      "stop_lon": 20.095243,
      "stop_name": "Meksyk (nż)",
      "stop_num": "02",
      "stop_sequence": 3,
      "stopping": false,
      "time": null,
      "trip_id": "block_213_trip_10_service_5",
      "trip_num": 10
    },
    {
      "delay": null,
      "departure_time": "10:49:00",
      "old": false,
      "stop_lat": 50.069071,
      "stop_lon": 20.091584,
      "stop_name": "Brama nr 5 (nż)",
      "stop_num": "02",
      "stop_sequence": 4,
      "stopping": false,
      "time": null,
      "trip_id": "block_213_trip_10_service_5",
      "trip_num": 10
    },
    {
      "delay": null,
      "departure_time": "10:50:00",
      "old": false,
      "stop_lat": 50.06473,
      "stop_lon": 20.08479,
      "stop_name": "Giedroycia (nż)",
      "stop_num": "02",
      "stop_sequence": 5,
      "stopping": false,
      "time": null,
      "trip_id": "block_213_trip_10_service_5",
      "trip_num": 10
    },
    {
      "delay": null,
      "departure_time": "10:51:00",
      "old": false,
      "stop_lat": 50.064899,
      "stop_lon": 20.075212,
      "stop_name": "Brama nr 4 (nż)",
      "stop_num": "02",
      "stop_sequence": 6,
      "stopping": false,
      "time": null,
      "trip_id": "block_213_trip_10_service_5",
      "trip_num": 10
    },
    {
      "delay": null,
      "departure_time": "10:52:00",
      "old": false,
      "stop_lat": 50.066394,
      "stop_lon": 20.071325,
      "stop_name": "Fort Mogiła (nż)",
      "stop_num": "02",
      "stop_sequence": 7,
      "stopping": false,
      "time": null,
      "trip_id": "block_213_trip_10_service_5",
      "trip_num": 10
    },
    {
      "delay": null,
      "departure_time": "10:54:00",
      "old": false,
      "stop_lat": 50.069726,
      "stop_lon": 20.067014,
      "stop_name": "Kopiec Wandy",
      "stop_num": "02",
      "stop_sequence": 8,
      "stopping": false,
      "time": null,
      "trip_id": "block_213_trip_10_service_5",
      "trip_num": 10
    },
    {
      "delay": null,
      "departure_time": "10:56:00",
      "old": false,
      "stop_lat": 50.0787,
      "stop_lon": 20.066005,
      "stop_name": "Kombinat",
      "stop_num": "03",
      "stop_sequence": 9,
      "stopping": false,
      "time": null,
      "trip_id": "block_213_trip_10_service_5",
      "trip_num": 10
    },
    {
      "delay": null,
      "departure_time": "10:58:00",
      "old": false,
      "stop_lat": 50.076232,
      "stop_lon": 20.052439,
      "stop_name": "Zalew Nowohucki",
      "stop_num": "02",
      "stop_sequence": 10,
      "stopping": false,
      "time": null,
      "trip_id": "block_213_trip_10_service_5",
      "trip_num": 10
    },
    {
      "delay": null,
      "departure_time": "10:59:00",
      "old": false,
      "stop_lat": 50.074892,
      "stop_lon": 20.047467,
      "stop_name": "Struga",
      "stop_num": "02",
      "stop_sequence": 11,
      "stopping": false,
      "time": null,
      "trip_id": "block_213_trip_10_service_5",
      "trip_num": 10
    },
    {
      "delay": null,
      "departure_time": "11:01:00",
      "old": false,
      "stop_lat": 50.072961,
      "stop_lon": 20.036331,
      "stop_name": "Plac Centralny im. R.Reagana",
      "stop_num": "02",
      "stop_sequence": 12,
      "stopping": false,
      "time": null,
      "trip_id": "block_213_trip_10_service_5",
      "trip_num": 10
    },
    {
      "delay": null,
      "departure_time": "11:02:00",
      "old": false,
      "stop_lat": 50.076456,
      "stop_lon": 20.031524,
      "stop_name": "Os. Zgody",
      "stop_num": "02",
      "stop_sequence": 13,
      "stopping": false,
      "time": null,
      "trip_id": "block_213_trip_10_service_5",
      "trip_num": 10
    },
    {
      "delay": null,
      "departure_time": "11:05:00",
      "old": false,
      "stop_lat": 50.080257,
      "stop_lon": 20.026561,
      "stop_name": "Rondo Kocmyrzowskie im. Ks. Gorzelanego",
      "stop_num": "01",
      "stop_sequence": 14,
      "stopping": false,
      "time": null,
      "trip_id": "block_213_trip_10_service_5",
      "trip_num": 10
    },
    {
      "delay": null,
      "departure_time": "11:06:00",
      "old": false,
      "stop_lat": 50.084477,
      "stop_lon": 20.020671,
      "stop_name": "DH Wanda",
      "stop_num": "01",
      "stop_sequence": 15,
      "stopping": false,
      "time": null,
      "trip_id": "block_213_trip_10_service_5",
      "trip_num": 10
    },
    {
      "delay": null,
      "departure_time": "11:08:00",
      "old": false,
      "stop_lat": 50.090025,
      "stop_lon": 20.021395,
      "stop_name": "Rondo Hipokratesa",
      "stop_num": "01",
      "stop_sequence": 16,
      "stopping": false,
      "time": null,
      "trip_id": "block_213_trip_10_service_5",
      "trip_num": 10
    },
    {
      "delay": null,
      "departure_time": "11:09:00",
      "old": false,
      "stop_lat": 50.092201,
      "stop_lon": 20.016038,
      "stop_name": "Dunikowskiego",
      "stop_num": "01",
      "stop_sequence": 17,
      "stopping": false,
      "time": null,
      "trip_id": "block_213_trip_10_service_5",
      "trip_num": 10
    },
    {
      "delay": null,
      "departure_time": "11:11:00",
      "old": false,
      "stop_lat": 50.095792,
      "stop_lon": 20.012713,
      "stop_name": "Kleeberga",
      "stop_num": "01",
      "stop_sequence": 18,
      "stopping": false,
      "time": null,
      "trip_id": "block_213_trip_10_service_5",
      "trip_num": 10
    },
    {
      "delay": null,
      "departure_time": "11:12:00",
      "old": false,
      "stop_lat": 50.097862,
      "stop_lon": 20.013018,
      "stop_name": "Piasta Kołodzieja",
      "stop_num": "01",
      "stop_sequence": 19,
      "stopping": false,
      "time": null,
      "trip_id": "block_213_trip_10_service_5",
      "trip_num": 10
    },
    {
      "delay": null,
      "departure_time": "11:14:00",
      "old": false,
      "stop_lat": 50.101977,
      "stop_lon": 20.012058,
      "stop_name": "Os. Piastów",
      "stop_num": "01",
      "stop_sequence": 20,
      "stopping": false,
      "time": null,
      "trip_id": "block_213_trip_10_service_5",
      "trip_num": 10
    },
    {
      "delay": null,
      "departure_time": "11:30:00",
      "old": false,
      "stop_lat": 50.101977,
      "stop_lon": 20.012058,
      "stop_name": "Os. Piastów",
      "stop_num": "01",
      "stop_sequence": 1,
      "stopping": false,
      "time": null,
      "trip_id": "block_213_trip_11_service_5",
      "trip_num": 11
    },
    {
      "delay": null,
      "departure_time": "11:31:00",
      "old": false,
      "stop_lat": 50.098526,
      "stop_lon": 20.013051,
      "stop_name": "Piasta Kołodzieja",
      "stop_num": "02",
      "stop_sequence": 2,
      "stopping": false,
      "time": null,
      "trip_id": "block_213_trip_11_service_5",
      "trip_num": 11
    },
    {
      "delay": null,
      "departure_time": "11:32:00",
      "old": false,
      "stop_lat": 50.095759,
      "stop_lon": 20.012638,
      "stop_name": "Kleeberga",
      "stop_num": "02",
      "stop_sequence": 3,
      "stopping": false,
      "time": null,
      "trip_id": "block_213_trip_11_service_5",
      "trip_num": 11
    },
    {
      "delay": null,
      "departure_time": "11:34:00",
      "old": false,
      "stop_lat": 50.092518,
      "stop_lon": 20.015491,
      "stop_name": "Dunikowskiego",
      "stop_num": "02",
      "stop_sequence": 4,
      "stopping": false,
      "time": null,
      "trip_id": "block_213_trip_11_service_5",
      "trip_num": 11
    },
    {
      "delay": null,
      "departure_time": "11:36:00",
      "old": false,
      "stop_lat": 50.090094,
      "stop_lon": 20.021355,
      "stop_name": "Rondo Hipokratesa",
      "stop_num": "02",
      "stop_sequence": 5,
      "stopping": false,
      "time": null,
      "trip_id": "block_213_trip_11_service_5",
      "trip_num": 11
    },
    {
      "delay": null,
      "departure_time": "11:37:00",
      "old": false,
      "stop_lat": 50.084432,
      "stop_lon": 20.020689,
      "stop_name": "DH Wanda",
      "stop_num": "02",
      "stop_sequence": 6,
      "stopping": false,
      "time": null,
      "trip_id": "block_213_trip_11_service_5",
      "trip_num": 11
    },
    {
      "delay": null,
      "departure_time": "11:40:00",
      "old": false,
      "stop_lat": 50.079056,
      "stop_lon": 20.02806,
      "stop_name": "Rondo Kocmyrzowskie im. Ks. Gorzelanego",
      "stop_num": "04",
      "stop_sequence": 7,
      "stopping": false,
      "time": null,
      "trip_id": "block_213_trip_11_service_5",
      "trip_num": 11
    },
    {
      "delay": null,
      "departure_time": "11:41:00",
      "old": false,
      "stop_lat": 50.076921,
      "stop_lon": 20.030839,
      "stop_name": "Os. Zgody",
      "stop_num": "01",
      "stop_sequence": 8,
      "stopping": false,
      "time": null,
      "trip_id": "block_213_trip_11_service_5",
      "trip_num": 11
    },
    {
      "delay": null,
      "departure_time": "11:44:00",
      "old": false,
      "stop_lat": 50.072556,
      "stop_lon": 20.038845,
      "stop_name": "Plac Centralny im. R.Reagana",
      "stop_num": "03",
      "stop_sequence": 9,
      "stopping": false,
      "time": null,
      "trip_id": "block_213_trip_11_service_5",
      "trip_num": 11
    },
    {
      "delay": null,
      "departure_time": "11:45:00",
      "old": false,
      "stop_lat": 50.074547,
      "stop_lon": 20.046307,
      "stop_name": "Struga",
      "stop_num": "01",
      "stop_sequence": 10,
      "stopping": false,
      "time": null,
      "trip_id": "block_213_trip_11_service_5",
      "trip_num": 11
    },
    {
      "delay": null,
      "departure_time": "11:46:00",
      "old": false,
      "stop_lat": 50.076158,
      "stop_lon": 20.052488,
      "stop_name": "Zalew Nowohucki",
      "stop_num": "01",
      "stop_sequence": 11,
      "stopping": false,
      "time": null,
      "trip_id": "block_213_trip_11_service_5",
      "trip_num": 11
    },
    {
      "delay": null,
      "departure_time": "11:48:00",
      "old": false,
      "stop_lat": 50.079135,
      "stop_lon": 20.065059,
      "stop_name": "Kombinat",
      "stop_num": "01",
      "stop_sequence": 12,
      "stopping": false,
      "time": null,
      "trip_id": "block_213_trip_11_service_5",
      "trip_num": 11
    },
    {
      "delay": null,
      "departure_time": "11:51:00",
      "old": false,
      "stop_lat": 50.069726,
      "stop_lon": 20.067014,
      "stop_name": "Kopiec Wandy",
      "stop_num": "02",
      "stop_sequence": 13,
      "stopping": false,
      "time": null,
      "trip_id": "block_213_trip_11_service_5",
      "trip_num": 11
    },
    {
      "delay": null,
      "departure_time": "12:09:00",
      "old": false,
      "stop_lat": 50.069726,
      "stop_lon": 20.067014,
      "stop_name": "Kopiec Wandy",
      "stop_num": "02",
      "stop_sequence": 1,
      "stopping": false,
      "time": null,
      "trip_id": "block_213_trip_12_service_5",
      "trip_num": 12
    },
    {
      "delay": null,
      "departure_time": "12:11:00",
      "old": false,
      "stop_lat": 50.0787,
      "stop_lon": 20.066005,
      "stop_name": "Kombinat",
      "stop_num": "03",
      "stop_sequence": 2,
      "stopping": false,
      "time": null,
      "trip_id": "block_213_trip_12_service_5",
      "trip_num": 12
    },
    {
      "delay": null,
      "departure_time": "12:13:00",
      "old": false,
      "stop_lat": 50.076232,
      "stop_lon": 20.052439,
      "stop_name": "Zalew Nowohucki",
      "stop_num": "02",
      "stop_sequence": 3,
      "stopping": false,
      "time": null,
      "trip_id": "block_213_trip_12_service_5",
      "trip_num": 12
    },
    {
      "delay": null,
      "departure_time": "12:14:00",
      "old": false,
      "stop_lat": 50.074892,
      "stop_lon": 20.047467,
      "stop_name": "Struga",
      "stop_num": "02",
      "stop_sequence": 4,
      "stopping": false,
      "time": null,
      "trip_id": "block_213_trip_12_service_5",
      "trip_num": 12
    },
    {
      "delay": null,
      "departure_time": "12:16:00",
      "old": false,
      "stop_lat": 50.072961,
      "stop_lon": 20.036331,
      "stop_name": "Plac Centralny im. R.Reagana",
      "stop_num": "02",
      "stop_sequence": 5,
      "stopping": false,
      "time": null,
      "trip_id": "block_213_trip_12_service_5",
      "trip_num": 12
    },
    {
      "delay": null,
      "departure_time": "12:17:00",
      "old": false,
      "stop_lat": 50.076456,
      "stop_lon": 20.031524,
      "stop_name": "Os. Zgody",
      "stop_num": "02",
      "stop_sequence": 6,
      "stopping": false,
      "time": null,
      "trip_id": "block_213_trip_12_service_5",
      "trip_num": 12
    },
    {
      "delay": null,
      "departure_time": "12:20:00",
      "old": false,
      "stop_lat": 50.080257,
      "stop_lon": 20.026561,
      "stop_name": "Rondo Kocmyrzowskie im. Ks. Gorzelanego",
      "stop_num": "01",
      "stop_sequence": 7,
      "stopping": false,
      "time": null,
      "trip_id": "block_213_trip_12_service_5",
      "trip_num": 12
    },
    {
      "delay": null,
      "departure_time": "12:21:00",
      "old": false,
      "stop_lat": 50.084477,
      "stop_lon": 20.020671,
      "stop_name": "DH Wanda",
      "stop_num": "01",
      "stop_sequence": 8,
      "stopping": false,
      "time": null,
      "trip_id": "block_213_trip_12_service_5",
      "trip_num": 12
    },
    {
      "delay": null,
      "departure_time": "12:23:00",
      "old": false,
      "stop_lat": 50.090025,
      "stop_lon": 20.021395,
      "stop_name": "Rondo Hipokratesa",
      "stop_num": "01",
      "stop_sequence": 9,
      "stopping": false,
      "time": null,
      "trip_id": "block_213_trip_12_service_5",
      "trip_num": 12
    },
    {
      "delay": null,
      "departure_time": "12:24:00",
      "old": false,
      "stop_lat": 50.092201,
      "stop_lon": 20.016038,
      "stop_name": "Dunikowskiego",
      "stop_num": "01",
      "stop_sequence": 10,
      "stopping": false,
      "time": null,
      "trip_id": "block_213_trip_12_service_5",
      "trip_num": 12
    },
    {
      "delay": null,
      "departure_time": "12:26:00",
      "old": false,
      "stop_lat": 50.095792,
      "stop_lon": 20.012713,
      "stop_name": "Kleeberga",
      "stop_num": "01",
      "stop_sequence": 11,
      "stopping": false,
      "time": null,
      "trip_id": "block_213_trip_12_service_5",
      "trip_num": 12
    },
    {
      "delay": null,
      "departure_time": "12:27:00",
      "old": false,
      "stop_lat": 50.097862,
      "stop_lon": 20.013018,
      "stop_name": "Piasta Kołodzieja",
      "stop_num": "01",
      "stop_sequence": 12,
      "stopping": false,
      "time": null,
      "trip_id": "block_213_trip_12_service_5",
      "trip_num": 12
    },
    {
      "delay": null,
      "departure_time": "12:29:00",
      "old": false,
      "stop_lat": 50.101977,
      "stop_lon": 20.012058,
      "stop_name": "Os. Piastów",
      "stop_num": "01",
      "stop_sequence": 13,
      "stopping": false,
      "time": null,
      "trip_id": "block_213_trip_12_service_5",
      "trip_num": 12
    },
    {
      "delay": null,
      "departure_time": "12:45:00",
      "old": false,
      "stop_lat": 50.101977,
      "stop_lon": 20.012058,
      "stop_name": "Os. Piastów",
      "stop_num": "01",
      "stop_sequence": 1,
      "stopping": false,
      "time": null,
      "trip_id": "block_213_trip_13_service_5",
      "trip_num": 13
    },
    {
      "delay": null,
      "departure_time": "12:46:00",
      "old": false,
      "stop_lat": 50.098526,
      "stop_lon": 20.013051,
      "stop_name": "Piasta Kołodzieja",
      "stop_num": "02",
      "stop_sequence": 2,
      "stopping": false,
      "time": null,
      "trip_id": "block_213_trip_13_service_5",
      "trip_num": 13
    },
    {
      "delay": null,
      "departure_time": "12:47:00",
      "old": false,
      "stop_lat": 50.095759,
      "stop_lon": 20.012638,
      "stop_name": "Kleeberga",
      "stop_num": "02",
      "stop_sequence": 3,
      "stopping": false,
      "time": null,
      "trip_id": "block_213_trip_13_service_5",
      "trip_num": 13
    },
    {
      "delay": null,
      "departure_time": "12:49:00",
      "old": false,
      "stop_lat": 50.092518,
      "stop_lon": 20.015491,
      "stop_name": "Dunikowskiego",
      "stop_num": "02",
      "stop_sequence": 4,
      "stopping": false,
      "time": null,
      "trip_id": "block_213_trip_13_service_5",
      "trip_num": 13
    },
    {
      "delay": null,
      "departure_time": "12:51:00",
      "old": false,
      "stop_lat": 50.090094,
      "stop_lon": 20.021355,
      "stop_name": "Rondo Hipokratesa",
      "stop_num": "02",
      "stop_sequence": 5,
      "stopping": false,
      "time": null,
      "trip_id": "block_213_trip_13_service_5",
      "trip_num": 13
    },
    {
      "delay": null,
      "departure_time": "12:52:00",
      "old": false,
      "stop_lat": 50.084432,
      "stop_lon": 20.020689,
      "stop_name": "DH Wanda",
      "stop_num": "02",
      "stop_sequence": 6,
      "stopping": false,
      "time": null,
      "trip_id": "block_213_trip_13_service_5",
      "trip_num": 13
    },
    {
      "delay": null,
      "departure_time": "12:55:00",
      "old": false,
      "stop_lat": 50.079056,
      "stop_lon": 20.02806,
      "stop_name": "Rondo Kocmyrzowskie im. Ks. Gorzelanego",
      "stop_num": "04",
      "stop_sequence": 7,
      "stopping": false,
      "time": null,
      "trip_id": "block_213_trip_13_service_5",
      "trip_num": 13
    },
    {
      "delay": null,
      "departure_time": "12:56:00",
      "old": false,
      "stop_lat": 50.076921,
      "stop_lon": 20.030839,
      "stop_name": "Os. Zgody",
      "stop_num": "01",
      "stop_sequence": 8,
      "stopping": false,
      "time": null,
      "trip_id": "block_213_trip_13_service_5",
      "trip_num": 13
    },
    {
      "delay": null,
      "departure_time": "12:59:00",
      "old": false,
      "stop_lat": 50.072556,
      "stop_lon": 20.038845,
      "stop_name": "Plac Centralny im. R.Reagana",
      "stop_num": "03",
      "stop_sequence": 9,
      "stopping": false,
      "time": null,
      "trip_id": "block_213_trip_13_service_5",
      "trip_num": 13
    },
    {
      "delay": null,
      "departure_time": "13:00:00",
      "old": false,
      "stop_lat": 50.074547,
      "stop_lon": 20.046307,
      "stop_name": "Struga",
      "stop_num": "01",
      "stop_sequence": 10,
      "stopping": false,
      "time": null,
      "trip_id": "block_213_trip_13_service_5",
      "trip_num": 13
    },
    {
      "delay": null,
      "departure_time": "13:01:00",
      "old": false,
      "stop_lat": 50.076158,
      "stop_lon": 20.052488,
      "stop_name": "Zalew Nowohucki",
      "stop_num": "01",
      "stop_sequence": 11,
      "stopping": false,
      "time": null,
      "trip_id": "block_213_trip_13_service_5",
      "trip_num": 13
    },
    {
      "delay": null,
      "departure_time": "13:03:00",
      "old": false,
      "stop_lat": 50.079135,
      "stop_lon": 20.065059,
      "stop_name": "Kombinat",
      "stop_num": "01",
      "stop_sequence": 12,
      "stopping": false,
      "time": null,
      "trip_id": "block_213_trip_13_service_5",
      "trip_num": 13
    },
    {
      "delay": null,
      "departure_time": "13:06:00",
      "old": false,
      "stop_lat": 50.069952,
      "stop_lon": 20.066722,
      "stop_name": "Kopiec Wandy",
      "stop_num": "01",
      "stop_sequence": 13,
      "stopping": false,
      "time": null,
      "trip_id": "block_213_trip_13_service_5",
      "trip_num": 13
    },
    {
      "delay": null,
      "departure_time": "13:07:00",
      "old": false,
      "stop_lat": 50.066659,
      "stop_lon": 20.070794,
      "stop_name": "Fort Mogiła (nż)",
      "stop_num": "01",
      "stop_sequence": 14,
      "stopping": false,
      "time": null,
      "trip_id": "block_213_trip_13_service_5",
      "trip_num": 13
    },
    {
      "delay": null,
      "departure_time": "13:08:00",
      "old": false,
      "stop_lat": 50.064955,
      "stop_lon": 20.074756,
      "stop_name": "Brama nr 4 (nż)",
      "stop_num": "01",
      "stop_sequence": 15,
      "stopping": false,
      "time": null,
      "trip_id": "block_213_trip_13_service_5",
      "trip_num": 13
    },
    {
      "delay": null,
      "departure_time": "13:09:00",
      "old": false,
      "stop_lat": 50.06462,
      "stop_lon": 20.08447,
      "stop_name": "Giedroycia (nż)",
      "stop_num": "01",
      "stop_sequence": 16,
      "stopping": false,
      "time": null,
      "trip_id": "block_213_trip_13_service_5",
      "trip_num": 13
    },
    {
      "delay": null,
      "departure_time": "13:10:00",
      "old": false,
      "stop_lat": 50.069176,
      "stop_lon": 20.09178,
      "stop_name": "Brama nr 5 (nż)",
      "stop_num": "01",
      "stop_sequence": 17,
      "stopping": false,
      "time": null,
      "trip_id": "block_213_trip_13_service_5",
      "trip_num": 13
    },
    {
      "delay": null,
      "departure_time": "13:11:00",
      "old": false,
      "stop_lat": 50.069815,
      "stop_lon": 20.09469,
      "stop_name": "Meksyk (nż)",
      "stop_num": "01",
      "stop_sequence": 18,
      "stopping": false,
      "time": null,
      "trip_id": "block_213_trip_13_service_5",
      "trip_num": 13
    },
    {
      "delay": null,
      "departure_time": "13:12:00",
      "old": false,
      "stop_lat": 50.071926,
      "stop_lon": 20.104695,
      "stop_name": "Koksochemia (nż)",
      "stop_num": "01",
      "stop_sequence": 19,
      "stopping": false,
      "time": null,
      "trip_id": "block_213_trip_13_service_5",
      "trip_num": 13
    },
    {
      "delay": null,
      "departure_time": "13:14:00",
      "old": false,
      "stop_lat": 50.072893,
      "stop_lon": 20.11689,
      "stop_name": "Pleszów",
      "stop_num": "01",
      "stop_sequence": 20,
      "stopping": false,
      "time": null,
      "trip_id": "block_213_trip_13_service_5",
      "trip_num": 13
    },
    {
      "delay": null,
      "departure_time": "13:31:00",
      "old": false,
      "stop_lat": 50.072893,
      "stop_lon": 20.11689,
      "stop_name": "Pleszów",
      "stop_num": "01",
      "stop_sequence": 1,
      "stopping": false,
      "time": null,
      "trip_id": "block_213_trip_14_service_5",
      "trip_num": 14
    },
    {
      "delay": null,
      "departure_time": "13:32:00",
      "old": false,
      "stop_lat": 50.071926,
      "stop_lon": 20.104459,
      "stop_name": "Koksochemia (nż)",
      "stop_num": "02",
      "stop_sequence": 2,
      "stopping": false,
      "time": null,
      "trip_id": "block_213_trip_14_service_5",
      "trip_num": 14
    },
    {
      "delay": null,
      "departure_time": "13:33:00",
      "old": false,
      "stop_lat": 50.069892,
      "stop_lon": 20.095243,
      "stop_name": "Meksyk (nż)",
      "stop_num": "02",
      "stop_sequence": 3,
      "stopping": false,
      "time": null,
      "trip_id": "block_213_trip_14_service_5",
      "trip_num": 14
    },
    {
      "delay": null,
      "departure_time": "13:34:00",
      "old": false,
      "stop_lat": 50.069071,
      "stop_lon": 20.091584,
      "stop_name": "Brama nr 5 (nż)",
      "stop_num": "02",
      "stop_sequence": 4,
      "stopping": false,
      "time": null,
      "trip_id": "block_213_trip_14_service_5",
      "trip_num": 14
    },
    {
      "delay": null,
      "departure_time": "13:35:00",
      "old": false,
      "stop_lat": 50.06473,
      "stop_lon": 20.08479,
      "stop_name": "Giedroycia (nż)",
      "stop_num": "02",
      "stop_sequence": 5,
      "stopping": false,
      "time": null,
      "trip_id": "block_213_trip_14_service_5",
      "trip_num": 14
    },
    {
      "delay": null,
      "departure_time": "13:36:00",
      "old": false,
      "stop_lat": 50.064899,
      "stop_lon": 20.075212,
      "stop_name": "Brama nr 4 (nż)",
      "stop_num": "02",
      "stop_sequence": 6,
      "stopping": false,
      "time": null,
      "trip_id": "block_213_trip_14_service_5",
      "trip_num": 14
    },
    {
      "delay": null,
      "departure_time": "13:37:00",
      "old": false,
      "stop_lat": 50.066394,
      "stop_lon": 20.071325,
      "stop_name": "Fort Mogiła (nż)",
      "stop_num": "02",
      "stop_sequence": 7,
      "stopping": false,
      "time": null,
      "trip_id": "block_213_trip_14_service_5",
      "trip_num": 14
    },
    {
      "delay": null,
      "departure_time": "13:39:00",
      "old": false,
      "stop_lat": 50.069726,
      "stop_lon": 20.067014,
      "stop_name": "Kopiec Wandy",
      "stop_num": "02",
      "stop_sequence": 8,
      "stopping": false,
      "time": null,
      "trip_id": "block_213_trip_14_service_5",
      "trip_num": 14
    },
    {
      "delay": null,
      "departure_time": "13:41:00",
      "old": false,
      "stop_lat": 50.0787,
      "stop_lon": 20.066005,
      "stop_name": "Kombinat",
      "stop_num": "03",
      "stop_sequence": 9,
      "stopping": false,
      "time": null,
      "trip_id": "block_213_trip_14_service_5",
      "trip_num": 14
    },
    {
      "delay": null,
      "departure_time": "13:43:00",
      "old": false,
      "stop_lat": 50.076232,
      "stop_lon": 20.052439,
      "stop_name": "Zalew Nowohucki",
      "stop_num": "02",
      "stop_sequence": 10,
      "stopping": false,
      "time": null,
      "trip_id": "block_213_trip_14_service_5",
      "trip_num": 14
    },
    {
      "delay": null,
      "departure_time": "13:44:00",
      "old": false,
      "stop_lat": 50.074892,
      "stop_lon": 20.047467,
      "stop_name": "Struga",
      "stop_num": "02",
      "stop_sequence": 11,
      "stopping": false,
      "time": null,
      "trip_id": "block_213_trip_14_service_5",
      "trip_num": 14
    },
    {
      "delay": null,
      "departure_time": "13:46:00",
      "old": false,
      "stop_lat": 50.072961,
      "stop_lon": 20.036331,
      "stop_name": "Plac Centralny im. R.Reagana",
      "stop_num": "02",
      "stop_sequence": 12,
      "stopping": false,
      "time": null,
      "trip_id": "block_213_trip_14_service_5",
      "trip_num": 14
    },
    {
      "delay": null,
      "departure_time": "13:47:00",
      "old": false,
      "stop_lat": 50.076456,
      "stop_lon": 20.031524,
      "stop_name": "Os. Zgody",
      "stop_num": "02",
      "stop_sequence": 13,
      "stopping": false,
      "time": null,
      "trip_id": "block_213_trip_14_service_5",
      "trip_num": 14
    },
    {
      "delay": null,
      "departure_time": "13:50:00",
      "old": false,
      "stop_lat": 50.080257,
      "stop_lon": 20.026561,
      "stop_name": "Rondo Kocmyrzowskie im. Ks. Gorzelanego",
      "stop_num": "01",
      "stop_sequence": 14,
      "stopping": false,
      "time": null,
      "trip_id": "block_213_trip_14_service_5",
      "trip_num": 14
    },
    {
      "delay": null,
      "departure_time": "13:51:00",
      "old": false,
      "stop_lat": 50.084477,
      "stop_lon": 20.020671,
      "stop_name": "DH Wanda",
      "stop_num": "01",
      "stop_sequence": 15,
      "stopping": false,
      "time": null,
      "trip_id": "block_213_trip_14_service_5",
      "trip_num": 14
    },
    {
      "delay": null,
      "departure_time": "13:53:00",
      "old": false,
      "stop_lat": 50.090025,
      "stop_lon": 20.021395,
      "stop_name": "Rondo Hipokratesa",
      "stop_num": "01",
      "stop_sequence": 16,
      "stopping": false,
      "time": null,
      "trip_id": "block_213_trip_14_service_5",
      "trip_num": 14
    },
    {
      "delay": null,
      "departure_time": "13:54:00",
      "old": false,
      "stop_lat": 50.092201,
      "stop_lon": 20.016038,
      "stop_name": "Dunikowskiego",
      "stop_num": "01",
      "stop_sequence": 17,
      "stopping": false,
      "time": null,
      "trip_id": "block_213_trip_14_service_5",
      "trip_num": 14
    },
    {
      "delay": null,
      "departure_time": "13:56:00",
      "old": false,
      "stop_lat": 50.095792,
      "stop_lon": 20.012713,
      "stop_name": "Kleeberga",
      "stop_num": "01",
      "stop_sequence": 18,
      "stopping": false,
      "time": null,
      "trip_id": "block_213_trip_14_service_5",
      "trip_num": 14
    },
    {
      "delay": null,
      "departure_time": "13:57:00",
      "old": false,
      "stop_lat": 50.097862,
      "stop_lon": 20.013018,
      "stop_name": "Piasta Kołodzieja",
      "stop_num": "01",
      "stop_sequence": 19,
      "stopping": false,
      "time": null,
      "trip_id": "block_213_trip_14_service_5",
      "trip_num": 14
    },
    {
      "delay": null,
      "departure_time": "13:59:00",
      "old": false,
      "stop_lat": 50.101977,
      "stop_lon": 20.012058,
      "stop_name": "Os. Piastów",
      "stop_num": "01",
      "stop_sequence": 20,
      "stopping": false,
      "time": null,
      "trip_id": "block_213_trip_14_service_5",
      "trip_num": 14
    },
    {
      "delay": null,
      "departure_time": "14:16:00",
      "old": false,
      "stop_lat": 50.101977,
      "stop_lon": 20.012058,
      "stop_name": "Os. Piastów",
      "stop_num": "01",
      "stop_sequence": 1,
      "stopping": false,
      "time": null,
      "trip_id": "block_213_trip_15_service_5",
      "trip_num": 15
    },
    {
      "delay": null,
      "departure_time": "14:17:00",
      "old": false,
      "stop_lat": 50.098526,
      "stop_lon": 20.013051,
      "stop_name": "Piasta Kołodzieja",
      "stop_num": "02",
      "stop_sequence": 2,
      "stopping": false,
      "time": null,
      "trip_id": "block_213_trip_15_service_5",
      "trip_num": 15
    },
    {
      "delay": null,
      "departure_time": "14:18:00",
      "old": false,
      "stop_lat": 50.095759,
      "stop_lon": 20.012638,
      "stop_name": "Kleeberga",
      "stop_num": "02",
      "stop_sequence": 3,
      "stopping": false,
      "time": null,
      "trip_id": "block_213_trip_15_service_5",
      "trip_num": 15
    },
    {
      "delay": null,
      "departure_time": "14:20:00",
      "old": false,
      "stop_lat": 50.092518,
      "stop_lon": 20.015491,
      "stop_name": "Dunikowskiego",
      "stop_num": "02",
      "stop_sequence": 4,
      "stopping": false,
      "time": null,
      "trip_id": "block_213_trip_15_service_5",
      "trip_num": 15
    },
    {
      "delay": null,
      "departure_time": "14:22:00",
      "old": false,
      "stop_lat": 50.090094,
      "stop_lon": 20.021355,
      "stop_name": "Rondo Hipokratesa",
      "stop_num": "02",
      "stop_sequence": 5,
      "stopping": false,
      "time": null,
      "trip_id": "block_213_trip_15_service_5",
      "trip_num": 15
    },
    {
      "delay": null,
      "departure_time": "14:23:00",
      "old": false,
      "stop_lat": 50.084432,
      "stop_lon": 20.020689,
      "stop_name": "DH Wanda",
      "stop_num": "02",
      "stop_sequence": 6,
      "stopping": false,
      "time": null,
      "trip_id": "block_213_trip_15_service_5",
      "trip_num": 15
    },
    {
      "delay": null,
      "departure_time": "14:26:00",
      "old": false,
      "stop_lat": 50.079056,
      "stop_lon": 20.02806,
      "stop_name": "Rondo Kocmyrzowskie im. Ks. Gorzelanego",
      "stop_num": "04",
      "stop_sequence": 7,
      "stopping": false,
      "time": null,
      "trip_id": "block_213_trip_15_service_5",
      "trip_num": 15
    },
    {
      "delay": null,
      "departure_time": "14:27:00",
      "old": false,
      "stop_lat": 50.076921,
      "stop_lon": 20.030839,
      "stop_name": "Os. Zgody",
      "stop_num": "01",
      "stop_sequence": 8,
      "stopping": false,
      "time": null,
      "trip_id": "block_213_trip_15_service_5",
      "trip_num": 15
    },
    {
      "delay": null,
      "departure_time": "14:30:00",
      "old": false,
      "stop_lat": 50.072556,
      "stop_lon": 20.038845,
      "stop_name": "Plac Centralny im. R.Reagana",
      "stop_num": "03",
      "stop_sequence": 9,
      "stopping": false,
      "time": null,
      "trip_id": "block_213_trip_15_service_5",
      "trip_num": 15
    },
    {
      "delay": null,
      "departure_time": "14:31:00",
      "old": false,
      "stop_lat": 50.074547,
      "stop_lon": 20.046307,
      "stop_name": "Struga",
      "stop_num": "01",
      "stop_sequence": 10,
      "stopping": false,
      "time": null,
      "trip_id": "block_213_trip_15_service_5",
      "trip_num": 15
    },
    {
      "delay": null,
      "departure_time": "14:32:00",
      "old": false,
      "stop_lat": 50.076158,
      "stop_lon": 20.052488,
      "stop_name": "Zalew Nowohucki",
      "stop_num": "01",
      "stop_sequence": 11,
      "stopping": false,
      "time": null,
      "trip_id": "block_213_trip_15_service_5",
      "trip_num": 15
    },
    {
      "delay": null,
      "departure_time": "14:34:00",
      "old": false,
      "stop_lat": 50.079135,
      "stop_lon": 20.065059,
      "stop_name": "Kombinat",
      "stop_num": "01",
      "stop_sequence": 12,
      "stopping": false,
      "time": null,
      "trip_id": "block_213_trip_15_service_5",
      "trip_num": 15
    },
    {
      "delay": null,
      "departure_time": "14:37:00",
      "old": false,
      "stop_lat": 50.069952,
      "stop_lon": 20.066722,
      "stop_name": "Kopiec Wandy",
      "stop_num": "01",
      "stop_sequence": 13,
      "stopping": false,
      "time": null,
      "trip_id": "block_213_trip_15_service_5",
      "trip_num": 15
    },
    {
      "delay": null,
      "departure_time": "14:38:00",
      "old": false,
      "stop_lat": 50.066659,
      "stop_lon": 20.070794,
      "stop_name": "Fort Mogiła (nż)",
      "stop_num": "01",
      "stop_sequence": 14,
      "stopping": false,
      "time": null,
      "trip_id": "block_213_trip_15_service_5",
      "trip_num": 15
    },
    {
      "delay": null,
      "departure_time": "14:39:00",
      "old": false,
      "stop_lat": 50.064955,
      "stop_lon": 20.074756,
      "stop_name": "Brama nr 4 (nż)",
      "stop_num": "01",
      "stop_sequence": 15,
      "stopping": false,
      "time": null,
      "trip_id": "block_213_trip_15_service_5",
      "trip_num": 15
    },
    {
      "delay": null,
      "departure_time": "14:40:00",
      "old": false,
      "stop_lat": 50.06462,
      "stop_lon": 20.08447,
      "stop_name": "Giedroycia (nż)",
      "stop_num": "01",
      "stop_sequence": 16,
      "stopping": false,
      "time": null,
      "trip_id": "block_213_trip_15_service_5",
      "trip_num": 15
    },
    {
      "delay": null,
      "departure_time": "14:41:00",
      "old": false,
      "stop_lat": 50.069176,
      "stop_lon": 20.09178,
      "stop_name": "Brama nr 5 (nż)",
      "stop_num": "01",
      "stop_sequence": 17,
      "stopping": false,
      "time": null,
      "trip_id": "block_213_trip_15_service_5",
      "trip_num": 15
    },
    {
      "delay": null,
      "departure_time": "14:42:00",
      "old": false,
      "stop_lat": 50.069815,
      "stop_lon": 20.09469,
      "stop_name": "Meksyk (nż)",
      "stop_num": "01",
      "stop_sequence": 18,
      "stopping": false,
      "time": null,
      "trip_id": "block_213_trip_15_service_5",
      "trip_num": 15
    },
    {
      "delay": null,
      "departure_time": "14:43:00",
      "old": false,
      "stop_lat": 50.071926,
      "stop_lon": 20.104695,
      "stop_name": "Koksochemia (nż)",
      "stop_num": "01",
      "stop_sequence": 19,
      "stopping": false,
      "time": null,
      "trip_id": "block_213_trip_15_service_5",
      "trip_num": 15
    },
    {
      "delay": null,
      "departure_time": "14:45:00",
      "old": false,
      "stop_lat": 50.072893,
      "stop_lon": 20.11689,
      "stop_name": "Pleszów",
      "stop_num": "01",
      "stop_sequence": 20,
      "stopping": false,
      "time": null,
      "trip_id": "block_213_trip_15_service_5",
      "trip_num": 15
    },
    {
      "delay": null,
      "departure_time": "15:01:00",
      "old": false,
      "stop_lat": 50.072893,
      "stop_lon": 20.11689,
      "stop_name": "Pleszów",
      "stop_num": "01",
      "stop_sequence": 1,
      "stopping": false,
      "time": null,
      "trip_id": "block_213_trip_16_service_5",
      "trip_num": 16
    },
    {
      "delay": null,
      "departure_time": "15:02:00",
      "old": false,
      "stop_lat": 50.071926,
      "stop_lon": 20.104459,
      "stop_name": "Koksochemia (nż)",
      "stop_num": "02",
      "stop_sequence": 2,
      "stopping": false,
      "time": null,
      "trip_id": "block_213_trip_16_service_5",
      "trip_num": 16
    },
    {
      "delay": null,
      "departure_time": "15:03:00",
      "old": false,
      "stop_lat": 50.069892,
      "stop_lon": 20.095243,
      "stop_name": "Meksyk (nż)",
      "stop_num": "02",
      "stop_sequence": 3,
      "stopping": false,
      "time": null,
      "trip_id": "block_213_trip_16_service_5",
      "trip_num": 16
    },
    {
      "delay": null,
      "departure_time": "15:04:00",
      "old": false,
      "stop_lat": 50.069071,
      "stop_lon": 20.091584,
      "stop_name": "Brama nr 5 (nż)",
      "stop_num": "02",
      "stop_sequence": 4,
      "stopping": false,
      "time": null,
      "trip_id": "block_213_trip_16_service_5",
      "trip_num": 16
    },
    {
      "delay": null,
      "departure_time": "15:05:00",
      "old": false,
      "stop_lat": 50.06473,
      "stop_lon": 20.08479,
      "stop_name": "Giedroycia (nż)",
      "stop_num": "02",
      "stop_sequence": 5,
      "stopping": false,
      "time": null,
      "trip_id": "block_213_trip_16_service_5",
      "trip_num": 16
    },
    {
      "delay": null,
      "departure_time": "15:06:00",
      "old": false,
      "stop_lat": 50.064899,
      "stop_lon": 20.075212,
      "stop_name": "Brama nr 4 (nż)",
      "stop_num": "02",
      "stop_sequence": 6,
      "stopping": false,
      "time": null,
      "trip_id": "block_213_trip_16_service_5",
      "trip_num": 16
    },
    {
      "delay": null,
      "departure_time": "15:07:00",
      "old": false,
      "stop_lat": 50.066394,
      "stop_lon": 20.071325,
      "stop_name": "Fort Mogiła (nż)",
      "stop_num": "02",
      "stop_sequence": 7,
      "stopping": false,
      "time": null,
      "trip_id": "block_213_trip_16_service_5",
      "trip_num": 16
    },
    {
      "delay": null,
      "departure_time": "15:09:00",
      "old": false,
      "stop_lat": 50.069726,
      "stop_lon": 20.067014,
      "stop_name": "Kopiec Wandy",
      "stop_num": "02",
      "stop_sequence": 8,
      "stopping": false,
      "time": null,
      "trip_id": "block_213_trip_16_service_5",
      "trip_num": 16
    },
    {
      "delay": null,
      "departure_time": "15:11:00",
      "old": false,
      "stop_lat": 50.0787,
      "stop_lon": 20.066005,
      "stop_name": "Kombinat",
      "stop_num": "03",
      "stop_sequence": 9,
      "stopping": false,
      "time": null,
      "trip_id": "block_213_trip_16_service_5",
      "trip_num": 16
    },
    {
      "delay": null,
      "departure_time": "15:13:00",
      "old": false,
      "stop_lat": 50.076232,
      "stop_lon": 20.052439,
      "stop_name": "Zalew Nowohucki",
      "stop_num": "02",
      "stop_sequence": 10,
      "stopping": false,
      "time": null,
      "trip_id": "block_213_trip_16_service_5",
      "trip_num": 16
    },
    {
      "delay": null,
      "departure_time": "15:14:00",
      "old": false,
      "stop_lat": 50.074892,
      "stop_lon": 20.047467,
      "stop_name": "Struga",
      "stop_num": "02",
      "stop_sequence": 11,
      "stopping": false,
      "time": null,
      "trip_id": "block_213_trip_16_service_5",
      "trip_num": 16
    },
    {
      "delay": null,
      "departure_time": "15:16:00",
      "old": false,
      "stop_lat": 50.072961,
      "stop_lon": 20.036331,
      "stop_name": "Plac Centralny im. R.Reagana",
      "stop_num": "02",
      "stop_sequence": 12,
      "stopping": false,
      "time": null,
      "trip_id": "block_213_trip_16_service_5",
      "trip_num": 16
    },
    {
      "delay": null,
      "departure_time": "15:17:00",
      "old": false,
      "stop_lat": 50.076456,
      "stop_lon": 20.031524,
      "stop_name": "Os. Zgody",
      "stop_num": "02",
      "stop_sequence": 13,
      "stopping": false,
      "time": null,
      "trip_id": "block_213_trip_16_service_5",
      "trip_num": 16
    },
    {
      "delay": null,
      "departure_time": "15:20:00",
      "old": false,
      "stop_lat": 50.080257,
      "stop_lon": 20.026561,
      "stop_name": "Rondo Kocmyrzowskie im. Ks. Gorzelanego",
      "stop_num": "01",
      "stop_sequence": 14,
      "stopping": false,
      "time": null,
      "trip_id": "block_213_trip_16_service_5",
      "trip_num": 16
    },
    {
      "delay": null,
      "departure_time": "15:21:00",
      "old": false,
      "stop_lat": 50.084477,
      "stop_lon": 20.020671,
      "stop_name": "DH Wanda",
      "stop_num": "01",
      "stop_sequence": 15,
      "stopping": false,
      "time": null,
      "trip_id": "block_213_trip_16_service_5",
      "trip_num": 16
    },
    {
      "delay": null,
      "departure_time": "15:23:00",
      "old": false,
      "stop_lat": 50.090025,
      "stop_lon": 20.021395,
      "stop_name": "Rondo Hipokratesa",
      "stop_num": "01",
      "stop_sequence": 16,
      "stopping": false,
      "time": null,
      "trip_id": "block_213_trip_16_service_5",
      "trip_num": 16
    },
    {
      "delay": null,
      "departure_time": "15:24:00",
      "old": false,
      "stop_lat": 50.092201,
      "stop_lon": 20.016038,
      "stop_name": "Dunikowskiego",
      "stop_num": "01",
      "stop_sequence": 17,
      "stopping": false,
      "time": null,
      "trip_id": "block_213_trip_16_service_5",
      "trip_num": 16
    },
    {
      "delay": null,
      "departure_time": "15:26:00",
      "old": false,
      "stop_lat": 50.095792,
      "stop_lon": 20.012713,
      "stop_name": "Kleeberga",
      "stop_num": "01",
      "stop_sequence": 18,
      "stopping": false,
      "time": null,
      "trip_id": "block_213_trip_16_service_5",
      "trip_num": 16
    },
    {
      "delay": null,
      "departure_time": "15:27:00",
      "old": false,
      "stop_lat": 50.097862,
      "stop_lon": 20.013018,
      "stop_name": "Piasta Kołodzieja",
      "stop_num": "01",
      "stop_sequence": 19,
      "stopping": false,
      "time": null,
      "trip_id": "block_213_trip_16_service_5",
      "trip_num": 16
    },
    {
      "delay": null,
      "departure_time": "15:29:00",
      "old": false,
      "stop_lat": 50.101977,
      "stop_lon": 20.012058,
      "stop_name": "Os. Piastów",
      "stop_num": "01",
      "stop_sequence": 20,
      "stopping": false,
      "time": null,
      "trip_id": "block_213_trip_16_service_5",
      "trip_num": 16
    },
    {
      "delay": null,
      "departure_time": "15:46:00",
      "old": false,
      "stop_lat": 50.101977,
      "stop_lon": 20.012058,
      "stop_name": "Os. Piastów",
      "stop_num": "01",
      "stop_sequence": 1,
      "stopping": false,
      "time": null,
      "trip_id": "block_213_trip_17_service_5",
      "trip_num": 17
    },
    {
      "delay": null,
      "departure_time": "15:47:00",
      "old": false,
      "stop_lat": 50.098526,
      "stop_lon": 20.013051,
      "stop_name": "Piasta Kołodzieja",
      "stop_num": "02",
      "stop_sequence": 2,
      "stopping": false,
      "time": null,
      "trip_id": "block_213_trip_17_service_5",
      "trip_num": 17
    },
    {
      "delay": null,
      "departure_time": "15:48:00",
      "old": false,
      "stop_lat": 50.095759,
      "stop_lon": 20.012638,
      "stop_name": "Kleeberga",
      "stop_num": "02",
      "stop_sequence": 3,
      "stopping": false,
      "time": null,
      "trip_id": "block_213_trip_17_service_5",
      "trip_num": 17
    },
    {
      "delay": null,
      "departure_time": "15:50:00",
      "old": false,
      "stop_lat": 50.092518,
      "stop_lon": 20.015491,
      "stop_name": "Dunikowskiego",
      "stop_num": "02",
      "stop_sequence": 4,
      "stopping": false,
      "time": null,
      "trip_id": "block_213_trip_17_service_5",
      "trip_num": 17
    },
    {
      "delay": null,
      "departure_time": "15:52:00",
      "old": false,
      "stop_lat": 50.090094,
      "stop_lon": 20.021355,
      "stop_name": "Rondo Hipokratesa",
      "stop_num": "02",
      "stop_sequence": 5,
      "stopping": false,
      "time": null,
      "trip_id": "block_213_trip_17_service_5",
      "trip_num": 17
    },
    {
      "delay": null,
      "departure_time": "15:53:00",
      "old": false,
      "stop_lat": 50.084432,
      "stop_lon": 20.020689,
      "stop_name": "DH Wanda",
      "stop_num": "02",
      "stop_sequence": 6,
      "stopping": false,
      "time": null,
      "trip_id": "block_213_trip_17_service_5",
      "trip_num": 17
    },