{
  "stop_times": [
    {
      "delay": null,
      "departure_time": "05:55:00",
      "old": false,
      "stop_lat": 50.035927,
      "stop_lon": 19.940363,
      "stop_name": "Rondo Matecznego",
      "stop_num": "02",
      "stop_sequence": 2,
      "stopping": false,
      "time": null,
      "trip_id": "block_765_trip_1_service_4",
      "trip_num": 1
    },
    {
      "delay": null,
      "departure_time": "05:56:00",
      "old": false,
      "stop_lat": 50.041629,
      "stop_lon": 19.943262,
      "stop_name": "Smolki",
      "stop_num": "02",
      "stop_sequence": 3,
      "stopping": false,
      "time": null,
      "trip_id": "block_765_trip_1_service_4",
      "trip_num": 1
    },
    {
      "delay": null,
      "departure_time": "05:58:00",
      "old": false,
      "stop_lat": 50.043604,
      "stop_lon": 19.946683,
      "stop_name": "Korona",
      "stop_num": "01",
      "stop_sequence": 4,
      "stopping": false,
      "time": null,
      "trip_id": "block_765_trip_1_service_4",
      "trip_num": 1
    },
    {
      "delay": null,
      "departure_time": "06:00:00",
      "old": false,
      "stop_lat": 50.045136,
      "stop_lon": 19.954882,
      "stop_name": "Limanowskiego",
      "stop_num": "01",
      "stop_sequence": 5,
      "stopping": false,
      "time": null,
      "trip_id": "block_765_trip_1_service_4",
      "trip_num": 1
    },
    {
      "delay": null,
      "departure_time": "06:02:00",
      "old": false,
      "stop_lat": 50.042438,
      "stop_lon": 19.960723,
      "stop_name": "Podgórze SKA",
      "stop_num": "01",
      "stop_sequence": 6,
      "stopping": false,
      "time": null,
      "trip_id": "block_765_trip_1_service_4",
      "trip_num": 1
    },
    {
      "delay": null,
      "departure_time": "06:03:00",
      "old": false,
      "stop_lat": 50.038989,
      "stop_lon": 19.964548,
      "stop_name": "Cmentarz Podgórski",
      "stop_num": "01",
      "stop_sequence": 7,
      "stopping": false,
      "time": null,
      "trip_id": "block_765_trip_1_service_4",
      "trip_num": 1
    },
    {
      "delay": null,
      "departure_time": "06:05:00",
      "old": false,
      "stop_lat": 50.033435,
      "stop_lon": 19.970294,
      "stop_name": "Dworcowa",
      "stop_num": "01",
      "stop_sequence": 8,
      "stopping": false,
      "time": null,
      "trip_id": "block_765_trip_1_service_4",
      "trip_num": 1
    },
    {
      "delay": null,
      "departure_time": "06:07:00",
      "old": false,
      "stop_lat": 50.033556,
      "stop_lon": 19.977196,
      "stop_name": "Dworzec Płaszów Estakada",
      "stop_num": "01",
      "stop_sequence": 9,
      "stopping": false,
      "time": null,
      "trip_id": "block_765_trip_1_service_4",
      "trip_num": 1
    },
    {
      "delay": null,
      "departure_time": "06:09:00",
      "old": false,
      "stop_lat": 50.040641,
      "stop_lon": 19.98442,
      "stop_name": "Lipska",
      "stop_num": "01",
      "stop_sequence": 10,
      "stopping": false,
      "time": null,
      "trip_id": "block_765_trip_1_service_4",
      "trip_num": 1
    },
    {
      "delay": null,
      "departure_time": "06:10:00",
      "old": false,
      "stop_lat": 50.040429,
      "stop_lon": 19.992646,
      "stop_name": "Rzebika",
      "stop_num": "01",
      "stop_sequence": 11,
      "stopping": false,
      "time": null,
      "trip_id": "block_765_trip_1_service_4",
      "trip_num": 1
    },
    {
      "delay": null,
      "departure_time": "06:12:00",
      "old": false,
      "stop_lat": 50.040064,
      "stop_lon": 20.001498,
      "stop_name": "Mały Płaszów P+R",
      "stop_num": "01",
      "stop_sequence": 12,
      "stopping": false,
      "time": null,
      "trip_id": "block_765_trip_1_service_4",
      "trip_num": 1
    },
    {
      "delay": null,
      "departure_time": "06:28:00",
      "old": false,
      "stop_lat": 50.040064,
      "stop_lon": 20.001498,
      "stop_name": "Mały Płaszów P+R",
      "stop_num": "01",
      "stop_sequence": 1,
      "stopping": false,
      "time": null,
      "trip_id": "block_765_trip_2_service_4",
      "trip_num": 2
    },
    {
      "delay": null,
      "departure_time": "06:30:00",
      "old": false,
      "stop_lat": 50.040546,
      "stop_lon": 19.990871,
      "stop_name": "Rzebika",
      "stop_num": "02",
      "stop_sequence": 2,
      "stopping": false,
      "time": null,
      "trip_id": "block_765_trip_2_service_4",
      "trip_num": 2
    },
    {
      "delay": null,
      "departure_time": "06:31:00",
      "old": false,
      "stop_lat": 50.039687,
      "stop_lon": 19.982994,
      "stop_name": "Lipska",
      "stop_num": "03",
      "stop_sequence": 3,
      "stopping": false,
      "time": null,
      "trip_id": "block_765_trip_2_service_4",
      "trip_num": 2
    },
    {
      "delay": null,
      "departure_time": "06:33:00",
      "old": false,
      "stop_lat": 50.033468,
      "stop_lon": 19.976946,
      "stop_name": "Dworzec Płaszów Estakada",
      "stop_num": "02",
      "stop_sequence": 4,
      "stopping": false,
      "time": null,
      "trip_id": "block_765_trip_2_service_4",
      "trip_num": 2
    },
    {
      "delay": null,
      "departure_time": "06:35:00",
      "old": false,
      "stop_lat": 50.027229,
      "stop_lon": 19.976567,
      "stop_name": "Kabel",
      "stop_num": "01",
      "stop_sequence": 5,
      "stopping": false,
      "time": null,
      "trip_id": "block_765_trip_2_service_4",
      "trip_num": 2
    },
    {
      "delay": null,
      "departure_time": "06:37:00",
      "old": false,
      "stop_lat": 50.023562,
      "stop_lon": 19.97926,
      "stop_name": "Bieżanowska",
      "stop_num": "03",
      "stop_sequence": 6,
      "stopping": false,
      "time": null,
      "trip_id": "block_765_trip_2_service_4",
      "trip_num": 2
    },
    {
      "delay": null,
      "departure_time": "06:39:00",
      "old": false,
      "stop_lat": 50.018289,
      "stop_lon": 19.977516,
      "stop_name": "Dauna",
      "stop_num": "01",
      "stop_sequence": 7,
      "stopping": false,
      "time": null,
      "trip_id": "block_765_trip_2_service_4",
      "trip_num": 2
    },
    {
      "delay": null,
      "departure_time": "06:41:00",
      "old": false,
      "stop_lat": 50.015482,
      "stop_lon": 19.971574,
      "stop_name": "Piaski Nowe",
      "stop_num": "01",
      "stop_sequence": 8,
      "stopping": false,
      "time": null,
      "trip_id": "block_765_trip_2_service_4",
      "trip_num": 2
    },
    {
      "delay": null,
      "departure_time": "06:42:00",
      "old": false,
      "stop_lat": 50.013455,
      "stop_lon": 19.964635,
      "stop_name": "Nowosądecka",
      "stop_num": "01",
      "stop_sequence": 9,
      "stopping": false,
      "time": null,
      "trip_id": "block_765_trip_2_service_4",
      "trip_num": 2
    },
    {
      "delay": null,
      "departure_time": "06:44:00",
      "old": false,
      "stop_lat": 50.012338,
      "stop_lon": 19.956857,
      "stop_name": "Witosa",
      "stop_num": "01",
      "stop_sequence": 10,
      "stopping": false,
      "time": null,
      "trip_id": "block_765_trip_2_service_4",
      "trip_num": 2
    },
    {
      "delay": null,
      "departure_time": "06:45:00",
      "old": false,
      "stop_lat": 50.01359,
      "stop_lon": 19.95044,
      "stop_name": "Kurdwanów P+R",
      "stop_num": "01",
      "stop_sequence": 11,
      "stopping": false,
      "time": null,
      "trip_id": "block_765_trip_2_service_4",
      "trip_num": 2
    },
    {
      "delay": null,
      "departure_time": "06:46:00",
      "old": false,
      "stop_lat": 50.01407,
      "stop_lon": 19.94809,
      "stop_name": "Kurdwanów P+R",
      "stop_num": "08",
      "stop_sequence": 12,
      "stopping": false,
      "time": null,
      "trip_id": "block_765_trip_2_service_4",
      "trip_num": 2
    },
    {
      "delay": null,
      "departure_time": "06:47:00",
      "old": false,
      "stop_lat": 50.01511,
      "stop_lon": 19.94435,
      "stop_name": "Turowicza",
      "stop_num": "02",
      "stop_sequence": 13,
      "stopping": false,
      "time": null,
      "trip_id": "block_765_trip_2_service_4",
      "trip_num": 2
    },
    {
      "delay": null,
      "departure_time": "06:49:00",
      "old": false,
      "stop_lat": 50.01779,
      "stop_lon": 19.93633,
      "stop_name": "Sanktuarium Bożego Miłosierdzia",
      "stop_num": "02",
      "stop_sequence": 14,
      "stopping": false,
      "time": null,
      "trip_id": "block_765_trip_2_service_4",
      "trip_num": 2
    },
    {
      "delay": null,
      "departure_time": "06:51:00",
      "old": false,
      "stop_lat": 50.02032,
      "stop_lon": 19.9317,
      "stop_name": "Łagiewniki SKA",
      "stop_num": "01",
      "stop_sequence": 15,
      "stopping": false,
      "time": null,
      "trip_id": "block_765_trip_2_service_4",
      "trip_num": 2
    },
    {
      "delay": null,
      "departure_time": "06:52:00",
      "old": false,
      "stop_lat": 50.016651,
      "stop_lon": 19.929831,
      "stop_name": "Kościuszkowców",
      "stop_num": "01",
      "stop_sequence": 16,
      "stopping": false,
      "time": null,
      "trip_id": "block_765_trip_2_service_4",
      "trip_num": 2
    },
    {
      "delay": null,
      "departure_time": "06:53:00",
      "old": false,
      "stop_lat": 50.014606,
      "stop_lon": 19.927852,
      "stop_name": "Solvay",
      "stop_num": "01",
      "stop_sequence": 17,
      "stopping": false,
      "time": null,
      "trip_id": "block_765_trip_2_service_4",
      "trip_num": 2
    },
    {
      "delay": null,
      "departure_time": "06:55:00",
      "old": false,
      "stop_lat": 50.013101,
      "stop_lon": 19.927021,
      "stop_name": "Borek Fałęcki",
      "stop_num": "01",
      "stop_sequence": 18,
      "stopping": false,
      "time": null,
      "trip_id": "block_765_trip_2_service_4",
      "trip_num": 2
    },
    {
      "delay": null,
      "departure_time": "07:12:00",
      "old": false,
      "stop_lat": 50.013101,
      "stop_lon": 19.927021,
      "stop_name": "Borek Fałęcki",
      "stop_num": "01",
      "stop_sequence": 1,
      "stopping": false,
      "time": null,
      "trip_id": "block_765_trip_3_service_4",
      "trip_num": 3
    },
    {
      "delay": null,
      "departure_time": "07:13:00",
      "old": false,
      "stop_lat": 50.014546,
      "stop_lon": 19.927822,
      "stop_name": "Solvay",
      "stop_num": "02",
      "stop_sequence": 2,
      "stopping": false,
      "time": null,
      "trip_id": "block_765_trip_3_service_4",
      "trip_num": 3
    },
    {
      "delay": null,
      "departure_time": "07:14:00",
      "old": false,
      "stop_lat": 50.015661,
      "stop_lon": 19.929342,
      "stop_name": "Kościuszkowców",
      "stop_num": "02",
      "stop_sequence": 3,
      "stopping": false,
      "time": null,
      "trip_id": "block_765_trip_3_service_4",
      "trip_num": 3
    },
    {
      "delay": null,
      "departure_time": "07:16:00",
      "old": false,
      "stop_lat": 50.02111,
      "stop_lon": 19.93288,
      "stop_name": "Łagiewniki SKA",
      "stop_num": "03",
      "stop_sequence": 4,
      "stopping": false,
      "time": null,
      "trip_id": "block_765_trip_3_service_4",
      "trip_num": 3
    },
    {
      "delay": null,
      "departure_time": "07:17:00",
      "old": false,
      "stop_lat": 50.01777,
      "stop_lon": 19.93626,
      "stop_name": "Sanktuarium Bożego Miłosierdzia",
      "stop_num": "01",
      "stop_sequence": 5,
      "stopping": false,
      "time": null,
      "trip_id": "block_765_trip_3_service_4",
      "trip_num": 3
    },
    {
      "delay": null,
      "departure_time": "07:19:00",
      "old": false,
      "stop_lat": 50.01506,
      "stop_lon": 19.94439,
      "stop_name": "Turowicza",
      "stop_num": "01",
      "stop_sequence": 6,
      "stopping": false,
      "time": null,
      "trip_id": "block_765_trip_3_service_4",
      "trip_num": 3
    },
    {
      "delay": null,
      "departure_time": "07:20:00",
      "old": false,
      "stop_lat": 50.01409,
      "stop_lon": 19.94783,
      "stop_name": "Kurdwanów P+R",
      "stop_num": "10",
      "stop_sequence": 7,
      "stopping": false,
      "time": null,
      "trip_id": "block_765_trip_3_service_4",
      "trip_num": 3
    },
    {
      "delay": null,
      "departure_time": "07:22:00",
      "old": false,
      "stop_lat": 50.01356,
      "stop_lon": 19.95042,
      "stop_name": "Kurdwanów P+R",
      "stop_num": "03",
      "stop_sequence": 8,
      "stopping": false,
      "time": null,
      "trip_id": "block_765_trip_3_service_4",
      "trip_num": 3
    },
    {
      "delay": null,
      "departure_time": "07:23:00",
      "old": false,
      "stop_lat": 50.012424,
      "stop_lon": 19.95579,
      "stop_name": "Witosa",
      "stop_num": "02",
      "stop_sequence": 9,
      "stopping": false,
      "time": null,
      "trip_id": "block_765_trip_3_service_4",
      "trip_num": 3
    },
    {
      "delay": null,
      "departure_time": "07:24:00",
      "old": false,
      "stop_lat": 50.013437,
      "stop_lon": 19.964684,
      "stop_name": "Nowosądecka",
      "stop_num": "02",
      "stop_sequence": 10,
      "stopping": false,
      "time": null,
      "trip_id": "block_765_trip_3_service_4",
      "trip_num": 3
    },
    {
      "delay": null,
      "departure_time": "07:25:00",
      "old": false,
      "stop_lat": 50.015447,
      "stop_lon": 19.971604,
      "stop_name": "Piaski Nowe",
      "stop_num": "02",
      "stop_sequence": 11,
      "stopping": false,
      "time": null,
      "trip_id": "block_765_trip_3_service_4",
      "trip_num": 3
    },
    {
      "delay": null,
      "departure_time": "07:27:00",
      "old": false,
      "stop_lat": 50.018408,
      "stop_lon": 19.977585,
      "stop_name": "Dauna",
      "stop_num": "02",
      "stop_sequence": 12,
      "stopping": false,
      "time": null,
      "trip_id": "block_765_trip_3_service_4",
      "trip_num": 3
    },
    {
      "delay": null,
      "departure_time": "07:29:00",
      "old": false,
      "stop_lat": 50.023609,
      "stop_lon": 19.979431,
      "stop_name": "Bieżanowska",
      "stop_num": "04",
      "stop_sequence": 13,
      "stopping": false,
      "time": null,
      "trip_id": "block_765_trip_3_service_4",
      "trip_num": 3
    },
    {
      "delay": null,
      "departure_time": "07:31:00",
      "old": false,
      "stop_lat": 50.026621,
      "stop_lon": 19.977231,
      "stop_name": "Kabel",
      "stop_num": "02",
      "stop_sequence": 14,
      "stopping": false,
      "time": null,
      "trip_id": "block_765_trip_3_service_4",
      "trip_num": 3
    },
    {
      "delay": null,
      "departure_time": "07:33:00",
      "old": false,
      "stop_lat": 50.033556,
      "stop_lon": 19.977196,
      "stop_name": "Dworzec Płaszów Estakada",
      "stop_num": "01",
      "stop_sequence": 15,
      "stopping": false,
      "time": null,
      "trip_id": "block_765_trip_3_service_4",
      "trip_num": 3
    },
    {
      "delay": null,
      "departure_time": "07:36:00",
      "old": false,
      "stop_lat": 50.040641,
      "stop_lon": 19.98442,
      "stop_name": "Lipska",
      "stop_num": "01",
      "stop_sequence": 16,
      "stopping": false,
      "time": null,
      "trip_id": "block_765_trip_3_service_4",
      "trip_num": 3
    },
    {
      "delay": null,
      "departure_time": "07:37:00",
      "old": false,
      "stop_lat": 50.040429,
      "stop_lon": 19.992646,
      "stop_name": "Rzebika",
      "stop_num": "01",
      "stop_sequence": 17,
      "stopping": false,
      "time": null,
      "trip_id": "block_765_trip_3_service_4",
      "trip_num": 3
    },
    {
      "delay": null,
      "departure_time": "07:39:00",
      "old": false,
      "stop_lat": 50.040064,
      "stop_lon": 20.001498,
      "stop_name": "Mały Płaszów P+R",
      "stop_num": "01",
      "stop_sequence": 18,
      "stopping": false,
      "time": null,
      "trip_id": "block_765_trip_3_service_4",
      "trip_num": 3
    },
    {
      "delay": null,
      "departure_time": "07:59:00",
      "old": false,
      "stop_lat": 50.040064,
      "stop_lon": 20.001498,
      "stop_name": "Mały Płaszów P+R",
      "stop_num": "01",
      "stop_sequence": 1,
      "stopping": false,
      "time": null,
      "trip_id": "block_765_trip_4_service_4",
      "trip_num": 4
    },
    {
      "delay": null,
      "departure_time": "08:01:00",
      "old": false,
      "stop_lat": 50.040546,
      "stop_lon": 19.990871,
      "stop_name": "Rzebika",
      "stop_num": "02",
      "stop_sequence": 2,
      "stopping": false,
      "time": null,
      "trip_id": "block_765_trip_4_service_4",
      "trip_num": 4
    },
    {
      "delay": null,
      "departure_time": "08:03:00",
      "old": false,
      "stop_lat": 50.039687,
      "stop_lon": 19.982994,
      "stop_name": "Lipska",
      "stop_num": "03",
      "stop_sequence": 3,
      "stopping": false,
      "time": null,
      "trip_id": "block_765_trip_4_service_4",
      "trip_num": 4
    },
    {
      "delay": null,
      "departure_time": "08:05:00",
      "old": false,
      "stop_lat": 50.033468,
      "stop_lon": 19.976946,
      "stop_name": "Dworzec Płaszów Estakada",
      "stop_num": "02",
      "stop_sequence": 4,
      "stopping": false,
      "time": null,
      "trip_id": "block_765_trip_4_service_4",
      "trip_num": 4
    },
    {
      "delay": null,
      "departure_time": "08:07:00",
      "old": false,
      "stop_lat": 50.027229,
      "stop_lon": 19.976567,
      "stop_name": "Kabel",
      "stop_num": "01",
      "stop_sequence": 5,
      "stopping": false,
      "time": null,
      "trip_id": "block_765_trip_4_service_4",
      "trip_num": 4
    },
    {
      "delay": null,
      "departure_time": "08:09:00",
      "old": false,
      "stop_lat": 50.023562,
      "stop_lon": 19.97926,
      "stop_name": "Bieżanowska",
      "stop_num": "03",
      "stop_sequence": 6,
      "stopping": false,
      "time": null,
      "trip_id": "block_765_trip_4_service_4",
      "trip_num": 4
    },
    {
      "delay": null,
      "departure_time": "08:11:00",
      "old": false,
      "stop_lat": 50.018289,
      "stop_lon": 19.977516,
      "stop_name": "Dauna",
      "stop_num": "01",
      "stop_sequence": 7,
      "stopping": false,
      "time": null,
      "trip_id": "block_765_trip_4_service_4",
      "trip_num": 4
    },
    {
      "delay": null,
      "departure_time": "08:13:00",
      "old": false,
      "stop_lat": 50.015482,
      "stop_lon": 19.971574,
      "stop_name": "Piaski Nowe",
      "stop_num": "01",
      "stop_sequence": 8,
      "stopping": false,
      "time": null,
      "trip_id": "block_765_trip_4_service_4",
      "trip_num": 4
    },
    {
      "delay": null,
      "departure_time": "08:14:00",
      "old": false,
      "stop_lat": 50.013455,
      "stop_lon": 19.964635,
      "stop_name": "Nowosądecka",
      "stop_num": "01",
      "stop_sequence": 9,
      "stopping": false,
      "time": null,
      "trip_id": "block_765_trip_4_service_4",
      "trip_num": 4
    },
    {
      "delay": null,
      "departure_time": "08:16:00",
      "old": false,
      "stop_lat": 50.012338,
      "stop_lon": 19.956857,
      "stop_name": "Witosa",
      "stop_num": "01",
      "stop_sequence": 10,
      "stopping": false,
      "time": null,
      "trip_id": "block_765_trip_4_service_4",
      "trip_num": 4
    },
    {
      "delay": null,
      "departure_time": "08:17:00",
      "old": false,
      "stop_lat": 50.01359,
      "stop_lon": 19.95044,
      "stop_name": "Kurdwanów P+R",
      "stop_num": "01",
      "stop_sequence": 11,
      "stopping": false,
      "time": null,
      "trip_id": "block_765_trip_4_service_4",
      "trip_num": 4
    },
    {
      "delay": null,
      "departure_time": "08:19:00",
      "old": false,
      "stop_lat": 50.01407,
      "stop_lon": 19.94809,
      "stop_name": "Kurdwanów P+R",
      "stop_num": "08",
      "stop_sequence": 12,
      "stopping": false,
      "time": null,
      "trip_id": "block_765_trip_4_service_4",
      "trip_num": 4
    },
    {
      "delay": null,
      "departure_time": "08:20:00",
      "old": false,
      "stop_lat": 50.01511,
      "stop_lon": 19.94435,
      "stop_name": "Turowicza",
      "stop_num": "02",
      "stop_sequence": 13,
      "stopping": false,
      "time": null,
      "trip_id": "block_765_trip_4_service_4",
      "trip_num": 4
    },
    {
      "delay": null,
      "departure_time": "08:22:00",
      "old": false,
      "stop_lat": 50.01779,
      "stop_lon": 19.93633,
      "stop_name": "Sanktuarium Bożego Miłosierdzia",
      "stop_num": "02",
      "stop_sequence": 14,
      "stopping": false,
      "time": null,
      "trip_id": "block_765_trip_4_service_4",
      "trip_num": 4
    },
    {
      "delay": null,
      "departure_time": "08:24:00",
      "old": false,
      "stop_lat": 50.02032,
      "stop_lon": 19.9317,
      "stop_name": "Łagiewniki SKA",
      "stop_num": "01",
      "stop_sequence": 15,
      "stopping": false,
      "time": null,
      "trip_id": "block_765_trip_4_service_4",
      "trip_num": 4
    },
    {
      "delay": null,
      "departure_time": "08:25:00",
      "old": false,
      "stop_lat": 50.016651,
      "stop_lon": 19.929831,
      "stop_name": "Kościuszkowców",
      "stop_num": "01",
      "stop_sequence": 16,
      "stopping": false,
      "time": null,
      "trip_id": "block_765_trip_4_service_4",
      "trip_num": 4
    },
    {
      "delay": null,
      "departure_time": "08:26:00",
      "old": false,
      "stop_lat": 50.014606,
      "stop_lon": 19.927852,
      "stop_name": "Solvay",
      "stop_num": "01",
      "stop_sequence": 17,
      "stopping": false,
      "time": null,
      "trip_id": "block_765_trip_4_service_4",
      "trip_num": 4
    },
    {
      "delay": null,
      "departure_time": "08:28:00",
      "old": false,
      "stop_lat": 50.013101,
      "stop_lon": 19.927021,
      "stop_name": "Borek Fałęcki",
      "stop_num": "01",
      "stop_sequence": 18,
      "stopping": false,
      "time": null,
      "trip_id": "block_765_trip_4_service_4",
      "trip_num": 4
    },
    {
      "delay": null,
      "departure_time": "08:42:00",
      "old": false,
      "stop_lat": 50.013101,
      "stop_lon": 19.927021,
      "stop_name": "Borek Fałęcki",
      "stop_num": "01",
      "stop_sequence": 1,
      "stopping": false,
      "time": null,
      "trip_id": "block_765_trip_5_service_4",
      "trip_num": 5
    },
    {
      "delay": null,
      "departure_time": "08:43:00",
      "old": false,
      "stop_lat": 50.014546,
      "stop_lon": 19.927822,
      "stop_name": "Solvay",
      "stop_num": "02",
      "stop_sequence": 2,
      "stopping": false,
      "time": null,
      "trip_id": "block_765_trip_5_service_4",
      "trip_num": 5
    },
    {
      "delay": null,
      "departure_time": "08:44:00",
      "old": false,
      "stop_lat": 50.015661,
      "stop_lon": 19.929342,
      "stop_name": "Kościuszkowców",
      "stop_num": "02",
      "stop_sequence": 3,
      "stopping": false,
      "time": null,
      "trip_id": "block_765_trip_5_service_4",
      "trip_num": 5
    },
    {
      "delay": null,
      "departure_time": "08:46:00",
      "old": false,
      "stop_lat": 50.02111,
      "stop_lon": 19.93288,
      "stop_name": "Łagiewniki SKA",
      "stop_num": "03",
      "stop_sequence": 4,
      "stopping": false,
      "time": null,
      "trip_id": "block_765_trip_5_service_4",
      "trip_num": 5
    },
    {
      "delay": null,
      "departure_time": "08:47:00",
      "old": false,
      "stop_lat": 50.01777,
      "stop_lon": 19.93626,
      "stop_name": "Sanktuarium Bożego Miłosierdzia",
      "stop_num": "01",
      "stop_sequence": 5,
      "stopping": false,
      "time": null,
      "trip_id": "block_765_trip_5_service_4",
      "trip_num": 5
    },
    {
      "delay": null,
      "departure_time": "08:49:00",
      "old": false,
      "stop_lat": 50.01506,
      "stop_lon": 19.94439,
      "stop_name": "Turowicza",
      "stop_num": "01",
      "stop_sequence": 6,
      "stopping": false,
      "time": null,
      "trip_id": "block_765_trip_5_service_4",
      "trip_num": 5
    },
    {
      "delay": null,
      "departure_time": "08:50:00",
      "old": false,
      "stop_lat": 50.01409,
      "stop_lon": 19.94783,
      "stop_name": "Kurdwanów P+R",
      "stop_num": "10",
      "stop_sequence": 7,
      "stopping": false,
      "time": null,
      "trip_id": "block_765_trip_5_service_4",
      "trip_num": 5
    },
    {
      "delay": null,
      "departure_time": "08:52:00",
      "old": false,
      "stop_lat": 50.01356,
      "stop_lon": 19.95042,
      "stop_name": "Kurdwanów P+R",
      "stop_num": "03",
      "stop_sequence": 8,
      "stopping": false,
      "time": null,
      "trip_id": "block_765_trip_5_service_4",
      "trip_num": 5
    },
    {
      "delay": null,
      "departure_time": "08:53:00",
      "old": false,
      "stop_lat": 50.012424,
      "stop_lon": 19.95579,
      "stop_name": "Witosa",
      "stop_num": "02",
      "stop_sequence": 9,
      "stopping": false,
      "time": null,
      "trip_id": "block_765_trip_5_service_4",
      "trip_num": 5
    },
    {
      "delay": null,
      "departure_time": "08:54:00",
      "old": false,
      "stop_lat": 50.013437,
      "stop_lon": 19.964684,
      "stop_name": "Nowosądecka",
      "stop_num": "02",
      "stop_sequence": 10,
      "stopping": false,
      "time": null,
      "trip_id": "block_765_trip_5_service_4",
      "trip_num": 5
    },
    {
      "delay": null,
      "departure_time": "08:55:00",
      "old": false,
      "stop_lat": 50.015447,
      "stop_lon": 19.971604,
      "stop_name": "Piaski Nowe",
      "stop_num": "02",
      "stop_sequence": 11,
      "stopping": false,
      "time": null,
      "trip_id": "block_765_trip_5_service_4",
      "trip_num": 5
    },
    {
      "delay": null,
      "departure_time": "08:57:00",
      "old": false,
      "stop_lat": 50.018408,
      "stop_lon": 19.977585,
      "stop_name": "Dauna",
      "stop_num": "02",
      "stop_sequence": 12,
      "stopping": false,
      "time": null,
      "trip_id": "block_765_trip_5_service_4",
      "trip_num": 5
    },
    {
      "delay": null,
      "departure_time": "08:59:00",
      "old": false,
      "stop_lat": 50.023609,
      "stop_lon": 19.979431,
      "stop_name": "Bieżanowska",
      "stop_num": "04",
      "stop_sequence": 13,
      "stopping": false,
      "time": null,
      "trip_id": "block_765_trip_5_service_4",
      "trip_num": 5
    },
    {
      "delay": null,
      "departure_time": "09:01:00",
      "old": false,
      "stop_lat": 50.026621,
      "stop_lon": 19.977231,
      "stop_name": "Kabel",
      "stop_num": "02",
      "stop_sequence": 14,
      "stopping": false,
      "time": null,
      "trip_id": "block_765_trip_5_service_4",
      "trip_num": 5
    },
    {
      "delay": null,
      "departure_time": "09:03:00",
      "old": false,
      "stop_lat": 50.033556,
      "stop_lon": 19.977196,
      "stop_name": "Dworzec Płaszów Estakada",
      "stop_num": "01",
      "stop_sequence": 15,
      "stopping": false,
      "time": null,
      "trip_id": "block_765_trip_5_service_4",
      "trip_num": 5
    },
    {
      "delay": null,
      "departure_time": "09:06:00",
      "old": false,
      "stop_lat": 50.040641,
      "stop_lon": 19.98442,
      "stop_name": "Lipska",
      "stop_num": "01",
      "stop_sequence": 16,
      "stopping": false,
      "time": null,
      "trip_id": "block_765_trip_5_service_4",
      "trip_num": 5
    },
    {
      "delay": null,
      "departure_time": "09:07:00",
      "old": false,
      "stop_lat": 50.040429,
      "stop_lon": 19.992646,
      "stop_name": "Rzebika",
      "stop_num": "01",
      "stop_sequence": 17,
      "stopping": false,
      "time": null,
      "trip_id": "block_765_trip_5_service_4",
      "trip_num": 5
    },
    {
      "delay": null,
      "departure_time": "09:09:00",
      "old": false,
      "stop_lat": 50.040064,
      "stop_lon": 20.001498,
      "stop_name": "Mały Płaszów P+R",
      "stop_num": "01",
      "stop_sequence": 18,
      "stopping": false,
      "time": null,
      "trip_id": "block_765_trip_5_service_4",
      "trip_num": 5
    },
    {
      "delay": null,
      "departure_time": "09:29:00",
      "old": false,
      "stop_lat": 50.040064,
      "stop_lon": 20.001498,
      "stop_name": "Mały Płaszów P+R",
      "stop_num": "01",
      "stop_sequence": 1,
      "stopping": false,
      "time": null,
      "trip_id": "block_765_trip_6_service_4",
      "trip_num": 6
    },
    {
      "delay": null,
      "departure_time": "09:31:00",
      "old": false,
      "stop_lat": 50.040546,
      "stop_lon": 19.990871,
      "stop_name": "Rzebika",
      "stop_num": "02",
      "stop_sequence": 2,
      "stopping": false,
      "time": null,
      "trip_id": "block_765_trip_6_service_4",
      "trip_num": 6
    },
    {
      "delay": null,
      "departure_time": "09:33:00",
      "old": false,
      "stop_lat": 50.039687,
      "stop_lon": 19.982994,
      "stop_name": "Lipska",
      "stop_num": "03",
      "stop_sequence": 3,
      "stopping": false,
      "time": null,
      "trip_id": "block_765_trip_6_service_4",
      "trip_num": 6
    },
    {
      "delay": null,
      "departure_time": "09:35:00",
      "old": false,
      "stop_lat": 50.033468,
      "stop_lon": 19.976946,
      "stop_name": "Dworzec Płaszów Estakada",
      "stop_num": "02",
      "stop_sequence": 4,
      "stopping": false,
      "time": null,
      "trip_id": "block_765_trip_6_service_4",
      "trip_num": 6
    },
    {
      "delay": null,
      "departure_time": "09:37:00",
      "old": false,
      "stop_lat": 50.027229,
      "stop_lon": 19.976567,
      "stop_name": "Kabel",
      "stop_num": "01",
      "stop_sequence": 5,
      "stopping": false,
      "time": null,
      "trip_id": "block_765_trip_6_service_4",
      "trip_num": 6
    },
    {
      "delay": null,
      "departure_time": "09:39:00",
      "old": false,
      "stop_lat": 50.023562,
      "stop_lon": 19.97926,
      "stop_name": "Bieżanowska",
      "stop_num": "03",
      "stop_sequence": 6,
      "stopping": false,
      "time": null,
      "trip_id": "block_765_trip_6_service_4",
      "trip_num": 6
    },
    {
      "delay": null,
      "departure_time": "09:41:00",
      "old": false,
      "stop_lat": 50.018289,
      "stop_lon": 19.977516,
      "stop_name": "Dauna",
      "stop_num": "01",
      "stop_sequence": 7,
      "stopping": false,
      "time": null,
      "trip_id": "block_765_trip_6_service_4",
      "trip_num": 6
    },
    {
      "delay": null,
      "departure_time": "09:43:00",
      "old": false,
      "stop_lat": 50.015482,
      "stop_lon": 19.971574,
      "stop_name": "Piaski Nowe",
      "stop_num": "01",
      "stop_sequence": 8,
      "stopping": false,
      "time": null,
      "trip_id": "block_765_trip_6_service_4",
      "trip_num": 6
    },
    {
      "delay": null,
      "departure_time": "09:44:00",
      "old": false,
      "stop_lat": 50.013455,
      "stop_lon": 19.964635,
      "stop_name": "Nowosądecka",
      "stop_num": "01",
      "stop_sequence": 9,
      "stopping": false,
      "time": null,
      "trip_id": "block_765_trip_6_service_4",
      "trip_num": 6
    },
    {
      "delay": null,
      "departure_time": "09:46:00",
      "old": false,
      "stop_lat": 50.012338,
      "stop_lon": 19.956857,
      "stop_name": "Witosa",
      "stop_num": "01",
      "stop_sequence": 10,
      "stopping": false,
      "time": null,
      "trip_id": "block_765_trip_6_service_4",
      "trip_num": 6
    },
    {
      "delay": null,
      "departure_time": "09:47:00",
      "old": false,
      "stop_lat": 50.01359,
      "stop_lon": 19.95044,
      "stop_name": "Kurdwanów P+R",
      "stop_num": "01",
      "stop_sequence": 11,
      "stopping": false,
      "time": null,
      "trip_id": "block_765_trip_6_service_4",
      "trip_num": 6
    },
    {
      "delay": null,
      "departure_time": "09:49:00",
      "old": false,
      "stop_lat": 50.01407,
      "stop_lon": 19.94809,
      "stop_name": "Kurdwanów P+R",
      "stop_num": "08",
      "stop_sequence": 12,
      "stopping": false,
      "time": null,
      "trip_id": "block_765_trip_6_service_4",
      "trip_num": 6
    },
    {
      "delay": null,
      "departure_time": "09:50:00",
      "old": false,
      "stop_lat": 50.01511,
      "stop_lon": 19.94435,
      "stop_name": "Turowicza",
      "stop_num": "02",
      "stop_sequence": 13,
      "stopping": false,
      "time": null,
      "trip_id": "block_765_trip_6_service_4",
      "trip_num": 6
    },
    {
      "delay": null,
      "departure_time": "09:52:00",
      "old": false,
      "stop_lat": 50.01779,
      "stop_lon": 19.93633,
      "stop_name": "Sanktuarium Bożego Miłosierdzia",
      "stop_num": "02",
      "stop_sequence": 14,
      "stopping": false,
      "time": null,
      "trip_id": "block_765_trip_6_service_4",
      "trip_num": 6
    },
    {
      "delay": null,
      "departure_time": "09:54:00",
      "old": false,
      "stop_lat": 50.02032,
      "stop_lon": 19.9317,
      "stop_name": "Łagiewniki SKA",
      "stop_num": "01",
      "stop_sequence": 15,
      "stopping": false,
      "time": null,
      "trip_id": "block_765_trip_6_service_4",
      "trip_num": 6
    },
    {
      "delay": null,
      "departure_time": "09:55:00",
      "old": false,
      "stop_lat": 50.016651,
      "stop_lon": 19.929831,
      "stop_name": "Kościuszkowców",
      "stop_num": "01",
      "stop_sequence": 16,
      "stopping": false,
      "time": null,
      "trip_id": "block_765_trip_6_service_4",
      "trip_num": 6
    },
    {
      "delay": null,
      "departure_time": "09:56:00",
      "old": false,
      "stop_lat": 50.014606,
      "stop_lon": 19.927852,
      "stop_name": "Solvay",
      "stop_num": "01",
      "stop_sequence": 17,
      "stopping": false,
      "time": null,
      "trip_id": "block_765_trip_6_service_4",
      "trip_num": 6
    },
    {
      "delay": null,
      "departure_time": "09:58:00",
      "old": false,
      "stop_lat": 50.013101,
      "stop_lon": 19.927021,
      "stop_name": "Borek Fałęcki",
      "stop_num": "01",
      "stop_sequence": 18,
      "stopping": false,
      "time": null,
      "trip_id": "block_765_trip_6_service_4",
      "trip_num": 6
    },
    {
      "delay": null,
      "departure_time": "10:13:00",
      "old": false,
      "stop_lat": 50.013101,
      "stop_lon": 19.927021,
      "stop_name": "Borek Fałęcki",
      "stop_num": "01",
      "stop_sequence": 1,
      "stopping": false,
      "time": null,
      "trip_id": "block_765_trip_7_service_4",
      "trip_num": 7
    },
    {
      "delay": null,
      "departure_time": "10:14:00",
      "old": false,
      "stop_lat": 50.014546,
      "stop_lon": 19.927822,
      "stop_name": "Solvay",
      "stop_num": "02",
      "stop_sequence": 2,
      "stopping": false,
      "time": null,
      "trip_id": "block_765_trip_7_service_4",
      "trip_num": 7
    },
    {
      "delay": null,
      "departure_time": "10:15:00",
      "old": false,
      "stop_lat": 50.015661,
      "stop_lon": 19.929342,
      "stop_name": "Kościuszkowców",
      "stop_num": "02",
      "stop_sequence": 3,
      "stopping": false,
      "time": null,
      "trip_id": "block_765_trip_7_service_4",
      "trip_num": 7
    },
    {
      "delay": null,
      "departure_time": "10:17:00",
      "old": false,
      "stop_lat": 50.02111,
      "stop_lon": 19.93288,
      "stop_name": "Łagiewniki SKA",
      "stop_num": "03",
      "stop_sequence": 4,
      "stopping": false,
      "time": null,
      "trip_id": "block_765_trip_7_service_4",
      "trip_num": 7
    },
    {
      "delay": null,
      "departure_time": "10:18:00",
      "old": false,
      "stop_lat": 50.01777,
      "stop_lon": 19.93626,
      "stop_name": "Sanktuarium Bożego Miłosierdzia",
      "stop_num": "01",
      "stop_sequence": 5,
      "stopping": false,
      "time": null,
      "trip_id": "block_765_trip_7_service_4",
      "trip_num": 7
    },
    {
      "delay": null,
      "departure_time": "10:20:00",
      "old": false,
      "stop_lat": 50.01506,
      "stop_lon": 19.94439,
      "stop_name": "Turowicza",
      "stop_num": "01",
      "stop_sequence": 6,
      "stopping": false,
      "time": null,
      "trip_id": "block_765_trip_7_service_4",
      "trip_num": 7
    },
    {
      "delay": null,
      "departure_time": "10:21:00",
      "old": false,
      "stop_lat": 50.01409,
      "stop_lon": 19.94783,
      "stop_name": "Kurdwanów P+R",
      "stop_num": "10",
      "stop_sequence": 7,
      "stopping": false,
      "time": null,
      "trip_id": "block_765_trip_7_service_4",
      "trip_num": 7
    },
    {
      "delay": null,
      "departure_time": "10:23:00",
      "old": false,
      "stop_lat": 50.01356,
      "stop_lon": 19.95042,
      "stop_name": "Kurdwanów P+R",
      "stop_num": "03",
      "stop_sequence": 8,
      "stopping": false,
      "time": null,
      "trip_id": "block_765_trip_7_service_4",
      "trip_num": 7
    },
    {
      "delay": null,
      "departure_time": "10:24:00",
      "old": false,
      "stop_lat": 50.012424,
      "stop_lon": 19.95579,
      "stop_name": "Witosa",
      "stop_num": "02",
      "stop_sequence": 9,
      "stopping": false,
      "time": null,
      "trip_id": "block_765_trip_7_service_4",
      "trip_num": 7
    },
    {
      "delay": null,
      "departure_time": "10:25:00",
      "old": false,
      "stop_lat": 50.013437,
      "stop_lon": 19.964684,
      "stop_name": "Nowosądecka",
      "stop_num": "02",
      "stop_sequence": 10,
      "stopping": false,
      "time": null,
      "trip_id": "block_765_trip_7_service_4",
      "trip_num": 7
    },
    {
      "delay": null,
      "departure_time": "10:26:00",
      "old": false,
      "stop_lat": 50.015447,
      "stop_lon": 19.971604,
      "stop_name": "Piaski Nowe",
      "stop_num": "02",
      "stop_sequence": 11,
      "stopping": false,
      "time": null,
      "trip_id": "block_765_trip_7_service_4",
      "trip_num": 7
    },
    {
      "delay": null,
      "departure_time": "10:28:00",
      "old": false,
      "stop_lat": 50.018408,
      "stop_lon": 19.977585,
      "stop_name": "Dauna",
      "stop_num": "02",
      "stop_sequence": 12,
      "stopping": false,
      "time": null,
      "trip_id": "block_765_trip_7_service_4",
      "trip_num": 7
    },
    {
      "delay": null,
      "departure_time": "10:30:00",
      "old": false,
      "stop_lat": 50.023609,
      "stop_lon": 19.979431,
      "stop_name": "Bieżanowska",
      "stop_num": "04",
      "stop_sequence": 13,
      "stopping": false,
      "time": null,
      "trip_id": "block_765_trip_7_service_4",
      "trip_num": 7
    },
    {
      "delay": null,
      "departure_time": "10:32:00",
      "old": false,
      "stop_lat": 50.026621,
      "stop_lon": 19.977231,
      "stop_name": "Kabel",
      "stop_num": "02",
      "stop_sequence": 14,
      "stopping": false,
      "time": null,
      "trip_id": "block_765_trip_7_service_4",
      "trip_num": 7
    },
    {
      "delay": null,
      "departure_time": "10:34:00",
      "old": false,
      "stop_lat": 50.033556,
      "stop_lon": 19.977196,
      "stop_name": "Dworzec Płaszów Estakada",
      "stop_num": "01",
      "stop_sequence": 15,
      "stopping": false,
      "time": null,
      "trip_id": "block_765_trip_7_service_4",
      "trip_num": 7
    },
    {
      "delay": null,
      "departure_time": "10:37:00",
      "old": false,
      "stop_lat": 50.040641,
      "stop_lon": 19.98442,
      "stop_name": "Lipska",
      "stop_num": "01",
      "stop_sequence": 16,
      "stopping": false,
      "time": null,
      "trip_id": "block_765_trip_7_service_4",
      "trip_num": 7
    },
    {
      "delay": null,
      "departure_time": "10:38:00",
      "old": false,
      "stop_lat": 50.040429,
      "stop_lon": 19.992646,
      "stop_name": "Rzebika",
      "stop_num": "01",
      "stop_sequence": 17,
      "stopping": false,
      "time": null,
      "trip_id": "block_765_trip_7_service_4",
      "trip_num": 7
    },
    {
      "delay": null,
      "departure_time": "10:40:00",
      "old": false,
      "stop_lat": 50.040064,
      "stop_lon": 20.001498,
      "stop_name": "Mały Płaszów P+R",
      "stop_num": "01",
      "stop_sequence": 18,
      "stopping": false,
      "time": null,
      "trip_id": "block_765_trip_7_service_4",
      "trip_num": 7
    },
    {
      "delay": null,
      "departure_time": "10:56:00",
      "old": false,
      "stop_lat": 50.040064,
      "stop_lon": 20.001498,
      "stop_name": "Mały Płaszów P+R",
      "stop_num": "01",
      "stop_sequence": 1,
      "stopping": false,
      "time": null,
      "trip_id": "block_765_trip_8_service_4",
      "trip_num": 8
    },
    {
      "delay": null,
      "departure_time": "10:58:00",
      "old": false,
      "stop_lat": 50.040546,
      "stop_lon": 19.990871,
      "stop_name": "Rzebika",
      "stop_num": "02",
      "stop_sequence": 2,
      "stopping": false,
      "time": null,
      "trip_id": "block_765_trip_8_service_4",
      "trip_num": 8
    },
    {
      "delay": null,
      "departure_time": "11:00:00",
      "old": false,
      "stop_lat": 50.039687,
      "stop_lon": 19.982994,
      "stop_name": "Lipska",
      "stop_num": "03",
      "stop_sequence": 3,
      "stopping": false,
      "time": null,
      "trip_id": "block_765_trip_8_service_4",
      "trip_num": 8
    },
    {
      "delay": null,
      "departure_time": "11:02:00",
      "old": false,
      "stop_lat": 50.033468,
      "stop_lon": 19.976946,
      "stop_name": "Dworzec Płaszów Estakada",
      "stop_num": "02",
      "stop_sequence": 4,
      "stopping": false,
      "time": null,
      "trip_id": "block_765_trip_8_service_4",
      "trip_num": 8
    },
    {
      "delay": null,
      "departure_time": "11:04:00",
      "old": false,
      "stop_lat": 50.027229,
      "stop_lon": 19.976567,
      "stop_name": "Kabel",
      "stop_num": "01",
      "stop_sequence": 5,
      "stopping": false,
      "time": null,
      "trip_id": "block_765_trip_8_service_4",
      "trip_num": 8
    },
    {
      "delay": null,
      "departure_time": "11:06:00",
      "old": false,
      "stop_lat": 50.023562,
      "stop_lon": 19.97926,
      "stop_name": "Bieżanowska",
      "stop_num": "03",
      "stop_sequence": 6,
      "stopping": false,
      "time": null,
      "trip_id": "block_765_trip_8_service_4",
      "trip_num": 8
    },
    {
      "delay": null,
      "departure_time": "11:08:00",
      "old": false,
      "stop_lat": 50.018289,
      "stop_lon": 19.977516,
      "stop_name": "Dauna",
      "stop_num": "01",
      "stop_sequence": 7,
      "stopping": false,
      "time": null,
      "trip_id": "block_765_trip_8_service_4",
      "trip_num": 8
    },
    {
      "delay": null,
      "departure_time": "11:10:00",
      "old": false,
      "stop_lat": 50.015482,
      "stop_lon": 19.971574,
      "stop_name": "Piaski Nowe",
      "stop_num": "01",
      "stop_sequence": 8,
      "stopping": false,
      "time": null,
      "trip_id": "block_765_trip_8_service_4",
      "trip_num": 8
    },
    {
      "delay": null,
      "departure_time": "11:11:00",
      "old": false,
      "stop_lat": 50.013455,
      "stop_lon": 19.964635,
      "stop_name": "Nowosądecka",
      "stop_num": "01",
      "stop_sequence": 9,
      "stopping": false,
      "time": null,
      "trip_id": "block_765_trip_8_service_4",
      "trip_num": 8
    },
    {
      "delay": null,
      "departure_time": "11:13:00",
      "old": false,
      "stop_lat": 50.012338,
      "stop_lon": 19.956857,
      "stop_name": "Witosa",
      "stop_num": "01",
      "stop_sequence": 10,
      "stopping": false,
      "time": null,
      "trip_id": "block_765_trip_8_service_4",
      "trip_num": 8
    },
    {
      "delay": null,
      "departure_time": "11:14:00",
      "old": false,
      "stop_lat": 50.01359,
      "stop_lon": 19.95044,
      "stop_name": "Kurdwanów P+R",
      "stop_num": "01",
      "stop_sequence": 11,
      "stopping": false,
      "time": null,
      "trip_id": "block_765_trip_8_service_4",
      "trip_num": 8
    },
    {
      "delay": null,
      "departure_time": "11:16:00",
      "old": false,
      "stop_lat": 50.01407,
      "stop_lon": 19.94809,
      "stop_name": "Kurdwanów P+R",
      "stop_num": "08",
      "stop_sequence": 12,
      "stopping": false,
      "time": null,
      "trip_id": "block_765_trip_8_service_4",
      "trip_num": 8
    },
    {
      "delay": null,
      "departure_time": "11:17:00",
      "old": false,
      "stop_lat": 50.01511,
      "stop_lon": 19.94435,
      "stop_name": "Turowicza",
      "stop_num": "02",
      "stop_sequence": 13,
      "stopping": false,
      "time": null,
      "trip_id": "block_765_trip_8_service_4",
      "trip_num": 8
    },
    {
      "delay": null,
      "departure_time": "11:19:00",
      "old": false,
      "stop_lat": 50.01779,
      "stop_lon": 19.93633,
      "stop_name": "Sanktuarium Bożego Miłosierdzia",
      "stop_num": "02",
      "stop_sequence": 14,
      "stopping": false,
      "time": null,
      "trip_id": "block_765_trip_8_service_4",
      "trip_num": 8
    },
    {
      "delay": null,
      "departure_time": "11:21:00",
      "old": false,
      "stop_lat": 50.02032,
      "stop_lon": 19.9317,
      "stop_name": "Łagiewniki SKA",
      "stop_num": "01",
      "stop_sequence": 15,
      "stopping": false,
      "time": null,
      "trip_id": "block_765_trip_8_service_4",
      "trip_num": 8
    },
    {
      "delay": null,
      "departure_time": "11:22:00",
      "old": false,
      "stop_lat": 50.016651,
      "stop_lon": 19.929831,
      "stop_name": "Kościuszkowców",
      "stop_num": "01",
      "stop_sequence": 16,
      "stopping": false,
      "time": null,
      "trip_id": "block_765_trip_8_service_4",
      "trip_num": 8
    },
    {
      "delay": null,
      "departure_time": "11:23:00",
      "old": false,
      "stop_lat": 50.014606,
      "stop_lon": 19.927852,
      "stop_name": "Solvay",
      "stop_num": "01",
      "stop_sequence": 17,
      "stopping": false,
      "time": null,
      "trip_id": "block_765_trip_8_service_4",
      "trip_num": 8
    },
    {
      "delay": null,
      "departure_time": "11:25:00",
      "old": false,
      "stop_lat": 50.013101,
      "stop_lon": 19.927021,
      "stop_name": "Borek Fałęcki",
      "stop_num": "01",
      "stop_sequence": 18,
      "stopping": false,
      "time": null,
      "trip_id": "block_765_trip_8_service_4",
      "trip_num": 8
    },
    {
      "delay": null,
      "departure_time": "11:43:00",
      "old": false,
      "stop_lat": 50.013101,
      "stop_lon": 19.927021,
      "stop_name": "Borek Fałęcki",
      "stop_num": "01",
      "stop_sequence": 1,
      "stopping": false,
      "time": null,
      "trip_id": "block_765_trip_9_service_4",
      "trip_num": 9
    },
    {
      "delay": null,
      "departure_time": "11:44:00",
      "old": false,
      "stop_lat": 50.014546,
      "stop_lon": 19.927822,
      "stop_name": "Solvay",
      "stop_num": "02",
      "stop_sequence": 2,
      "stopping": false,
      "time": null,
      "trip_id": "block_765_trip_9_service_4",
      "trip_num": 9
    },
    {
      "delay": null,
      "departure_time": "11:45:00",
      "old": false,
      "stop_lat": 50.015661,
      "stop_lon": 19.929342,
      "stop_name": "Kościuszkowców",
      "stop_num": "02",
      "stop_sequence": 3,
      "stopping": false,
      "time": null,
      "trip_id": "block_765_trip_9_service_4",
      "trip_num": 9
    },
    {
      "delay": null,
      "departure_time": "11:47:00",
      "old": false,
      "stop_lat": 50.02111,
      "stop_lon": 19.93288,
      "stop_name": "Łagiewniki SKA",
      "stop_num": "03",
      "stop_sequence": 4,
      "stopping": false,
      "time": null,
      "trip_id": "block_765_trip_9_service_4",
      "trip_num": 9
    },
    {
      "delay": null,
      "departure_time": "11:48:00",
      "old": false,
      "stop_lat": 50.01777,
      "stop_lon": 19.93626,
      "stop_name": "Sanktuarium Bożego Miłosierdzia",
      "stop_num": "01",
      "stop_sequence": 5,
      "stopping": false,
      "time": null,
      "trip_id": "block_765_trip_9_service_4",
      "trip_num": 9
    },
    {
      "delay": null,
      "departure_time": "11:50:00",
      "old": false,
      "stop_lat": 50.01506,
      "stop_lon": 19.94439,
      "stop_name": "Turowicza",
      "stop_num": "01",
      "stop_sequence": 6,
      "stopping": false,
      "time": null,
      "trip_id": "block_765_trip_9_service_4",
      "trip_num": 9
    },
    {
      "delay": null,
      "departure_time": "11:51:00",
      "old": false,
      "stop_lat": 50.01409,
      "stop_lon": 19.94783,
      "stop_name": "Kurdwanów P+R",
      "stop_num": "10",
      "stop_sequence": 7,
      "stopping": false,
      "time": null,
      "trip_id": "block_765_trip_9_service_4",
      "trip_num": 9
    },
    {
      "delay": null,
      "departure_time": "11:53:00",
      "old": false,
      "stop_lat": 50.01356,
      "stop_lon": 19.95042,
      "stop_name": "Kurdwanów P+R",
      "stop_num": "03",
      "stop_sequence": 8,
      "stopping": false,
      "time": null,
      "trip_id": "block_765_trip_9_service_4",
      "trip_num": 9
    },
    {
      "delay": null,
      "departure_time": "11:54:00",
      "old": false,
      "stop_lat": 50.012424,
      "stop_lon": 19.95579,
      "stop_name": "Witosa",
      "stop_num": "02",
      "stop_sequence": 9,
      "stopping": false,
      "time": null,
      "trip_id": "block_765_trip_9_service_4",
      "trip_num": 9
    },
    {
      "delay": null,
      "departure_time": "11:55:00",
      "old": false,
      "stop_lat": 50.013437,
      "stop_lon": 19.964684,
      "stop_name": "Nowosądecka",
      "stop_num": "02",
      "stop_sequence": 10,
      "stopping": false,
      "time": null,
      "trip_id": "block_765_trip_9_service_4",
      "trip_num": 9
    },
    {
      "delay": null,
      "departure_time": "11:56:00",
      "old": false,
      "stop_lat": 50.015447,
      "stop_lon": 19.971604,
      "stop_name": "Piaski Nowe",
      "stop_num": "02",
      "stop_sequence": 11,
      "stopping": false,
      "time": null,
      "trip_id": "block_765_trip_9_service_4",
      "trip_num": 9
    },
    {
      "delay": null,
      "departure_time": "11:58:00",
      "old": false,
      "stop_lat": 50.018408,
      "stop_lon": 19.977585,
      "stop_name": "Dauna",
      "stop_num": "02",
      "stop_sequence": 12,
      "stopping": false,
      "time": null,
      "trip_id": "block_765_trip_9_service_4",
      "trip_num": 9
    },
    {
      "delay": null,
      "departure_time": "12:00:00",
      "old": false,
      "stop_lat": 50.023609,
      "stop_lon": 19.979431,
      "stop_name": "Bieżanowska",
      "stop_num": "04",
      "stop_sequence": 13,
      "stopping": false,
      "time": null,
      "trip_id": "block_765_trip_9_service_4",
      "trip_num": 9
    },
    {
      "delay": null,
      "departure_time": "12:02:00",
      "old": false,
      "stop_lat": 50.026621,
      "stop_lon": 19.977231,
      "stop_name": "Kabel",
      "stop_num": "02",
      "stop_sequence": 14,
      "stopping": false,
      "time": null,
      "trip_id": "block_765_trip_9_service_4",
      "trip_num": 9
    },
    {
      "delay": null,
      "departure_time": "12:04:00",
      "old": false,
      "stop_lat": 50.033556,
      "stop_lon": 19.977196,
      "stop_name": "Dworzec Płaszów Estakada",
      "stop_num": "01",
      "stop_sequence": 15,
      "stopping": false,
      "time": null,
      "trip_id": "block_765_trip_9_service_4",
      "trip_num": 9
    },
    {
      "delay": null,
      "departure_time": "12:07:00",
      "old": false,
      "stop_lat": 50.040641,
      "stop_lon": 19.98442,
      "stop_name": "Lipska",
      "stop_num": "01",
      "stop_sequence": 16,
      "stopping": false,
      "time": null,
      "trip_id": "block_765_trip_9_service_4",
      "trip_num": 9
    },
    {
      "delay": null,
      "departure_time": "12:08:00",
      "old": false,
      "stop_lat": 50.040429,
      "stop_lon": 19.992646,
      "stop_name": "Rzebika",
      "stop_num": "01",
      "stop_sequence": 17,
      "stopping": false,
      "time": null,
      "trip_id": "block_765_trip_9_service_4",
      "trip_num": 9
    },
    {
      "delay": null,
      "departure_time": "12:10:00",
      "old": false,
      "stop_lat": 50.040064,
      "stop_lon": 20.001498,
      "stop_name": "Mały Płaszów P+R",
      "stop_num": "01",
      "stop_sequence": 18,
      "stopping": false,
      "time": null,
      "trip_id": "block_765_trip_9_service_4",
      "trip_num": 9
    },
    {
      "delay": null,
      "departure_time": "12:26:00",
      "old": false,
      "stop_lat": 50.040064,
      "stop_lon": 20.001498,
      "stop_name": "Mały Płaszów P+R",
      "stop_num": "01",
      "stop_sequence": 1,
      "stopping": false,
      "time": null,
      "trip_id": "block_765_trip_10_service_4",
      "trip_num": 10
    },
    {
      "delay": null,
      "departure_time": "12:28:00",
      "old": false,
      "stop_lat": 50.040546,
      "stop_lon": 19.990871,
      "stop_name": "Rzebika",
      "stop_num": "02",
      "stop_sequence": 2,
      "stopping": false,
      "time": null,
      "trip_id": "block_765_trip_10_service_4",
      "trip_num": 10
    },
    {
      "delay": null,
      "departure_time": "12:30:00",
      "old": false,
      "stop_lat": 50.039687,
      "stop_lon": 19.982994,
      "stop_name": "Lipska",
      "stop_num": "03",
      "stop_sequence": 3,
      "stopping": false,
      "time": null,
      "trip_id": "block_765_trip_10_service_4",
      "trip_num": 10
    },
    {
      "delay": null,
      "departure_time": "12:32:00",
      "old": false,
      "stop_lat": 50.033468,
      "stop_lon": 19.976946,
      "stop_name": "Dworzec Płaszów Estakada",
      "stop_num": "02",
      "stop_sequence": 4,
      "stopping": false,
      "time": null,
      "trip_id": "block_765_trip_10_service_4",
      "trip_num": 10
    },
    {
      "delay": null,
      "departure_time": "12:34:00",
      "old": false,
      "stop_lat": 50.027229,
      "stop_lon": 19.976567,
      "stop_name": "Kabel",
      "stop_num": "01",
      "stop_sequence": 5,
      "stopping": false,
      "time": null,
      "trip_id": "block_765_trip_10_service_4",
      "trip_num": 10
    },
    {
      "delay": null,
      "departure_time": "12:36:00",
      "old": false,
      "stop_lat": 50.023562,
      "stop_lon": 19.97926,
      "stop_name": "Bieżanowska",
      "stop_num": "03",
      "stop_sequence": 6,
      "stopping": false,
      "time": null,
      "trip_id": "block_765_trip_10_service_4",
      "trip_num": 10
    },
    {
      "delay": null,
      "departure_time": "12:38:00",
      "old": false,
      "stop_lat": 50.018289,
      "stop_lon": 19.977516,
      "stop_name": "Dauna",
      "stop_num": "01",
      "stop_sequence": 7,
      "stopping": false,
      "time": null,
      "trip_id": "block_765_trip_10_service_4",
      "trip_num": 10
    },
    {
      "delay": null,
      "departure_time": "12:40:00",
      "old": false,
      "stop_lat": 50.015482,
      "stop_lon": 19.971574,
      "stop_name": "Piaski Nowe",
      "stop_num": "01",
      "stop_sequence": 8,
      "stopping": false,
      "time": null,
      "trip_id": "block_765_trip_10_service_4",
      "trip_num": 10
    },
    {
      "delay": null,
      "departure_time": "12:41:00",
      "old": false,
      "stop_lat": 50.013455,
      "stop_lon": 19.964635,
      "stop_name": "Nowosądecka",
      "stop_num": "01",
      "stop_sequence": 9,
      "stopping": false,
      "time": null,
      "trip_id": "block_765_trip_10_service_4",
      "trip_num": 10
    },
    {
      "delay": null,
      "departure_time": "12:43:00",
      "old": false,
      "stop_lat": 50.012338,
      "stop_lon": 19.956857,
      "stop_name": "Witosa",
      "stop_num": "01",
      "stop_sequence": 10,
      "stopping": false,
      "time": null,
      "trip_id": "block_765_trip_10_service_4",
      "trip_num": 10
    },
    {
      "delay": null,
      "departure_time": "12:44:00",
      "old": false,
      "stop_lat": 50.01359,
      "stop_lon": 19.95044,
      "stop_name": "Kurdwanów P+R",
      "stop_num": "01",
      "stop_sequence": 11,
      "stopping": false,
      "time": null,
      "trip_id": "block_765_trip_10_service_4",
      "trip_num": 10
    },
    {
      "delay": null,
      "departure_time": "12:46:00",
      "old": false,
      "stop_lat": 50.01407,
      "stop_lon": 19.94809,
      "stop_name": "Kurdwanów P+R",
      "stop_num": "08",
      "stop_sequence": 12,
      "stopping": false,
      "time": null,
      "trip_id": "block_765_trip_10_service_4",
      "trip_num": 10
    },
    {
      "delay": null,
      "departure_time": "12:47:00",
      "old": false,
      "stop_lat": 50.01511,
      "stop_lon": 19.94435,
      "stop_name": "Turowicza",
      "stop_num": "02",
      "stop_sequence": 13,
      "stopping": false,
      "time": null,
      "trip_id": "block_765_trip_10_service_4",
      "trip_num": 10
    },
    {
      "delay": null,
      "departure_time": "12:49:00",
      "old": false,
      "stop_lat": 50.01779,
      "stop_lon": 19.93633,
      "stop_name": "Sanktuarium Bożego Miłosierdzia",
      "stop_num": "02",
      "stop_sequence": 14,
      "stopping": false,
      "time": null,
      "trip_id": "block_765_trip_10_service_4",
      "trip_num": 10
    },
    {
      "delay": null,
      "departure_time": "12:51:00",
      "old": false,
      "stop_lat": 50.02032,
      "stop_lon": 19.9317,
      "stop_name": "Łagiewniki SKA",
      "stop_num": "01",
      "stop_sequence": 15,
      "stopping": false,
      "time": null,
      "trip_id": "block_765_trip_10_service_4",
      "trip_num": 10
    },
    {
      "delay": null,
      "departure_time": "12:52:00",
      "old": false,
      "stop_lat": 50.016651,
      "stop_lon": 19.929831,
      "stop_name": "Kościuszkowców",
      "stop_num": "01",
      "stop_sequence": 16,
      "stopping": false,
      "time": null,
      "trip_id": "block_765_trip_10_service_4",
      "trip_num": 10
    },
    {
      "delay": null,
      "departure_time": "12:53:00",
      "old": false,
      "stop_lat": 50.014606,
      "stop_lon": 19.927852,
      "stop_name": "Solvay",
      "stop_num": "01",
      "stop_sequence": 17,
      "stopping": false,
      "time": null,
      "trip_id": "block_765_trip_10_service_4",
      "trip_num": 10
    },
    {
      "delay": null,
      "departure_time": "12:55:00",
      "old": false,
      "stop_lat": 50.013101,
      "stop_lon": 19.927021,
      "stop_name": "Borek Fałęcki",
      "stop_num": "01",
      "stop_sequence": 18,
      "stopping": false,
      "time": null,
      "trip_id": "block_765_trip_10_service_4",
      "trip_num": 10
    },
    {
      "delay": null,
      "departure_time": "13:13:00",
      "old": false,
      "stop_lat": 50.013101,
      "stop_lon": 19.927021,
      "stop_name": "Borek Fałęcki",
      "stop_num": "01",
      "stop_sequence": 1,
      "stopping": false,
      "time": null,
      "trip_id": "block_765_trip_11_service_4",
      "trip_num": 11
    },
    {
      "delay": null,
      "departure_time": "13:14:00",
      "old": false,
      "stop_lat": 50.014546,
      "stop_lon": 19.927822,
      "stop_name": "Solvay",
      "stop_num": "02",
      "stop_sequence": 2,
      "stopping": false,
      "time": null,
      "trip_id": "block_765_trip_11_service_4",
      "trip_num": 11
    },
    {
      "delay": null,
      "departure_time": "13:15:00",
      "old": false,
      "stop_lat": 50.015661,
      "stop_lon": 19.929342,
      "stop_name": "Kościuszkowców",
      "stop_num": "02",
      "stop_sequence": 3,
      "stopping": false,
      "time": null,
      "trip_id": "block_765_trip_11_service_4",
      "trip_num": 11
    },
    {
      "delay": null,
      "departure_time": "13:17:00",
      "old": false,
      "stop_lat": 50.02111,
      "stop_lon": 19.93288,
      "stop_name": "Łagiewniki SKA",
      "stop_num": "03",
      "stop_sequence": 4,
      "stopping": false,
      "time": null,
      "trip_id": "block_765_trip_11_service_4",
      "trip_num": 11
    },
    {
      "delay": null,
      "departure_time": "13:18:00",
      "old": false,
      "stop_lat": 50.01777,
      "stop_lon": 19.93626,
      "stop_name": "Sanktuarium Bożego Miłosierdzia",
      "stop_num": "01",
      "stop_sequence": 5,
      "stopping": false,
      "time": null,
      "trip_id": "block_765_trip_11_service_4",
      "trip_num": 11
    },
    {
      "delay": null,
      "departure_time": "13:20:00",
      "old": false,
      "stop_lat": 50.01506,
      "stop_lon": 19.94439,
      "stop_name": "Turowicza",
      "stop_num": "01",
      "stop_sequence": 6,
      "stopping": false,
      "time": null,
      "trip_id": "block_765_trip_11_service_4",
      "trip_num": 11
    },
    {
      "delay": null,
      "departure_time": "13:21:00",
      "old": false,
      "stop_lat": 50.01409,
      "stop_lon": 19.94783,
      "stop_name": "Kurdwanów P+R",
      "stop_num": "10",
      "stop_sequence": 7,
      "stopping": false,
      "time": null,
      "trip_id": "block_765_trip_11_service_4",
      "trip_num": 11
    },
    {
      "delay": null,
      "departure_time": "13:23:00",
      "old": false,
      "stop_lat": 50.01356,
      "stop_lon": 19.95042,
      "stop_name": "Kurdwanów P+R",
      "stop_num": "03",
      "stop_sequence": 8,
      "stopping": false,
      "time": null,
      "trip_id": "block_765_trip_11_service_4",
      "trip_num": 11
    },
    {
      "delay": null,
      "departure_time": "13:24:00",
      "old": false,
      "stop_lat": 50.012424,
      "stop_lon": 19.95579,
      "stop_name": "Witosa",
      "stop_num": "02",
      "stop_sequence": 9,
      "stopping": false,
      "time": null,
      "trip_id": "block_765_trip_11_service_4",
      "trip_num": 11
    },
    {
      "delay": null,
      "departure_time": "13:25:00",
      "old": false,
      "stop_lat": 50.013437,
      "stop_lon": 19.964684,
      "stop_name": "Nowosądecka",
      "stop_num": "02",
      "stop_sequence": 10,
      "stopping": false,
      "time": null,
      "trip_id": "block_765_trip_11_service_4",
      "trip_num": 11
    },
    {
      "delay": null,
      "departure_time": "13:26:00",
      "old": false,
      "stop_lat": 50.015447,
      "stop_lon": 19.971604,
      "stop_name": "Piaski Nowe",
      "stop_num": "02",
      "stop_sequence": 11,
      "stopping": false,
      "time": null,
      "trip_id": "block_765_trip_11_service_4",
      "trip_num": 11
    },
    {
      "delay": null,
      "departure_time": "13:28:00",
      "old": false,
      "stop_lat": 50.018408,
      "stop_lon": 19.977585,
      "stop_name": "Dauna",
      "stop_num": "02",
      "stop_sequence": 12,
      "stopping": false,
      "time": null,
      "trip_id": "block_765_trip_11_service_4",
      "trip_num": 11
    },
    {
      "delay": null,
      "departure_time": "13:30:00",
      "old": false,
      "stop_lat": 50.023609,
      "stop_lon": 19.979431,
      "stop_name": "Bieżanowska",
      "stop_num": "04",
      "stop_sequence": 13,
      "stopping": false,
      "time": null,
      "trip_id": "block_765_trip_11_service_4",
      "trip_num": 11
    },
    {
      "delay": null,
      "departure_time": "13:32:00",
      "old": false,
      "stop_lat": 50.026621,
      "stop_lon": 19.977231,
      "stop_name": "Kabel",
      "stop_num": "02",
      "stop_sequence": 14,
      "stopping": false,
      "time": null,
      "trip_id": "block_765_trip_11_service_4",
      "trip_num": 11
    },
    {
      "delay": null,
      "departure_time": "13:34:00",
      "old": false,
      "stop_lat": 50.033556,
      "stop_lon": 19.977196,
      "stop_name": "Dworzec Płaszów Estakada",
      "stop_num": "01",
      "stop_sequence": 15,
      "stopping": false,
      "time": null,
      "trip_id": "block_765_trip_11_service_4",
      "trip_num": 11
    },
    {
      "delay": null,
      "departure_time": "13:37:00",
      "old": false,
      "stop_lat": 50.040641,
      "stop_lon": 19.98442,
      "stop_name": "Lipska",
      "stop_num": "01",
      "stop_sequence": 16,
      "stopping": false,
      "time": null,
      "trip_id": "block_765_trip_11_service_4",
      "trip_num": 11
    },
    {
      "delay": null,
      "departure_time": "13:38:00",
      "old": false,
      "stop_lat": 50.040429,
      "stop_lon": 19.992646,
      "stop_name": "Rzebika",
      "stop_num": "01",
      "stop_sequence": 17,
      "stopping": false,
      "time": null,
      "trip_id": "block_765_trip_11_service_4",
      "trip_num": 11
    },
    {
      "delay": null,
      "departure_time": "13:40:00",
      "old": false,
      "stop_lat": 50.040064,
      "stop_lon": 20.001498,
      "stop_name": "Mały Płaszów P+R",
      "stop_num": "01",
      "stop_sequence": 18,
      "stopping": false,
      "time": null,
      "trip_id": "block_765_trip_11_service_4",
      "trip_num": 11
    },
    {
      "delay": null,
      "departure_time": "13:56:00",
      "old": false,
      "stop_lat": 50.040064,
      "stop_lon": 20.001498,
      "stop_name": "Mały Płaszów P+R",
      "stop_num": "01",
      "stop_sequence": 1,
      "stopping": false,
      "time": null,
      "trip_id": "block_765_trip_12_service_4",
      "trip_num": 12
    },
    {
      "delay": null,
      "departure_time": "13:58:00",
      "old": false,
      "stop_lat": 50.040546,
      "stop_lon": 19.990871,
      "stop_name": "Rzebika",
      "stop_num": "02",
      "stop_sequence": 2,
      "stopping": false,
      "time": null,
      "trip_id": "block_765_trip_12_service_4",
      "trip_num": 12
    },
    {
      "delay": null,
      "departure_time": "14:00:00",
      "old": false,
      "stop_lat": 50.039687,
      "stop_lon": 19.982994,
      "stop_name": "Lipska",
      "stop_num": "03",
      "stop_sequence": 3,
      "stopping": false,
      "time": null,
      "trip_id": "block_765_trip_12_service_4",
      "trip_num": 12
    },
    {
      "delay": null,
      "departure_time": "14:02:00",
      "old": false,
      "stop_lat": 50.033468,
      "stop_lon": 19.976946,
      "stop_name": "Dworzec Płaszów Estakada",
      "stop_num": "02",
      "stop_sequence": 4,
      "stopping": false,
      "time": null,
      "trip_id": "block_765_trip_12_service_4",
      "trip_num": 12
    },
    {
      "delay": null,
      "departure_time": "14:04:00",
      "old": false,
      "stop_lat": 50.027229,
      "stop_lon": 19.976567,
      "stop_name": "Kabel",
      "stop_num": "01",
      "stop_sequence": 5,
      "stopping": false,
      "time": null,
      "trip_id": "block_765_trip_12_service_4",
      "trip_num": 12
    },
    {
      "delay": null,
      "departure_time": "14:06:00",
      "old": false,
      "stop_lat": 50.023562,
      "stop_lon": 19.97926,
      "stop_name": "Bieżanowska",
      "stop_num": "03",
      "stop_sequence": 6,
      "stopping": false,
      "time": null,
      "trip_id": "block_765_trip_12_service_4",
      "trip_num": 12
    },
    {
      "delay": null,
      "departure_time": "14:08:00",
      "old": false,
      "stop_lat": 50.018289,
      "stop_lon": 19.977516,
      "stop_name": "Dauna",
      "stop_num": "01",
      "stop_sequence": 7,
      "stopping": false,
      "time": null,
      "trip_id": "block_765_trip_12_service_4",
      "trip_num": 12
    },
    {
      "delay": null,
      "departure_time": "14:10:00",
      "old": false,
      "stop_lat": 50.015482,
      "stop_lon": 19.971574,
      "stop_name": "Piaski Nowe",
      "stop_num": "01",
      "stop_sequence": 8,
      "stopping": false,
      "time": null,
      "trip_id": "block_765_trip_12_service_4",
      "trip_num": 12
    },
    {
      "delay": null,
      "departure_time": "14:11:00",
      "old": false,
      "stop_lat": 50.013455,
      "stop_lon": 19.964635,
      "stop_name": "Nowosądecka",
      "stop_num": "01",
      "stop_sequence": 9,
      "stopping": false,
      "time": null,
      "trip_id": "block_765_trip_12_service_4",
      "trip_num": 12
    },
    {
      "delay": null,
      "departure_time": "14:13:00",
      "old": false,
      "stop_lat": 50.012338,
      "stop_lon": 19.956857,
      "stop_name": "Witosa",
      "stop_num": "01",
      "stop_sequence": 10,
      "stopping": false,
      "time": null,
      "trip_id": "block_765_trip_12_service_4",
      "trip_num": 12
    },
    {
      "delay": null,
      "departure_time": "14:14:00",
      "old": false,
      "stop_lat": 50.01359,
      "stop_lon": 19.95044,
      "stop_name": "Kurdwanów P+R",
      "stop_num": "01",
      "stop_sequence": 11,
      "stopping": false,
      "time": null,
      "trip_id": "block_765_trip_12_service_4",
      "trip_num": 12
    },
    {
      "delay": null,
      "departure_time": "14:16:00",
      "old": false,
      "stop_lat": 50.01407,
      "stop_lon": 19.94809,
      "stop_name": "Kurdwanów P+R",
      "stop_num": "08",
      "stop_sequence": 12,
      "stopping": false,
      "time": null,
      "trip_id": "block_765_trip_12_service_4",
      "trip_num": 12
    },
    {
      "delay": null,
      "departure_time": "14:17:00",
      "old": false,
      "stop_lat": 50.01511,
      "stop_lon": 19.94435,
      "stop_name": "Turowicza",
      "stop_num": "02",
      "stop_sequence": 13,
      "stopping": false,
      "time": null,
      "trip_id": "block_765_trip_12_service_4",
      "trip_num": 12
    },
    {
      "delay": null,
      "departure_time": "14:19:00",
      "old": false,
      "stop_lat": 50.01779,
      "stop_lon": 19.93633,
      "stop_name": "Sanktuarium Bożego Miłosierdzia",
      "stop_num": "02",
      "stop_sequence": 14,
      "stopping": false,
      "time": null,
      "trip_id": "block_765_trip_12_service_4",
      "trip_num": 12
    },
    {
      "delay": null,
      "departure_time": "14:21:00",
      "old": false,
      "stop_lat": 50.02032,
      "stop_lon": 19.9317,
      "stop_name": "Łagiewniki SKA",
      "stop_num": "01",
      "stop_sequence": 15,
      "stopping": false,
      "time": null,
      "trip_id": "block_765_trip_12_service_4",
      "trip_num": 12
    },
    {
      "delay": null,
      "departure_time": "14:22:00",
      "old": false,
      "stop_lat": 50.016651,
      "stop_lon": 19.929831,
      "stop_name": "Kościuszkowców",
      "stop_num": "01",
      "stop_sequence": 16,
      "stopping": false,
      "time": null,
      "trip_id": "block_765_trip_12_service_4",
      "trip_num": 12
    },
    {
      "delay": null,
      "departure_time": "14:23:00",
      "old": false,
      "stop_lat": 50.014606,
      "stop_lon": 19.927852,
      "stop_name": "Solvay",
      "stop_num": "01",
      "stop_sequence": 17,
      "stopping": false,
      "time": null,
      "trip_id": "block_765_trip_12_service_4",
      "trip_num": 12
    },
    {
      "delay": null,
      "departure_time": "14:25:00",
      "old": false,
      "stop_lat": 50.013101,
      "stop_lon": 19.927021,
      "stop_name": "Borek Fałęcki",
      "stop_num": "01",
      "stop_sequence": 18,
      "stopping": false,
      "time": null,
      "trip_id": "block_765_trip_12_service_4",
      "trip_num": 12
    },
    {
      "delay": null,
      "departure_time": "14:43:00",
      "old": false,
      "stop_lat": 50.013101,
      "stop_lon": 19.927021,
      "stop_name": "Borek Fałęcki",
      "stop_num": "01",
      "stop_sequence": 1,
      "stopping": false,
      "time": null,
      "trip_id": "block_765_trip_13_service_4",
      "trip_num": 13
    },
    {
      "delay": null,
      "departure_time": "14:44:00",
      "old": false,
      "stop_lat": 50.014546,
      "stop_lon": 19.927822,
      "stop_name": "Solvay",
      "stop_num": "02",
      "stop_sequence": 2,
      "stopping": false,
      "time": null,
      "trip_id": "block_765_trip_13_service_4",
      "trip_num": 13
    },
    {
      "delay": null,
      "departure_time": "14:45:00",
      "old": false,
      "stop_lat": 50.015661,
      "stop_lon": 19.929342,
      "stop_name": "Kościuszkowców",
      "stop_num": "02",
      "stop_sequence": 3,
      "stopping": false,
      "time": null,
      "trip_id": "block_765_trip_13_service_4",
      "trip_num": 13
    },
    {
      "delay": null,
      "departure_time": "14:47:00",
      "old": false,
      "stop_lat": 50.02111,
      "stop_lon": 19.93288,
      "stop_name": "Łagiewniki SKA",
      "stop_num": "03",
      "stop_sequence": 4,
      "stopping": false,
      "time": null,
      "trip_id": "block_765_trip_13_service_4",
      "trip_num": 13
    },
    {
      "delay": null,
      "departure_time": "14:48:00",
      "old": false,
      "stop_lat": 50.01777,
      "stop_lon": 19.93626,
      "stop_name": "Sanktuarium Bożego Miłosierdzia",
      "stop_num": "01",
      "stop_sequence": 5,
      "stopping": false,
      "time": null,
      "trip_id": "block_765_trip_13_service_4",
      "trip_num": 13
    },
    {
      "delay": null,
      "departure_time": "14:50:00",
      "old": false,
      "stop_lat": 50.01506,
      "stop_lon": 19.94439,
      "stop_name": "Turowicza",
      "stop_num": "01",
      "stop_sequence": 6,
      "stopping": false,
      "time": null,
      "trip_id": "block_765_trip_13_service_4",
      "trip_num": 13
    },
    {
      "delay": null,
      "departure_time": "14:51:00",
      "old": false,
      "stop_lat": 50.01409,
      "stop_lon": 19.94783,
      "stop_name": "Kurdwanów P+R",
      "stop_num": "10",
      "stop_sequence": 7,
      "stopping": false,
      "time": null,
      "trip_id": "block_765_trip_13_service_4",
      "trip_num": 13
    },
    {
      "delay": null,
      "departure_time": "14:53:00",
      "old": false,
      "stop_lat": 50.01356,
      "stop_lon": 19.95042,
      "stop_name": "Kurdwanów P+R",
      "stop_num": "03",
      "stop_sequence": 8,
      "stopping": false,
      "time": null,
      "trip_id": "block_765_trip_13_service_4",
      "trip_num": 13
    },
    {
      "delay": null,
      "departure_time": "14:54:00",
      "old": false,
      "stop_lat": 50.012424,
      "stop_lon": 19.95579,
      "stop_name": "Witosa",
      "stop_num": "02",
      "stop_sequence": 9,
      "stopping": false,
      "time": null,
      "trip_id": "block_765_trip_13_service_4",
      "trip_num": 13
    },
    {
      "delay": null,
      "departure_time": "14:55:00",
      "old": false,
      "stop_lat": 50.013437,
      "stop_lon": 19.964684,
      "stop_name": "Nowosądecka",
      "stop_num": "02",
      "stop_sequence": 10,
      "stopping": false,
      "time": null,
      "trip_id": "block_765_trip_13_service_4",
      "trip_num": 13
    },
    {
      "delay": null,
      "departure_time": "14:56:00",
      "old": false,
      "stop_lat": 50.015447,
      "stop_lon": 19.971604,
      "stop_name": "Piaski Nowe",
      "stop_num": "02",
      "stop_sequence": 11,
      "stopping": false,
      "time": null,
      "trip_id": "block_765_trip_13_service_4",
      "trip_num": 13
    },
    {
      "delay": null,
      "departure_time": "14:58:00",
      "old": false,
      "stop_lat": 50.018408,
      "stop_lon": 19.977585,
      "stop_name": "Dauna",
      "stop_num": "02",
      "stop_sequence": 12,
      "stopping": false,
      "time": null,
      "trip_id": "block_765_trip_13_service_4",
      "trip_num": 13
    },
    {
      "delay": null,
      "departure_time": "15:00:00",
      "old": false,
      "stop_lat": 50.023609,
      "stop_lon": 19.979431,
      "stop_name": "Bieżanowska",
      "stop_num": "04",
      "stop_sequence": 13,
      "stopping": false,
      "time": null,
      "trip_id": "block_765_trip_13_service_4",
      "trip_num": 13
    },
    {
      "delay": null,
      "departure_time": "15:02:00",
      "old": false,
      "stop_lat": 50.026621,
      "stop_lon": 19.977231,
      "stop_name": "Kabel",
      "stop_num": "02",
      "stop_sequence": 14,
      "stopping": false,
      "time": null,
      "trip_id": "block_765_trip_13_service_4",
      "trip_num": 13
    },
    {
      "delay": null,
      "departure_time": "15:04:00",
      "old": false,
      "stop_lat": 50.033556,
      "stop_lon": 19.977196,
      "stop_name": "Dworzec Płaszów Estakada",
      "stop_num": "01",
      "stop_sequence": 15,
      "stopping": false,
      "time": null,
      "trip_id": "block_765_trip_13_service_4",
      "trip_num": 13
    },
    {
      "delay": null,
      "departure_time": "15:07:00",
      "old": false,
      "stop_lat": 50.040641,
      "stop_lon": 19.98442,
      "stop_name": "Lipska",
      "stop_num": "01",
      "stop_sequence": 16,
      "stopping": false,
      "time": null,
      "trip_id": "block_765_trip_13_service_4",
      "trip_num": 13
    },
    {
      "delay": null,
      "departure_time": "15:08:00",
      "old": false,
      "stop_lat": 50.040429,
      "stop_lon": 19.992646,
      "stop_name": "Rzebika",
      "stop_num": "01",
      "stop_sequence": 17,
      "stopping": false,
      "time": null,
      "trip_id": "block_765_trip_13_service_4",
      "trip_num": 13
    },
    {
      "delay": null,
      "departure_time": "15:10:00",
      "old": false,
      "stop_lat": 50.040064,
      "stop_lon": 20.001498,
      "stop_name": "Mały Płaszów P+R",
      "stop_num": "01",
      "stop_sequence": 18,
      "stopping": false,
      "time": null,
      "trip_id": "block_765_trip_13_service_4",
      "trip_num": 13
    },
    {
      "delay": null,
      "departure_time": "15:29:00",
      "old": false,
      "stop_lat": 50.040064,
      "stop_lon": 20.001498,
      "stop_name": "Mały Płaszów P+R",
      "stop_num": "01",
      "stop_sequence": 1,
      "stopping": false,
      "time": null,
      "trip_id": "block_765_trip_14_service_4",
      "trip_num": 14
    },
    {
      "delay": null,
      "departure_time": "15:31:00",
      "old": false,
      "stop_lat": 50.040546,
      "stop_lon": 19.990871,
      "stop_name": "Rzebika",
      "stop_num": "02",
      "stop_sequence": 2,
      "stopping": false,
      "time": null,
      "trip_id": "block_765_trip_14_service_4",
      "trip_num": 14
    },
    {
      "delay": null,
      "departure_time": "15:33:00",
      "old": false,
      "stop_lat": 50.039687,
      "stop_lon": 19.982994,
      "stop_name": "Lipska",
      "stop_num": "03",
      "stop_sequence": 3,
      "stopping": false,
      "time": null,
      "trip_id": "block_765_trip_14_service_4",
      "trip_num": 14
    },
    {
      "delay": null,
      "departure_time": "15:35:00",
      "old": false,
      "stop_lat": 50.033468,
      "stop_lon": 19.976946,
      "stop_name": "Dworzec Płaszów Estakada",
      "stop_num": "02",
      "stop_sequence": 4,
      "stopping": false,
      "time": null,
      "trip_id": "block_765_trip_14_service_4",
      "trip_num": 14
    },
    {
      "delay": null,
      "departure_time": "15:37:00",
      "old": false,
      "stop_lat": 50.027229,
      "stop_lon": 19.976567,
      "stop_name": "Kabel",
      "stop_num": "01",
      "stop_sequence": 5,
      "stopping": false,
      "time": null,
      "trip_id": "block_765_trip_14_service_4",
      "trip_num": 14
    },
    {
      "delay": null,
      "departure_time": "15:39:00",
      "old": false,
      "stop_lat": 50.023562,
      "stop_lon": 19.97926,
      "stop_name": "Bieżanowska",
      "stop_num": "03",
      "stop_sequence": 6,
      "stopping": false,
      "time": null,
      "trip_id": "block_765_trip_14_service_4",
      "trip_num": 14
    },
    {
      "delay": null,
      "departure_time": "15:41:00",
      "old": false,
      "stop_lat": 50.018289,
      "stop_lon": 19.977516,
      "stop_name": "Dauna",
      "stop_num": "01",
      "stop_sequence": 7,
      "stopping": false,
      "time": null,
      "trip_id": "block_765_trip_14_service_4",
      "trip_num": 14
    },
    {
      "delay": null,
      "departure_time": "15:43:00",
      "old": false,
      "stop_lat": 50.015482,
      "stop_lon": 19.971574,
      "stop_name": "Piaski Nowe",
      "stop_num": "01",
      "stop_sequence": 8,
      "stopping": false,
      "time": null,
      "trip_id": "block_765_trip_14_service_4",
      "trip_num": 14
    },
    {
      "delay": null,
      "departure_time": "15:44:00",
      "old": false,
      "stop_lat": 50.013455,
      "stop_lon": 19.964635,
      "stop_name": "Nowosądecka",
      "stop_num": "01",
      "stop_sequence": 9,
      "stopping": false,
      "time": null,
      "trip_id": "block_765_trip_14_service_4",
      "trip_num": 14
    },
    {
      "delay": null,
      "departure_time": "15:46:00",
      "old": false,
      "stop_lat": 50.012338,
      "stop_lon": 19.956857,
      "stop_name": "Witosa",
      "stop_num": "01",
      "stop_sequence": 10,
      "stopping": false,
      "time": null,
      "trip_id": "block_765_trip_14_service_4",
      "trip_num": 14
    },
    {
      "delay": null,
      "departure_time": "15:47:00",
      "old": false,
      "stop_lat": 50.01359,
      "stop_lon": 19.95044,
      "stop_name": "Kurdwanów P+R",
      "stop_num": "01",
      "stop_sequence": 11,
      "stopping": false,
      "time": null,
      "trip_id": "block_765_trip_14_service_4",
      "trip_num": 14
    },
    {
      "delay": null,
      "departure_time": "15:49:00",
      "old": false,
      "stop_lat": 50.01407,
      "stop_lon": 19.94809,
      "stop_name": "Kurdwanów P+R",
      "stop_num": "08",
      "stop_sequence": 12,
      "stopping": false,
      "time": null,
      "trip_id": "block_765_trip_14_service_4",
      "trip_num": 14
    },
    {
      "delay": null,
      "departure_time": "15:50:00",
      "old": false,
      "stop_lat": 50.01511,
      "stop_lon": 19.94435,
      "stop_name": "Turowicza",
      "stop_num": "02",
      "stop_sequence": 13,
      "stopping": false,
      "time": null,
      "trip_id": "block_765_trip_14_service_4",
      "trip_num": 14
    },
    {
      "delay": null,
      "departure_time": "15:52:00",
      "old": false,
      "stop_lat": 50.01779,
      "stop_lon": 19.93633,
      "stop_name": "Sanktuarium Bożego Miłosierdzia",
      "stop_num": "02",
      "stop_sequence": 14,
      "stopping": false,
      "time": null,
      "trip_id": "block_765_trip_14_service_4",
      "trip_num": 14
    },
    {
      "delay": null,
      "departure_time": "15:54:00",
      "old": false,
      "stop_lat": 50.02032,
      "stop_lon": 19.9317,
      "stop_name": "Łagiewniki SKA",
      "stop_num": "01",
      "stop_sequence": 15,
      "stopping": false,
      "time": null,
      "trip_id": "block_765_trip_14_service_4",
      "trip_num": 14
    },
    {
      "delay": null,
      "departure_time": "15:55:00",
      "old": false,
      "stop_lat": 50.016651,
      "stop_lon": 19.929831,
      "stop_name": "Kościuszkowców",
      "stop_num": "01",
      "stop_sequence": 16,
      "stopping": false,
      "time": null,
      "trip_id": "block_765_trip_14_service_4",
      "trip_num": 14
    },
    {
      "delay": null,
      "departure_time": "15:56:00",
      "old": false,
      "stop_lat": 50.014606,
      "stop_lon": 19.927852,
      "stop_name": "Solvay",
      "stop_num": "01",
      "stop_sequence": 17,
      "stopping": false,
      "time": null,
      "trip_id": "block_765_trip_14_service_4",
      "trip_num": 14
    },
    {
      "delay": null,
      "departure_time": "15:58:00",
      "old": false,
      "stop_lat": 50.013101,
      "stop_lon": 19.927021,
      "stop_name": "Borek Fałęcki",
      "stop_num": "01",
      "stop_sequence": 18,
      "stopping": false,
      "time": null,
      "trip_id": "block_765_trip_14_service_4",
      "trip_num": 14
    },
    {
      "delay": null,
      "departure_time": "16:13:00",
      "old": false,
      "stop_lat": 50.013101,
      "stop_lon": 19.927021,
      "stop_name": "Borek Fałęcki",
      "stop_num": "01",
      "stop_sequence": 1,
      "stopping": false,
      "time": null,
      "trip_id": "block_765_trip_15_service_4",
      "trip_num": 15
    },
    {
      "delay": null,
      "departure_time": "16:14:00",
      "old": false,
      "stop_lat": 50.014546,
      "stop_lon": 19.927822,
      "stop_name": "Solvay",
      "stop_num": "02",
      "stop_sequence": 2,
      "stopping": false,
      "time": null,
      "trip_id": "block_765_trip_15_service_4",
      "trip_num": 15
    },
    {
      "delay": null,
      "departure_time": "16:15:00",
      "old": false,
      "stop_lat": 50.015661,
      "stop_lon": 19.929342,
      "stop_name": "Kościuszkowców",
      "stop_num": "02",
      "stop_sequence": 3,
      "stopping": false,
      "time": null,
      "trip_id": "block_765_trip_15_service_4",
      "trip_num": 15
    },
    {
      "delay": null,
      "departure_time": "16:17:00",
      "old": false,
      "stop_lat": 50.02111,
      "stop_lon": 19.93288,
      "stop_name": "Łagiewniki SKA",
      "stop_num": "03",
      "stop_sequence": 4,
      "stopping": false,
      "time": null,
      "trip_id": "block_765_trip_15_service_4",
      "trip_num": 15
    },
    {
      "delay": null,
      "departure_time": "16:18:00",
      "old": false,
      "stop_lat": 50.01777,
      "stop_lon": 19.93626,
      "stop_name": "Sanktuarium Bożego Miłosierdzia",
      "stop_num": "01",
      "stop_sequence": 5,
      "stopping": false,
      "time": null,
      "trip_id": "block_765_trip_15_service_4",
      "trip_num": 15
    },
    {
      "delay": null,
      "departure_time": "16:20:00",
      "old": false,
      "stop_lat": 50.01506,
      "stop_lon": 19.94439,
      "stop_name": "Turowicza",
      "stop_num": "01",
      "stop_sequence": 6,
      "stopping": false,
      "time": null,
      "trip_id": "block_765_trip_15_service_4",
      "trip_num": 15
    },
    {
      "delay": null,
      "departure_time": "16:21:00",
      "old": false,
      "stop_lat": 50.01409,
      "stop_lon": 19.94783,
      "stop_name": "Kurdwanów P+R",
      "stop_num": "10",
      "stop_sequence": 7,
      "stopping": false,
      "time": null,
      "trip_id": "block_765_trip_15_service_4",
      "trip_num": 15
    },
    {
      "delay": null,
      "departure_time": "16:23:00",
      "old": false,
      "stop_lat": 50.01356,
      "stop_lon": 19.95042,
      "stop_name": "Kurdwanów P+R",
      "stop_num": "03",
      "stop_sequence": 8,
      "stopping": false,
      "time": null,
      "trip_id": "block_765_trip_15_service_4",
      "trip_num": 15
    },
    {
      "delay": null,
      "departure_time": "16:24:00",
      "old": false,
      "stop_lat": 50.012424,
      "stop_lon": 19.95579,
      "stop_name": "Witosa",
      "stop_num": "02",
      "stop_sequence": 9,
      "stopping": false,
      "time": null,
      "trip_id": "block_765_trip_15_service_4",
      "trip_num": 15
    },
    {
      "delay": null,
      "departure_time": "16:25:00",
      "old": false,
      "stop_lat": 50.013437,
      "stop_lon": 19.964684,
      "stop_name": "Nowosądecka",
      "stop_num": "02",
      "stop_sequence": 10,
      "stopping": false,
      "time": null,
      "trip_id": "block_765_trip_15_service_4",
      "trip_num": 15
    },
    {
      "delay": null,
      "departure_time": "16:26:00",
      "old": false,
      "stop_lat": 50.015447,
      "stop_lon": 19.971604,
      "stop_name": "Piaski Nowe",
      "stop_num": "02",
      "stop_sequence": 11,
      "stopping": false,
      "time": null,
      "trip_id": "block_765_trip_15_service_4",
      "trip_num": 15
    },
    {
      "delay": null,
      "departure_time": "16:28:00",
      "old": false,
      "stop_lat": 50.018408,
      "stop_lon": 19.977585,
      "stop_name": "Dauna",
      "stop_num": "02",
      "stop_sequence": 12,
      "stopping": false,
      "time": null,
      "trip_id": "block_765_trip_15_service_4",
      "trip_num": 15
    },
    {
      "delay": null,
      "departure_time": "16:30:00",
      "old": false,
      "stop_lat": 50.023609,
      "stop_lon": 19.979431,
      "stop_name": "Bieżanowska",
      "stop_num": "04",
      "stop_sequence": 13,
      "stopping": false,
      "time": null,
      "trip_id": "block_765_trip_15_service_4",
      "trip_num": 15
    },
    {
      "delay": null,
      "departure_time": "16:32:00",
      "old": false,
      "stop_lat": 50.026621,
      "stop_lon": 19.977231,
      "stop_name": "Kabel",
      "stop_num": "02",
      "stop_sequence": 14,
      "stopping": false,
      "time": null,
      "trip_id": "block_765_trip_15_service_4",
      "trip_num": 15
    },
    {
      "delay": null,
      "departure_time": "16:34:00",
      "old": false,
      "stop_lat": 50.033556,
      "stop_lon": 19.977196,
      "stop_name": "Dworzec Płaszów Estakada",
      "stop_num": "01",
      "stop_sequence": 15,
      "stopping": false,
      "time": null,
      "trip_id": "block_765_trip_15_service_4",
      "trip_num": 15
    },
    {
      "delay": null,
      "departure_time": "16:37:00",
      "old": false,
      "stop_lat": 50.040641,
      "stop_lon": 19.98442,
      "stop_name": "Lipska",
      "stop_num": "01",
      "stop_sequence": 16,
      "stopping": false,
      "time": null,
      "trip_id": "block_765_trip_15_service_4",
      "trip_num": 15
    },
    {
      "delay": null,
      "departure_time": "16:38:00",
      "old": false,
      "stop_lat": 50.040429,
      "stop_lon": 19.992646,
      "stop_name": "Rzebika",
      "stop_num": "01",
      "stop_sequence": 17,
      "stopping": false,
      "time": null,
      "trip_id": "block_765_trip_15_service_4",
      "trip_num": 15
    },
    {
      "delay": null,
      "departure_time": "16:40:00",
      "old": false,
      "stop_lat": 50.040064,
      "stop_lon": 20.001498,
      "stop_name": "Mały Płaszów P+R",
      "stop_num": "01",
      "stop_sequence": 18,
      "stopping": false,
      "time": null,
      "trip_id": "block_765_trip_15_service_4",
      "trip_num": 15
    },
    {
      "delay": null,
      "departure_time": "16:59:00",
      "old": false,
      "stop_lat": 50.040064,
      "stop_lon": 20.001498,
      "stop_name": "Mały Płaszów P+R",
      "stop_num": "01",
      "stop_sequence": 1,
      "stopping": false,
      "time": null,
      "trip_id": "block_765_trip_16_service_4",
      "trip_num": 16
    },
    {
      "delay": null,
      "departure_time": "17:01:00",
      "old": false,
      "stop_lat": 50.040546,
      "stop_lon": 19.990871,
      "stop_name": "Rzebika",
      "stop_num": "02",
      "stop_sequence": 2,
      "stopping": false,
      "time": null,
      "trip_id": "block_765_trip_16_service_4",
      "trip_num": 16
    },
    {
      "delay": null,
      "departure_time": "17:03:00",
      "old": false,
      "stop_lat": 50.039687,
      "stop_lon": 19.982994,
      "stop_name": "Lipska",
      "stop_num": "03",
      "stop_sequence": 3,
      "stopping": false,
      "time": null,
      "trip_id": "block_765_trip_16_service_4",
      "trip_num": 16
    },
    {
      "delay": null,
      "departure_time": "17:05:00",
      "old": false,
      "stop_lat": 50.033468,
      "stop_lon": 19.976946,
      "stop_name": "Dworzec Płaszów Estakada",
      "stop_num": "02",
      "stop_sequence": 4,
      "stopping": false,
      "time": null,
      "trip_id": "block_765_trip_16_service_4",
      "trip_num": 16
    },
    {
      "delay": null,
      "departure_time": "17:07:00",
      "old": false,
      "stop_lat": 50.027229,
      "stop_lon": 19.976567,
      "stop_name": "Kabel",
      "stop_num": "01",
      "stop_sequence": 5,
      "stopping": false,
      "time": null,
      "trip_id": "block_765_trip_16_service_4",
      "trip_num": 16
    },
    {
      "delay": null,
      "departure_time": "17:09:00",
      "old": false,
      "stop_lat": 50.023562,
      "stop_lon": 19.97926,
      "stop_name": "Bieżanowska",
      "stop_num": "03",
      "stop_sequence": 6,
      "stopping": false,
      "time": null,
      "trip_id": "block_765_trip_16_service_4",
      "trip_num": 16
    },
    {
      "delay": null,
      "departure_time": "17:11:00",
      "old": false,
      "stop_lat": 50.018289,
      "stop_lon": 19.977516,
      "stop_name": "Dauna",
      "stop_num": "01",
      "stop_sequence": 7,
      "stopping": false,
      "time": null,
      "trip_id": "block_765_trip_16_service_4",
      "trip_num": 16
    },
    {
      "delay": null,
      "departure_time": "17:13:00",
      "old": false,
      "stop_lat": 50.015482,
      "stop_lon": 19.971574,
      "stop_name": "Piaski Nowe",
      "stop_num": "01",
      "stop_sequence": 8,
      "stopping": false,
      "time": null,
      "trip_id": "block_765_trip_16_service_4",
      "trip_num": 16
    },
    {
      "delay": null,
      "departure_time": "17:14:00",
      "old": false,
      "stop_lat": 50.013455,
      "stop_lon": 19.964635,
      "stop_name": "Nowosądecka",
      "stop_num": "01",
      "stop_sequence": 9,
      "stopping": false,
      "time": null,
      "trip_id": "block_765_trip_16_service_4",
      "trip_num": 16
    },
    {
      "delay": null,
      "departure_time": "17:16:00",
      "old": false,
      "stop_lat": 50.012338,
      "stop_lon": 19.956857,
      "stop_name": "Witosa",
      "stop_num": "01",
      "stop_sequence": 10,
      "stopping": false,
      "time": null,
      "trip_id": "block_765_trip_16_service_4",
      "trip_num": 16
    },
    {
      "delay": null,
      "departure_time": "17:17:00",
      "old": false,
      "stop_lat": 50.01359,
      "stop_lon": 19.95044,
      "stop_name": "Kurdwanów P+R",
      "stop_num": "01",
      "stop_sequence": 11,
      "stopping": false,
      "time": null,
      "trip_id": "block_765_trip_16_service_4",
      "trip_num": 16
    },
    {
      "delay": null,
      "departure_time": "17:19:00",
      "old": false,
      "stop_lat": 50.01407,
      "stop_lon": 19.94809,
      "stop_name": "Kurdwanów P+R",
      "stop_num": "08",
      "stop_sequence": 12,
      "stopping": false,
      "time": null,
      "trip_id": "block_765_trip_16_service_4",
      "trip_num": 16
    },
    {
      "delay": null,
      "departure_time": "17:20:00",
      "old": false,
      "stop_lat": 50.01511,
      "stop_lon": 19.94435,
      "stop_name": "Turowicza",
      "stop_num": "02",
      "stop_sequence": 13,
      "stopping": false,
      "time": null,
      "trip_id": "block_765_trip_16_service_4",
      "trip_num": 16
    },
    {
      "delay": null,
      "departure_time": "17:22:00",
      "old": false,
      "stop_lat": 50.01779,
      "stop_lon": 19.93633,
      "stop_name": "Sanktuarium Bożego Miłosierdzia",
      "stop_num": "02",
      "stop_sequence": 14,
      "stopping": false,
      "time": null,
      "trip_id": "block_765_trip_16_service_4",
      "trip_num": 16
    },
    {
      "delay": null,
      "departure_time": "17:24:00",
      "old": false,
      "stop_lat": 50.02032,
      "stop_lon": 19.9317,
      "stop_name": "Łagiewniki SKA",
      "stop_num": "01",
      "stop_sequence": 15,
      "stopping": false,
      "time": null,
      "trip_id": "block_765_trip_16_service_4",
      "trip_num": 16
    },
    {
      "delay": null,
      "departure_time": "17:25:00",
      "old": false,
      "stop_lat": 50.016651,
      "stop_lon": 19.929831,
      "stop_name": "Kościuszkowców",
      "stop_num": "01",
      "stop_sequence": 16,
      "stopping": false,
      "time": null,
      "trip_id": "block_765_trip_16_service_4",
      "trip_num": 16
    },
    {
      "delay": null,
      "departure_time": "17:26:00",
      "old": false,
      "stop_lat": 50.014606,
      "stop_lon": 19.927852,
      "stop_name": "Solvay",
      "stop_num": "01",
      "stop_sequence": 17,
      "stopping": false,
      "time": null,
      "trip_id": "block_765_trip_16_service_4",
      "trip_num": 16
    },
    {
      "delay": null,
      "departure_time": "17:28:00",
      "old": false,
      "stop_lat": 50.013101,
      "stop_lon": 19.927021,
      "stop_name": "Borek Fałęcki",
      "stop_num": "01",
      "stop_sequence": 18,
      "stopping": false,
      "time": null,
      "trip_id": "block_765_trip_16_service_4",
      "trip_num": 16
    },
    {
      "delay": null,
      "departure_time": "17:43:00",
      "old": false,
      "stop_lat": 50.013101,
      "stop_lon": 19.927021,
      "stop_name": "Borek Fałęcki",
      "stop_num": "01",
      "stop_sequence": 1,
      "stopping": false,
      "time": null,
      "trip_id": "block_765_trip_17_service_4",
      "trip_num": 17
    },
    {
      "delay": null,
      "departure_time": "17:44:00",
      "old": false,
      "stop_lat": 50.014546,
      "stop_lon": 19.927822,
      "stop_name": "Solvay",
      "stop_num": "02",
      "stop_sequence": 2,
      "stopping": false,
      "time": null,
      "trip_id": "block_765_trip_17_service_4",
      "trip_num": 17
    },
    {
      "delay": null,
      "departure_time": "17:45:00",
      "old": false,
      "stop_lat": 50.015661,
      "stop_lon": 19.929342,
      "stop_name": "Kościuszkowców",
      "stop_num": "02",
      "stop_sequence": 3,
      "stopping": false,
      "time": null,
      "trip_id": "block_765_trip_17_service_4",
      "trip_num": 17
    },
    {
      "delay": null,
      "departure_time": "17:47:00",
      "old": false,
      "stop_lat": 50.02111,
      "stop_lon": 19.93288,
      "stop_name": "Łagiewniki SKA",
      "stop_num": "03",
      "stop_sequence": 4,
      "stopping": false,
      "time": null,
      "trip_id": "block_765_trip_17_service_4",
      "trip_num": 17
    },
    {
      "delay": null,
      "departure_time": "17:48:00",
      "old": false,
      "stop_lat": 50.01777,
      "stop_lon": 19.93626,
      "stop_name": "Sanktuarium Bożego Miłosierdzia",
      "stop_num": "01",
      "stop_sequence": 5,
      "stopping": false,
      "time": null,
      "trip_id": "block_765_trip_17_service_4",
      "trip_num": 17
    },
    {
      "delay": null,
      "departure_time": "17:50:00",
      "old": false,
      "stop_lat": 50.01506,
      "stop_lon": 19.94439,
      "stop_name": "Turowicza",
      "stop_num": "01",
      "stop_sequence": 6,
      "stopping": false,
      "time": null,
      "trip_id": "block_765_trip_17_service_4",
      "trip_num": 17
    },
    {
      "delay": null,
      "departure_time": "17:51:00",
      "old": false,
      "stop_lat": 50.01409,
      "stop_lon": 19.94783,
      "stop_name": "Kurdwanów P+R",
      "stop_num": "10",
      "stop_sequence": 7,
      "stopping": false,
      "time": null,
      "trip_id": "block_765_trip_17_service_4",
      "trip_num": 17
    },
    {
      "delay": null,
      "departure_time": "17:53:00",
      "old": false,
      "stop_lat": 50.01356,
      "stop_lon": 19.95042,
      "stop_name": "Kurdwanów P+R",
      "stop_num": "03",
      "stop_sequence": 8,
      "stopping": false,
      "time": null,
      "trip_id": "block_765_trip_17_service_4",
      "trip_num": 17
    },