{
  "stop_times": [
    {
      "delay": null,
      "departure_time": "06:35:00",
      "old": true,
      "stop_lat": 50.029498,
      "stop_lon": 19.935946,
      "stop_name": "Łagiewniki",
      "stop_num": "04",
      "stop_sequence": 2,
      "stopping": false,
      "time": null,
      "trip_id": "block_655_trip_1_service_3",
      "trip_num": 1
    },
    {
      "delay": null,
      "departure_time": "06:37:00",
      "old": true,
      "stop_lat": 50.030486,
      "stop_lon": 19.937053,
      "stop_name": "Łagiewniki",
      "stop_num": "02",
      "stop_sequence": 3,
      "stopping": false,
      "time": null,
      "trip_id": "block_655_trip_1_service_3",
      "trip_num": 1
    },
    {
      "delay": null,
      "departure_time": "06:38:00",
      "old": true,
      "stop_lat": 50.03295,
      "stop_lon": 19.938389,
      "stop_name": "Rzemieślnicza",
      "stop_num": "02",
      "stop_sequence": 4,
      "stopping": false,
      "time": null,
      "trip_id": "block_655_trip_1_service_3",
      "trip_num": 1
    },
    {
      "delay": null,
      "departure_time": "06:39:00",
      "old": true,
      "stop_lat": 50.035927,
      "stop_lon": 19.940363,
      "stop_name": "Rondo Matecznego",
      "stop_num": "02",
      "stop_sequence": 5,
      "stopping": false,
      "time": null,
      "trip_id": "block_655_trip_1_service_3",
      "trip_num": 1
    },
    {
      "delay": null,
      "departure_time": "06:40:00",
      "old": true,
      "stop_lat": 50.041629,
      "stop_lon": 19.943262,
      "stop_name": "Smolki",
      "stop_num": "02",
      "stop_sequence": 6,
      "stopping": false,
      "time": null,
      "trip_id": "block_655_trip_1_service_3",
      "trip_num": 1
    },
    {
      "delay": null,
      "departure_time": "06:42:00",
      "old": true,
      "stop_lat": 50.043604,
      "stop_lon": 19.946683,
      "stop_name": "Korona",
      "stop_num": "01",
      "stop_sequence": 7,
      "stopping": false,
      "time": null,
      "trip_id": "block_655_trip_1_service_3",
      "trip_num": 1
    },
    {
      "delay": null,
      "departure_time": "06:44:00",
      "old": true,
      "stop_lat": 50.046716,
      "stop_lon": 19.9551,
      "stop_name": "Plac Bohaterów Getta",
      "stop_num": "02",
      "stop_sequence": 8,
      "stopping": false,
      "time": null,
      "trip_id": "block_655_trip_1_service_3",
      "trip_num": 1
    },
    {
      "delay": null,
      "departure_time": "06:47:00",
      "old": true,
      "stop_lat": 50.051415,
      "stop_lon": 19.950829,
      "stop_name": "św. Wawrzyńca",
      "stop_num": "02",
      "stop_sequence": 9,
      "stopping": false,
      "time": null,
      "trip_id": "block_655_trip_1_service_3",
      "trip_num": 1
    },
    {
      "delay": null,
      "departure_time": "06:48:00",
      "old": true,
      "stop_lat": 50.05321,
      "stop_lon": 19.9489,
      "stop_name": "Miodowa",
      "stop_num": "02",
      "stop_sequence": 10,
      "stopping": false,
      "time": null,
      "trip_id": "block_655_trip_1_service_3",
      "trip_num": 1
    },
    {
      "delay": null,
      "departure_time": "06:51:00",
      "old": true,
      "stop_lat": 50.052258,
      "stop_lon": 19.942061,
      "stop_name": "Stradom",
      "stop_num": "03",
      "stop_sequence": 11,
      "stopping": false,
      "time": null,
      "trip_id": "block_655_trip_1_service_3",
      "trip_num": 1
    },
    {
      "delay": null,
      "departure_time": "06:52:00",
      "old": true,
      "stop_lat": 50.050631,
      "stop_lon": 19.938671,
      "stop_name": "Orzeszkowej",
      "stop_num": "01",
      "stop_sequence": 12,
      "stopping": false,
      "time": null,
      "trip_id": "block_655_trip_1_service_3",
      "trip_num": 1
    },
    {
      "delay": null,
      "departure_time": "06:55:00",
      "old": true,
      "stop_lat": 50.048567,
      "stop_lon": 19.930917,
      "stop_name": "Rondo Grunwaldzkie",
      "stop_num": "01",
      "stop_sequence": 13,
      "stopping": false,
      "time": null,
      "trip_id": "block_655_trip_1_service_3",
      "trip_num": 1
    },
    {
      "delay": null,
      "departure_time": "06:56:00",
      "old": true,
      "stop_lat": 50.046721,
      "stop_lon": 19.925299,
      "stop_name": "Szwedzka",
      "stop_num": "01",
      "stop_sequence": 14,
      "stopping": false,
      "time": null,
      "trip_id": "block_655_trip_1_service_3",
      "trip_num": 1
    },
    {
      "delay": null,
      "departure_time": "06:58:00",
      "old": true,
      "stop_lat": 50.044913,
      "stop_lon": 19.922059,
      "stop_name": "Kapelanka",
      "stop_num": "01",
      "stop_sequence": 15,
      "stopping": false,
      "time": null,
      "trip_id": "block_655_trip_1_service_3",
      "trip_num": 1
    },
    {
      "delay": null,
      "departure_time": "06:59:00",
      "old": true,
      "stop_lat": 50.041404,
      "stop_lon": 19.9241,
      "stop_name": "Słomiana",
      "stop_num": "01",
      "stop_sequence": 16,
      "stopping": false,
      "time": null,
      "trip_id": "block_655_trip_1_service_3",
      "trip_num": 1
    },
    {
      "delay": null,
      "departure_time": "07:01:00",
      "old": true,
      "stop_lat": 50.03444,
      "stop_lon": 19.925931,
      "stop_name": "Kobierzyńska",
      "stop_num": "01",
      "stop_sequence": 17,
      "stopping": false,
      "time": null,
      "trip_id": "block_655_trip_1_service_3",
      "trip_num": 1
    },
    {
      "delay": null,
      "departure_time": "07:03:00",
      "old": true,
      "stop_lat": 50.030792,
      "stop_lon": 19.924804,
      "stop_name": "Lipińskiego",
      "stop_num": "01",
      "stop_sequence": 18,
      "stopping": false,
      "time": null,
      "trip_id": "block_655_trip_1_service_3",
      "trip_num": 1
    },
    {
      "delay": null,
      "departure_time": "07:04:00",
      "old": true,
      "stop_lat": 50.031867,
      "stop_lon": 19.920212,
      "stop_name": "Grota-Roweckiego",
      "stop_num": "01",
      "stop_sequence": 19,
      "stopping": false,
      "time": null,
      "trip_id": "block_655_trip_1_service_3",
      "trip_num": 1
    },
    {
      "delay": null,
      "departure_time": "07:05:00",
      "old": true,
      "stop_lat": 50.029809,
      "stop_lon": 19.912225,
      "stop_name": "Norymberska",
      "stop_num": "01",
      "stop_sequence": 20,
      "stopping": false,
      "time": null,
      "trip_id": "block_655_trip_1_service_3",
      "trip_num": 1
    },
    {
      "delay": null,
      "departure_time": "07:07:00",
      "old": true,
      "stop_lat": 50.026932,
      "stop_lon": 19.905181,
      "stop_name": "Ruczaj",
      "stop_num": "01",
      "stop_sequence": 21,
      "stopping": false,
      "time": null,
      "trip_id": "block_655_trip_1_service_3",
      "trip_num": 1
    },
    {
      "delay": null,
      "departure_time": "07:08:00",
      "old": true,
      "stop_lat": 50.024044,
      "stop_lon": 19.901485,
      "stop_name": "Kampus UJ",
      "stop_num": "01",
      "stop_sequence": 22,
      "stopping": false,
      "time": null,
      "trip_id": "block_655_trip_1_service_3",
      "trip_num": 1
    },
    {
      "delay": null,
      "departure_time": "07:09:00",
      "old": true,
      "stop_lat": 50.020377,
      "stop_lon": 19.897505,
      "stop_name": "Kampus UP JP II",
      "stop_num": "02",
      "stop_sequence": 23,
      "stopping": false,
      "time": null,
      "trip_id": "block_655_trip_1_service_3",
      "trip_num": 1
    },
    {
      "delay": null,
      "departure_time": "07:11:00",
      "old": true,
      "stop_lat": 50.017986,
      "stop_lon": 19.889106,
      "stop_name": "Czerwone Maki P+R",
      "stop_num": "01",
      "stop_sequence": 24,
      "stopping": false,
      "time": null,
      "trip_id": "block_655_trip_1_service_3",
      "trip_num": 1
    },
    {
      "delay": null,
      "departure_time": "07:25:00",
      "old": true,
      "stop_lat": 50.017986,
      "stop_lon": 19.889106,
      "stop_name": "Czerwone Maki P+R",
      "stop_num": "01",
      "stop_sequence": 1,
      "stopping": false,
      "time": null,
      "trip_id": "block_655_trip_2_service_3",
      "trip_num": 2
    },
    {
      "delay": null,
      "departure_time": "07:26:00",
      "old": true,
      "stop_lat": 50.020825,
      "stop_lon": 19.898122,
      "stop_name": "Kampus UP JP II",
      "stop_num": "02",
      "stop_sequence": 2,
      "stopping": false,
      "time": null,
      "trip_id": "block_655_trip_2_service_3",
      "trip_num": 2
    },
    {
      "delay": null,
      "departure_time": "07:27:00",
      "old": true,
      "stop_lat": 50.024685,
      "stop_lon": 19.901995,
      "stop_name": "Kampus UJ",
      "stop_num": "02",
      "stop_sequence": 3,
      "stopping": false,
      "time": null,
      "trip_id": "block_655_trip_2_service_3",
      "trip_num": 2
    },
    {
      "delay": null,
      "departure_time": "07:28:00",
      "old": true,
      "stop_lat": 50.02729,
      "stop_lon": 19.906125,
      "stop_name": "Ruczaj",
      "stop_num": "02",
      "stop_sequence": 4,
      "stopping": false,
      "time": null,
      "trip_id": "block_655_trip_2_service_3",
      "trip_num": 2
    },
    {
      "delay": null,
      "departure_time": "07:29:00",
      "old": true,
      "stop_lat": 50.030129,
      "stop_lon": 19.913131,
      "stop_name": "Norymberska",
      "stop_num": "02",
      "stop_sequence": 5,
      "stopping": false,
      "time": null,
      "trip_id": "block_655_trip_2_service_3",
      "trip_num": 2
    },
    {
      "delay": null,
      "departure_time": "07:31:00",
      "old": true,
      "stop_lat": 50.031593,
      "stop_lon": 19.921162,
      "stop_name": "Grota-Roweckiego",
      "stop_num": "02",
      "stop_sequence": 6,
      "stopping": false,
      "time": null,
      "trip_id": "block_655_trip_2_service_3",
      "trip_num": 2
    },
    {
      "delay": null,
      "departure_time": "07:33:00",
      "old": true,
      "stop_lat": 50.030738,
      "stop_lon": 19.924874,
      "stop_name": "Lipińskiego",
      "stop_num": "02",
      "stop_sequence": 7,
      "stopping": false,
      "time": null,
      "trip_id": "block_655_trip_2_service_3",
      "trip_num": 2
    },
    {
      "delay": null,
      "departure_time": "07:34:00",
      "old": true,
      "stop_lat": 50.034593,
      "stop_lon": 19.925986,
      "stop_name": "Kobierzyńska",
      "stop_num": "02",
      "stop_sequence": 8,
      "stopping": false,
      "time": null,
      "trip_id": "block_655_trip_2_service_3",
      "trip_num": 2
    },
    {
      "delay": null,
      "departure_time": "07:36:00",
      "old": true,
      "stop_lat": 50.040825,
      "stop_lon": 19.924547,
      "stop_name": "Słomiana",
      "stop_num": "02",
      "stop_sequence": 9,
      "stopping": false,
      "time": null,
      "trip_id": "block_655_trip_2_service_3",
      "trip_num": 2
    },
    {
      "delay": null,
      "departure_time": "07:37:00",
      "old": true,
      "stop_lat": 50.045048,
      "stop_lon": 19.922048,
      "stop_name": "Kapelanka",
      "stop_num": "02",
      "stop_sequence": 10,
      "stopping": false,
      "time": null,
      "trip_id": "block_655_trip_2_service_3",
      "trip_num": 2
    },
    {
      "delay": null,
      "departure_time": "07:38:00",
      "old": true,
      "stop_lat": 50.046744,
      "stop_lon": 19.925484,
      "stop_name": "Szwedzka",
      "stop_num": "02",
      "stop_sequence": 11,
      "stopping": false,
      "time": null,
      "trip_id": "block_655_trip_2_service_3",
      "trip_num": 2
    },
    {
      "delay": null,
      "departure_time": "07:40:00",
      "old": true,
      "stop_lat": 50.048605,
      "stop_lon": 19.931155,
      "stop_name": "Rondo Grunwaldzkie",
      "stop_num": "02",
      "stop_sequence": 12,
      "stopping": false,
      "time": null,
      "trip_id": "block_655_trip_2_service_3",
      "trip_num": 2
    },
    {
      "delay": null,
      "departure_time": "07:41:00",
      "old": true,
      "stop_lat": 50.050546,
      "stop_lon": 19.938251,
      "stop_name": "Orzeszkowej",
      "stop_num": "02",
      "stop_sequence": 13,
      "stopping": false,
      "time": null,
      "trip_id": "block_655_trip_2_service_3",
      "trip_num": 2
    },
    {
      "delay": null,
      "departure_time": "07:43:00",
      "old": true,
      "stop_lat": 50.05148,
      "stop_lon": 19.941337,
      "stop_name": "Stradom",
      "stop_num": "01",
      "stop_sequence": 14,
      "stopping": false,
      "time": null,
      "trip_id": "block_655_trip_2_service_3",
      "trip_num": 2
    },
    {
      "delay": null,
      "departure_time": "07:46:00",
      "old": true,
      "stop_lat": 50.05731,
      "stop_lon": 19.94455,
      "stop_name": "Starowiślna",
      "stop_num": "01",
      "stop_sequence": 15,
      "stopping": false,
      "time": null,
      "trip_id": "block_655_trip_2_service_3",
      "trip_num": 2
    },
    {
      "delay": null,
      "departure_time": "07:47:00",
      "old": true,
      "stop_lat": 50.059205,
      "stop_lon": 19.942571,
      "stop_name": "Poczta Główna",
      "stop_num": "02",
      "stop_sequence": 16,
      "stopping": false,
      "time": null,
      "trip_id": "block_655_trip_2_service_3",
      "trip_num": 2
    },
    {
      "delay": null,
      "departure_time": "07:49:00",
      "old": true,
      "stop_lat": 50.064192,
      "stop_lon": 19.94499,
      "stop_name": "Teatr Słowackiego",
      "stop_num": "03",
      "stop_sequence": 17,
      "stopping": false,
      "time": null,
      "trip_id": "block_655_trip_2_service_3",
      "trip_num": 2
    },
    {
      "delay": null,
      "departure_time": "07:51:00",
      "old": true,
      "stop_lat": 50.065046,
      "stop_lon": 19.951094,
      "stop_name": "Lubicz",
      "stop_num": "02",
      "stop_sequence": 18,
      "stopping": false,
      "time": null,
      "trip_id": "block_655_trip_2_service_3",
      "trip_num": 2
    },
    {
      "delay": null,
      "departure_time": "07:53:00",
      "old": true,
      "stop_lat": 50.065759,
      "stop_lon": 19.959864,
      "stop_name": "Rondo Mogilskie",
      "stop_num": "02",
      "stop_sequence": 19,
      "stopping": false,
      "time": null,
      "trip_id": "block_655_trip_2_service_3",
      "trip_num": 2
    },
    {
      "delay": null,
      "departure_time": "07:54:00",
      "old": true,
      "stop_lat": 50.066523,
      "stop_lon": 19.970519,
      "stop_name": "Cystersów",
      "stop_num": "01",
      "stop_sequence": 20,
      "stopping": false,
      "time": null,
      "trip_id": "block_655_trip_2_service_3",
      "trip_num": 2
    },
    {
      "delay": null,
      "departure_time": "07:56:00",
      "old": true,
      "stop_lat": 50.067841,
      "stop_lon": 19.977991,
      "stop_name": "Białucha",
      "stop_num": "01",
      "stop_sequence": 21,
      "stopping": false,
      "time": null,
      "trip_id": "block_655_trip_2_service_3",
      "trip_num": 2
    },
    {
      "delay": null,
      "departure_time": "07:59:00",
      "old": true,
      "stop_lat": 50.07352,
      "stop_lon": 19.990472,
      "stop_name": "Muzeum Lotnictwa Polskiego",
      "stop_num": "01",
      "stop_sequence": 22,
      "stopping": false,
      "time": null,
      "trip_id": "block_655_trip_2_service_3",
      "trip_num": 2
    },
    {
      "delay": null,
      "departure_time": "08:00:00",
      "old": true,
      "stop_lat": 50.073967,
      "stop_lon": 19.99881,
      "stop_name": "AKF / PK",
      "stop_num": "01",
      "stop_sequence": 23,
      "stopping": false,
      "time": null,
      "trip_id": "block_655_trip_2_service_3",
      "trip_num": 2
    },
    {
      "delay": null,
      "departure_time": "08:01:00",
      "old": true,
      "stop_lat": 50.074273,
      "stop_lon": 20.004747,
      "stop_name": "Stella-Sawickiego",
      "stop_num": "01",
      "stop_sequence": 24,
      "stopping": false,
      "time": null,
      "trip_id": "block_655_trip_2_service_3",
      "trip_num": 2
    },
    {
      "delay": null,
      "departure_time": "08:02:00",
      "old": true,
      "stop_lat": 50.07399,
      "stop_lon": 20.011459,
      "stop_name": "Czyżyny",
      "stop_num": "01",
      "stop_sequence": 25,
      "stopping": false,
      "time": null,
      "trip_id": "block_655_trip_2_service_3",
      "trip_num": 2
    },
    {
      "delay": null,
      "departure_time": "08:05:00",
      "old": true,
      "stop_lat": 50.074193,
      "stop_lon": 20.018028,
      "stop_name": "Rondo Czyżyńskie",
      "stop_num": "03",
      "stop_sequence": 26,
      "stopping": false,
      "time": null,
      "trip_id": "block_655_trip_2_service_3",
      "trip_num": 2
    },
    {
      "delay": null,
      "departure_time": "08:06:00",
      "old": true,
      "stop_lat": 50.0757,
      "stop_lon": 20.02058,
      "stop_name": "Bieńczycka",
      "stop_num": "02",
      "stop_sequence": 27,
      "stopping": false,
      "time": null,
      "trip_id": "block_655_trip_2_service_3",
      "trip_num": 2
    },
    {
      "delay": null,
      "departure_time": "08:09:00",
      "old": true,
      "stop_lat": 50.080257,
      "stop_lon": 20.026561,
      "stop_name": "Rondo Kocmyrzowskie im. Ks. Gorzelanego",
      "stop_num": "01",
      "stop_sequence": 28,
      "stopping": false,
      "time": null,
      "trip_id": "block_655_trip_2_service_3",
      "trip_num": 2
    },
    {
      "delay": null,
      "departure_time": "08:10:00",
      "old": true,
      "stop_lat": 50.084477,
      "stop_lon": 20.020671,
      "stop_name": "DH Wanda",
      "stop_num": "01",
      "stop_sequence": 29,
      "stopping": false,
      "time": null,
      "trip_id": "block_655_trip_2_service_3",
      "trip_num": 2
    },
    {
      "delay": null,
      "departure_time": "08:12:00",
      "old": true,
      "stop_lat": 50.090025,
      "stop_lon": 20.021395,
      "stop_name": "Rondo Hipokratesa",
      "stop_num": "01",
      "stop_sequence": 30,
      "stopping": false,
      "time": null,
      "trip_id": "block_655_trip_2_service_3",
      "trip_num": 2
    },
    {
      "delay": null,
      "departure_time": "08:13:00",
      "old": true,
      "stop_lat": 50.092201,
      "stop_lon": 20.016038,
      "stop_name": "Dunikowskiego",
      "stop_num": "01",
      "stop_sequence": 31,
      "stopping": false,
      "time": null,
      "trip_id": "block_655_trip_2_service_3",
      "trip_num": 2
    },
    {
      "delay": null,
      "departure_time": "08:15:00",
      "old": true,
      "stop_lat": 50.095792,
      "stop_lon": 20.012713,
      "stop_name": "Kleeberga",
      "stop_num": "01",
      "stop_sequence": 32,
      "stopping": false,
      "time": null,
      "trip_id": "block_655_trip_2_service_3",
      "trip_num": 2
    },
    {
      "delay": null,
      "departure_time": "08:16:00",
      "old": true,
      "stop_lat": 50.097862,
      "stop_lon": 20.013018,
      "stop_name": "Piasta Kołodzieja",
      "stop_num": "01",
      "stop_sequence": 33,
      "stopping": false,
      "time": null,
      "trip_id": "block_655_trip_2_service_3",
      "trip_num": 2
    },
    {
      "delay": null,
      "departure_time": "08:18:00",
      "old": true,
      "stop_lat": 50.101977,
      "stop_lon": 20.012058,
      "stop_name": "Os. Piastów",
      "stop_num": "01",
      "stop_sequence": 34,
      "stopping": false,
      "time": null,
      "trip_id": "block_655_trip_2_service_3",
      "trip_num": 2
    },
    {
      "delay": null,
      "departure_time": "08:33:00",
      "old": true,
      "stop_lat": 50.101977,
      "stop_lon": 20.012058,
      "stop_name": "Os. Piastów",
      "stop_num": "01",
      "stop_sequence": 1,
      "stopping": false,
      "time": null,
      "trip_id": "block_655_trip_3_service_3",
      "trip_num": 3
    },
    {
      "delay": null,
      "departure_time": "08:34:00",
      "old": true,
      "stop_lat": 50.098526,
      "stop_lon": 20.013051,
      "stop_name": "Piasta Kołodzieja",
      "stop_num": "02",
      "stop_sequence": 2,
      "stopping": false,
      "time": null,
      "trip_id": "block_655_trip_3_service_3",
      "trip_num": 3
    },
    {
      "delay": null,
      "departure_time": "08:35:00",
      "old": true,
      "stop_lat": 50.095759,
      "stop_lon": 20.012638,
      "stop_name": "Kleeberga",
      "stop_num": "02",
      "stop_sequence": 3,
      "stopping": false,
      "time": null,
      "trip_id": "block_655_trip_3_service_3",
      "trip_num": 3
    },
    {
      "delay": null,
      "departure_time": "08:37:00",
      "old": true,
      "stop_lat": 50.092518,
      "stop_lon": 20.015491,
      "stop_name": "Dunikowskiego",
      "stop_num": "02",
      "stop_sequence": 4,
      "stopping": false,
      "time": null,
      "trip_id": "block_655_trip_3_service_3",
      "trip_num": 3
    },
    {
      "delay": null,
      "departure_time": "08:39:00",
      "old": true,
      "stop_lat": 50.090094,
      "stop_lon": 20.021355,
      "stop_name": "Rondo Hipokratesa",
      "stop_num": "02",
      "stop_sequence": 5,
      "stopping": false,
      "time": null,
      "trip_id": "block_655_trip_3_service_3",
      "trip_num": 3
    },
    {
      "delay": null,
      "departure_time": "08:40:00",
      "old": true,
      "stop_lat": 50.084432,
      "stop_lon": 20.020689,
      "stop_name": "DH Wanda",
      "stop_num": "02",
      "stop_sequence": 6,
      "stopping": false,
      "time": null,
      "trip_id": "block_655_trip_3_service_3",
      "trip_num": 3
    },
    {
      "delay": null,
      "departure_time": "08:43:00",
      "old": true,
      "stop_lat": 50.07905,
      "stop_lon": 20.026486,
      "stop_name": "Rondo Kocmyrzowskie im. Ks. Gorzelanego",
      "stop_num": "02",
      "stop_sequence": 7,
      "stopping": false,
      "time": null,
      "trip_id": "block_655_trip_3_service_3",
      "trip_num": 3
    },
    {
      "delay": null,
      "departure_time": "08:44:00",
      "old": true,
      "stop_lat": 50.075661,
      "stop_lon": 20.02044,
      "stop_name": "Bieńczycka",
      "stop_num": "01",
      "stop_sequence": 8,
      "stopping": false,
      "time": null,
      "trip_id": "block_655_trip_3_service_3",
      "trip_num": 3
    },
    {
      "delay": null,
      "departure_time": "08:47:00",
      "old": true,
      "stop_lat": 50.07358,
      "stop_lon": 20.01606,
      "stop_name": "Rondo Czyżyńskie",
      "stop_num": "02",
      "stop_sequence": 9,
      "stopping": false,
      "time": null,
      "trip_id": "block_655_trip_3_service_3",
      "trip_num": 3
    },
    {
      "delay": null,
      "departure_time": "08:48:00",
      "old": true,
      "stop_lat": 50.074038,
      "stop_lon": 20.011272,
      "stop_name": "Czyżyny",
      "stop_num": "02",
      "stop_sequence": 10,
      "stopping": false,
      "time": null,
      "trip_id": "block_655_trip_3_service_3",
      "trip_num": 3
    },
    {
      "delay": null,
      "departure_time": "08:49:00",
      "old": true,
      "stop_lat": 50.074302,
      "stop_lon": 20.00459,
      "stop_name": "Stella-Sawickiego",
      "stop_num": "02",
      "stop_sequence": 11,
      "stopping": false,
      "time": null,
      "trip_id": "block_655_trip_3_service_3",
      "trip_num": 3
    },
    {
      "delay": null,
      "departure_time": "08:50:00",
      "old": true,
      "stop_lat": 50.074015,
      "stop_lon": 19.998685,
      "stop_name": "AKF / PK",
      "stop_num": "02",
      "stop_sequence": 12,
      "stopping": false,
      "time": null,
      "trip_id": "block_655_trip_3_service_3",
      "trip_num": 3
    },
    {
      "delay": null,
      "departure_time": "08:51:00",
      "old": true,
      "stop_lat": 50.073539,
      "stop_lon": 19.990254,
      "stop_name": "Muzeum Lotnictwa Polskiego",
      "stop_num": "02",
      "stop_sequence": 13,
      "stopping": false,
      "time": null,
      "trip_id": "block_655_trip_3_service_3",
      "trip_num": 3
    },
    {
      "delay": null,
      "departure_time": "08:54:00",
      "old": true,
      "stop_lat": 50.067597,
      "stop_lon": 19.977192,
      "stop_name": "Białucha",
      "stop_num": "02",
      "stop_sequence": 14,
      "stopping": false,
      "time": null,
      "trip_id": "block_655_trip_3_service_3",
      "trip_num": 3
    },
    {
      "delay": null,
      "departure_time": "08:56:00",
      "old": true,
      "stop_lat": 50.06654,
      "stop_lon": 19.969149,
      "stop_name": "Cystersów",
      "stop_num": "02",
      "stop_sequence": 15,
      "stopping": false,
      "time": null,
      "trip_id": "block_655_trip_3_service_3",
      "trip_num": 3
    },
    {
      "delay": null,
      "departure_time": "08:58:00",
      "old": true,
      "stop_lat": 50.065782,
      "stop_lon": 19.959639,
      "stop_name": "Rondo Mogilskie",
      "stop_num": "01",
      "stop_sequence": 16,
      "stopping": false,
      "time": null,
      "trip_id": "block_655_trip_3_service_3",
      "trip_num": 3
    },
    {
      "delay": null,
      "departure_time": "09:00:00",
      "old": true,
      "stop_lat": 50.065186,
      "stop_lon": 19.952104,
      "stop_name": "Lubicz",
      "stop_num": "01",
      "stop_sequence": 17,
      "stopping": false,
      "time": null,
      "trip_id": "block_655_trip_3_service_3",
      "trip_num": 3
    },
    {
      "delay": null,
      "departure_time": "09:02:00",
      "old": true,
      "stop_lat": 50.064609,
      "stop_lon": 19.945628,
      "stop_name": "Teatr Słowackiego",
      "stop_num": "01",
      "stop_sequence": 18,
      "stopping": false,
      "time": null,
      "trip_id": "block_655_trip_3_service_3",
      "trip_num": 3
    },
    {
      "delay": null,
      "departure_time": "09:04:00",
      "old": true,
      "stop_lat": 50.059797,
      "stop_lon": 19.942404,
      "stop_name": "Poczta Główna",
      "stop_num": "01",
      "stop_sequence": 19,
      "stopping": false,
      "time": null,
      "trip_id": "block_655_trip_3_service_3",
      "trip_num": 3
    },
    {
      "delay": null,
      "departure_time": "09:06:00",
      "old": true,
      "stop_lat": 50.05689,
      "stop_lon": 19.945029,
      "stop_name": "Starowiślna",
      "stop_num": "02",
      "stop_sequence": 20,
      "stopping": false,
      "time": null,
      "trip_id": "block_655_trip_3_service_3",
      "trip_num": 3
    },
    {
      "delay": null,
      "departure_time": "09:08:00",
      "old": true,
      "stop_lat": 50.052258,
      "stop_lon": 19.942061,
      "stop_name": "Stradom",
      "stop_num": "03",
      "stop_sequence": 21,
      "stopping": false,
      "time": null,
      "trip_id": "block_655_trip_3_service_3",
      "trip_num": 3
    },
    {
      "delay": null,
      "departure_time": "09:09:00",
      "old": true,
      "stop_lat": 50.050631,
      "stop_lon": 19.938671,
      "stop_name": "Orzeszkowej",
      "stop_num": "01",
      "stop_sequence": 22,
      "stopping": false,
      "time": null,
      "trip_id": "block_655_trip_3_service_3",
      "trip_num": 3
    },
    {
      "delay": null,
      "departure_time": "09:12:00",
      "old": true,
      "stop_lat": 50.048567,
      "stop_lon": 19.930917,
      "stop_name": "Rondo Grunwaldzkie",
      "stop_num": "01",
      "stop_sequence": 23,
      "stopping": false,
      "time": null,
      "trip_id": "block_655_trip_3_service_3",
      "trip_num": 3
    },
    {
      "delay": null,
      "departure_time": "09:13:00",
      "old": true,
      "stop_lat": 50.046721,
      "stop_lon": 19.925299,
      "stop_name": "Szwedzka",
      "stop_num": "01",
      "stop_sequence": 24,
      "stopping": false,
      "time": null,
      "trip_id": "block_655_trip_3_service_3",
      "trip_num": 3
    },
    {
      "delay": null,
      "departure_time": "09:15:00",
      "old": true,
      "stop_lat": 50.044913,
      "stop_lon": 19.922059,
      "stop_name": "Kapelanka",
      "stop_num": "01",
      "stop_sequence": 25,
      "stopping": false,
      "time": null,
      "trip_id": "block_655_trip_3_service_3",
      "trip_num": 3
    },
    {
      "delay": null,
      "departure_time": "09:16:00",
      "old": true,
      "stop_lat": 50.041404,
      "stop_lon": 19.9241,
      "stop_name": "Słomiana",
      "stop_num": "01",
      "stop_sequence": 26,
      "stopping": false,
      "time": null,
      "trip_id": "block_655_trip_3_service_3",
      "trip_num": 3
    },
    {
      "delay": null,
      "departure_time": "09:18:00",
      "old": true,
      "stop_lat": 50.03444,
      "stop_lon": 19.925931,
      "stop_name": "Kobierzyńska",
      "stop_num": "01",
      "stop_sequence": 27,
      "stopping": false,
      "time": null,
      "trip_id": "block_655_trip_3_service_3",
      "trip_num": 3
    },
    {
      "delay": null,
      "departure_time": "09:20:00",
      "old": true,
      "stop_lat": 50.030792,
      "stop_lon": 19.924804,
      "stop_name": "Lipińskiego",
      "stop_num": "01",
      "stop_sequence": 28,
      "stopping": false,
      "time": null,
      "trip_id": "block_655_trip_3_service_3",
      "trip_num": 3
    },
    {
      "delay": null,
      "departure_time": "09:21:00",
      "old": true,
      "stop_lat": 50.031867,
      "stop_lon": 19.920212,
      "stop_name": "Grota-Roweckiego",
      "stop_num": "01",
      "stop_sequence": 29,
      "stopping": false,
      "time": null,
      "trip_id": "block_655_trip_3_service_3",
      "trip_num": 3
    },
    {
      "delay": null,
      "departure_time": "09:22:00",
      "old": true,
      "stop_lat": 50.029809,
      "stop_lon": 19.912225,
      "stop_name": "Norymberska",
      "stop_num": "01",
      "stop_sequence": 30,
      "stopping": false,
      "time": null,
      "trip_id": "block_655_trip_3_service_3",
      "trip_num": 3
    },
    {
      "delay": null,
      "departure_time": "09:24:00",
      "old": true,
      "stop_lat": 50.026932,
      "stop_lon": 19.905181,
      "stop_name": "Ruczaj",
      "stop_num": "01",
      "stop_sequence": 31,
      "stopping": false,
      "time": null,
      "trip_id": "block_655_trip_3_service_3",
      "trip_num": 3
    },
    {
      "delay": null,
      "departure_time": "09:25:00",
      "old": true,
      "stop_lat": 50.024044,
      "stop_lon": 19.901485,
      "stop_name": "Kampus UJ",
      "stop_num": "01",
      "stop_sequence": 32,
      "stopping": false,
      "time": null,
      "trip_id": "block_655_trip_3_service_3",
      "trip_num": 3
    },
    {
      "delay": null,
      "departure_time": "09:26:00",
      "old": true,
      "stop_lat": 50.020377,
      "stop_lon": 19.897505,
      "stop_name": "Kampus UP JP II",
      "stop_num": "02",
      "stop_sequence": 33,
      "stopping": false,
      "time": null,
      "trip_id": "block_655_trip_3_service_3",
      "trip_num": 3
    },
    {
      "delay": null,
      "departure_time": "09:28:00",
      "old": true,
      "stop_lat": 50.017986,
      "stop_lon": 19.889106,
      "stop_name": "Czerwone Maki P+R",
      "stop_num": "01",
      "stop_sequence": 34,
      "stopping": false,
      "time": null,
      "trip_id": "block_655_trip_3_service_3",
      "trip_num": 3
    },
    {
      "delay": null,
      "departure_time": "09:45:00",
      "old": true,
      "stop_lat": 50.017986,
      "stop_lon": 19.889106,
      "stop_name": "Czerwone Maki P+R",
      "stop_num": "01",
      "stop_sequence": 1,
      "stopping": false,
      "time": null,
      "trip_id": "block_655_trip_4_service_3",
      "trip_num": 4
    },
    {
      "delay": null,
      "departure_time": "09:46:00",
      "old": true,
      "stop_lat": 50.020825,
      "stop_lon": 19.898122,
      "stop_name": "Kampus UP JP II",
      "stop_num": "02",
      "stop_sequence": 2,
      "stopping": false,
      "time": null,
      "trip_id": "block_655_trip_4_service_3",
      "trip_num": 4
    },
    {
      "delay": null,
      "departure_time": "09:47:00",
      "old": true,
      "stop_lat": 50.024685,
      "stop_lon": 19.901995,
      "stop_name": "Kampus UJ",
      "stop_num": "02",
      "stop_sequence": 3,
      "stopping": false,
      "time": null,
      "trip_id": "block_655_trip_4_service_3",
      "trip_num": 4
    },
    {
      "delay": null,
      "departure_time": "09:48:00",
      "old": true,
      "stop_lat": 50.02729,
      "stop_lon": 19.906125,
      "stop_name": "Ruczaj",
      "stop_num": "02",
      "stop_sequence": 4,
      "stopping": false,
      "time": null,
      "trip_id": "block_655_trip_4_service_3",
      "trip_num": 4
    },
    {
      "delay": null,
      "departure_time": "09:49:00",
      "old": true,
      "stop_lat": 50.030129,
      "stop_lon": 19.913131,
      "stop_name": "Norymberska",
      "stop_num": "02",
      "stop_sequence": 5,
      "stopping": false,
      "time": null,
      "trip_id": "block_655_trip_4_service_3",
      "trip_num": 4
    },
    {
      "delay": null,
      "departure_time": "09:51:00",
      "old": true,
      "stop_lat": 50.031593,
      "stop_lon": 19.921162,
      "stop_name": "Grota-Roweckiego",
      "stop_num": "02",
      "stop_sequence": 6,
      "stopping": false,
      "time": null,
      "trip_id": "block_655_trip_4_service_3",
      "trip_num": 4
    },
    {
      "delay": null,
      "departure_time": "09:53:00",
      "old": true,
      "stop_lat": 50.030738,
      "stop_lon": 19.924874,
      "stop_name": "Lipińskiego",
      "stop_num": "02",
      "stop_sequence": 7,
      "stopping": false,
      "time": null,
      "trip_id": "block_655_trip_4_service_3",
      "trip_num": 4
    },
    {
      "delay": null,
      "departure_time": "09:54:00",
      "old": true,
      "stop_lat": 50.034593,
      "stop_lon": 19.925986,
      "stop_name": "Kobierzyńska",
      "stop_num": "02",
      "stop_sequence": 8,
      "stopping": false,
      "time": null,
      "trip_id": "block_655_trip_4_service_3",
      "trip_num": 4
    },
    {
      "delay": null,
      "departure_time": "09:56:00",
      "old": true,
      "stop_lat": 50.040825,
      "stop_lon": 19.924547,
      "stop_name": "Słomiana",
      "stop_num": "02",
      "stop_sequence": 9,
      "stopping": false,
      "time": null,
      "trip_id": "block_655_trip_4_service_3",
      "trip_num": 4
    },
    {
      "delay": null,
      "departure_time": "09:57:00",
      "old": true,
      "stop_lat": 50.045048,
      "stop_lon": 19.922048,
      "stop_name": "Kapelanka",
      "stop_num": "02",
      "stop_sequence": 10,
      "stopping": false,
      "time": null,
      "trip_id": "block_655_trip_4_service_3",
      "trip_num": 4
    },
    {
      "delay": null,
      "departure_time": "09:58:00",
      "old": true,
      "stop_lat": 50.046744,
      "stop_lon": 19.925484,
      "stop_name": "Szwedzka",
      "stop_num": "02",
      "stop_sequence": 11,
      "stopping": false,
      "time": null,
      "trip_id": "block_655_trip_4_service_3",
      "trip_num": 4
    },
    {
      "delay": null,
      "departure_time": "10:00:00",
      "old": true,
      "stop_lat": 50.048605,
      "stop_lon": 19.931155,
      "stop_name": "Rondo Grunwaldzkie",
      "stop_num": "02",
      "stop_sequence": 12,
      "stopping": false,
      "time": null,
      "trip_id": "block_655_trip_4_service_3",
      "trip_num": 4
    },
    {
      "delay": null,
      "departure_time": "10:01:00",
      "old": true,
      "stop_lat": 50.050546,
      "stop_lon": 19.938251,
      "stop_name": "Orzeszkowej",
      "stop_num": "02",
      "stop_sequence": 13,
      "stopping": false,
      "time": null,
      "trip_id": "block_655_trip_4_service_3",
      "trip_num": 4
    },
    {
      "delay": null,
      "departure_time": "10:03:00",
      "old": true,
      "stop_lat": 50.05148,
      "stop_lon": 19.941337,
      "stop_name": "Stradom",
      "stop_num": "01",
      "stop_sequence": 14,
      "stopping": false,
      "time": null,
      "trip_id": "block_655_trip_4_service_3",
      "trip_num": 4
    },
    {
      "delay": null,
      "departure_time": "10:06:00",
      "old": true,
      "stop_lat": 50.05731,
      "stop_lon": 19.94455,
      "stop_name": "Starowiślna",
      "stop_num": "01",
      "stop_sequence": 15,
      "stopping": false,
      "time": null,
      "trip_id": "block_655_trip_4_service_3",
      "trip_num": 4
    },
    {
      "delay": null,
      "departure_time": "10:07:00",
      "old": true,
      "stop_lat": 50.059205,
      "stop_lon": 19.942571,
      "stop_name": "Poczta Główna",
      "stop_num": "02",
      "stop_sequence": 16,
      "stopping": false,
      "time": null,
      "trip_id": "block_655_trip_4_service_3",
      "trip_num": 4
    },
    {
      "delay": null,
      "departure_time": "10:09:00",
      "old": true,
      "stop_lat": 50.064192,
      "stop_lon": 19.94499,
      "stop_name": "Teatr Słowackiego",
      "stop_num": "03",
      "stop_sequence": 17,
      "stopping": false,
      "time": null,
      "trip_id": "block_655_trip_4_service_3",
      "trip_num": 4
    },
    {
      "delay": null,
      "departure_time": "10:11:00",
      "old": true,
      "stop_lat": 50.065046,
      "stop_lon": 19.951094,
      "stop_name": "Lubicz",
      "stop_num": "02",
      "stop_sequence": 18,
      "stopping": false,
      "time": null,
      "trip_id": "block_655_trip_4_service_3",
      "trip_num": 4
    },
    {
      "delay": null,
      "departure_time": "10:13:00",
      "old": true,
      "stop_lat": 50.065759,
      "stop_lon": 19.959864,
      "stop_name": "Rondo Mogilskie",
      "stop_num": "02",
      "stop_sequence": 19,
      "stopping": false,
      "time": null,
      "trip_id": "block_655_trip_4_service_3",
      "trip_num": 4
    },
    {
      "delay": null,
      "departure_time": "10:14:00",
      "old": true,
      "stop_lat": 50.066523,
      "stop_lon": 19.970519,
      "stop_name": "Cystersów",
      "stop_num": "01",
      "stop_sequence": 20,
      "stopping": false,
      "time": null,
      "trip_id": "block_655_trip_4_service_3",
      "trip_num": 4
    },
    {
      "delay": null,
      "departure_time": "10:16:00",
      "old": true,
      "stop_lat": 50.067841,
      "stop_lon": 19.977991,
      "stop_name": "Białucha",
      "stop_num": "01",
      "stop_sequence": 21,
      "stopping": false,
      "time": null,
      "trip_id": "block_655_trip_4_service_3",
      "trip_num": 4
    },
    {
      "delay": null,
      "departure_time": "10:19:00",
      "old": true,
      "stop_lat": 50.07352,
      "stop_lon": 19.990472,
      "stop_name": "Muzeum Lotnictwa Polskiego",
      "stop_num": "01",
      "stop_sequence": 22,
      "stopping": false,
      "time": null,
      "trip_id": "block_655_trip_4_service_3",
      "trip_num": 4
    },
    {
      "delay": null,
      "departure_time": "10:20:00",
      "old": true,
      "stop_lat": 50.073967,
      "stop_lon": 19.99881,
      "stop_name": "AKF / PK",
      "stop_num": "01",
      "stop_sequence": 23,
      "stopping": false,
      "time": null,
      "trip_id": "block_655_trip_4_service_3",
      "trip_num": 4
    },
    {
      "delay": null,
      "departure_time": "10:21:00",
      "old": true,
      "stop_lat": 50.074273,
      "stop_lon": 20.004747,
      "stop_name": "Stella-Sawickiego",
      "stop_num": "01",
      "stop_sequence": 24,
      "stopping": false,
      "time": null,
      "trip_id": "block_655_trip_4_service_3",
      "trip_num": 4
    },
    {
      "delay": null,
      "departure_time": "10:22:00",
      "old": true,
      "stop_lat": 50.07399,
      "stop_lon": 20.011459,
      "stop_name": "Czyżyny",
      "stop_num": "01",
      "stop_sequence": 25,
      "stopping": false,
      "time": null,
      "trip_id": "block_655_trip_4_service_3",
      "trip_num": 4
    },
    {
      "delay": null,
      "departure_time": "10:25:00",
      "old": true,
      "stop_lat": 50.074193,
      "stop_lon": 20.018028,
      "stop_name": "Rondo Czyżyńskie",
      "stop_num": "03",
      "stop_sequence": 26,
      "stopping": false,
      "time": null,
      "trip_id": "block_655_trip_4_service_3",
      "trip_num": 4
    },
    {
      "delay": null,
      "departure_time": "10:26:00",
      "old": true,
      "stop_lat": 50.0757,
      "stop_lon": 20.02058,
      "stop_name": "Bieńczycka",
      "stop_num": "02",
      "stop_sequence": 27,
      "stopping": false,
      "time": null,
      "trip_id": "block_655_trip_4_service_3",
      "trip_num": 4
    },
    {
      "delay": null,
      "departure_time": "10:29:00",
      "old": true,
      "stop_lat": 50.080257,
      "stop_lon": 20.026561,
      "stop_name": "Rondo Kocmyrzowskie im. Ks. Gorzelanego",
      "stop_num": "01",
      "stop_sequence": 28,
      "stopping": false,
      "time": null,
      "trip_id": "block_655_trip_4_service_3",
      "trip_num": 4
    },
    {
      "delay": null,
      "departure_time": "10:30:00",
      "old": true,
      "stop_lat": 50.084477,
      "stop_lon": 20.020671,
      "stop_name": "DH Wanda",
      "stop_num": "01",
      "stop_sequence": 29,
      "stopping": false,
      "time": null,
      "trip_id": "block_655_trip_4_service_3",
      "trip_num": 4
    },
    {
      "delay": null,
      "departure_time": "10:32:00",
      "old": true,
      "stop_lat": 50.090025,
      "stop_lon": 20.021395,
      "stop_name": "Rondo Hipokratesa",
      "stop_num": "01",
      "stop_sequence": 30,
      "stopping": false,
      "time": null,
      "trip_id": "block_655_trip_4_service_3",
      "trip_num": 4
    },
    {
      "delay": null,
      "departure_time": "10:33:00",
      "old": true,
      "stop_lat": 50.092201,
      "stop_lon": 20.016038,
      "stop_name": "Dunikowskiego",
      "stop_num": "01",
      "stop_sequence": 31,
      "stopping": false,
      "time": null,
      "trip_id": "block_655_trip_4_service_3",
      "trip_num": 4
    },
    {
      "delay": null,
      "departure_time": "10:35:00",
      "old": true,
      "stop_lat": 50.095792,
      "stop_lon": 20.012713,
      "stop_name": "Kleeberga",
      "stop_num": "01",
      "stop_sequence": 32,
      "stopping": false,
      "time": null,
      "trip_id": "block_655_trip_4_service_3",
      "trip_num": 4
    },
    {
      "delay": null,
      "departure_time": "10:36:00",
      "old": true,
      "stop_lat": 50.097862,
      "stop_lon": 20.013018,
      "stop_name": "Piasta Kołodzieja",
      "stop_num": "01",
      "stop_sequence": 33,
      "stopping": false,
      "time": null,
      "trip_id": "block_655_trip_4_service_3",
      "trip_num": 4
    },
    {
      "delay": null,
      "departure_time": "10:38:00",
      "old": true,
      "stop_lat": 50.101977,
      "stop_lon": 20.012058,
      "stop_name": "Os. Piastów",
      "stop_num": "01",
      "stop_sequence": 34,
      "stopping": false,
      "time": null,
      "trip_id": "block_655_trip_4_service_3",
      "trip_num": 4
    },
    {
      "delay": null,
      "departure_time": "10:53:00",
      "old": true,
      "stop_lat": 50.101977,
      "stop_lon": 20.012058,
      "stop_name": "Os. Piastów",
      "stop_num": "01",
      "stop_sequence": 1,
      "stopping": false,
      "time": null,
      "trip_id": "block_655_trip_5_service_3",
      "trip_num": 5
    },
    {
      "delay": null,
      "departure_time": "10:54:00",
      "old": true,
      "stop_lat": 50.098526,
      "stop_lon": 20.013051,
      "stop_name": "Piasta Kołodzieja",
      "stop_num": "02",
      "stop_sequence": 2,
      "stopping": false,
      "time": null,
      "trip_id": "block_655_trip_5_service_3",
      "trip_num": 5
    },
    {
      "delay": null,
      "departure_time": "10:55:00",
      "old": true,
      "stop_lat": 50.095759,
      "stop_lon": 20.012638,
      "stop_name": "Kleeberga",
      "stop_num": "02",
      "stop_sequence": 3,
      "stopping": false,
      "time": null,
      "trip_id": "block_655_trip_5_service_3",
      "trip_num": 5
    },
    {
      "delay": null,
      "departure_time": "10:57:00",
      "old": true,
      "stop_lat": 50.092518,
      "stop_lon": 20.015491,
      "stop_name": "Dunikowskiego",
      "stop_num": "02",
      "stop_sequence": 4,
      "stopping": false,
      "time": null,
      "trip_id": "block_655_trip_5_service_3",
      "trip_num": 5
    },
    {
      "delay": null,
      "departure_time": "10:59:00",
      "old": true,
      "stop_lat": 50.090094,
      "stop_lon": 20.021355,
      "stop_name": "Rondo Hipokratesa",
      "stop_num": "02",
      "stop_sequence": 5,
      "stopping": false,
      "time": null,
      "trip_id": "block_655_trip_5_service_3",
      "trip_num": 5
    },
    {
      "delay": null,
      "departure_time": "11:00:00",
      "old": true,
      "stop_lat": 50.084432,
      "stop_lon": 20.020689,
      "stop_name": "DH Wanda",
      "stop_num": "02",
      "stop_sequence": 6,
      "stopping": false,
      "time": null,
      "trip_id": "block_655_trip_5_service_3",
      "trip_num": 5
    },
    {
      "delay": null,
      "departure_time": "11:03:00",
      "old": true,
      "stop_lat": 50.07905,
      "stop_lon": 20.026486,
      "stop_name": "Rondo Kocmyrzowskie im. Ks. Gorzelanego",
      "stop_num": "02",
      "stop_sequence": 7,
      "stopping": false,
      "time": null,
      "trip_id": "block_655_trip_5_service_3",
      "trip_num": 5
    },
    {
      "delay": null,
      "departure_time": "11:04:00",
      "old": true,
      "stop_lat": 50.075661,
      "stop_lon": 20.02044,
      "stop_name": "Bieńczycka",
      "stop_num": "01",
      "stop_sequence": 8,
      "stopping": false,
      "time": null,
      "trip_id": "block_655_trip_5_service_3",
      "trip_num": 5
    },
    {
      "delay": null,
      "departure_time": "11:07:00",
      "old": true,
      "stop_lat": 50.07358,
      "stop_lon": 20.01606,
      "stop_name": "Rondo Czyżyńskie",
      "stop_num": "02",
      "stop_sequence": 9,
      "stopping": false,
      "time": null,
      "trip_id": "block_655_trip_5_service_3",
      "trip_num": 5
    },
    {
      "delay": null,
      "departure_time": "11:08:00",
      "old": true,
      "stop_lat": 50.074038,
      "stop_lon": 20.011272,
      "stop_name": "Czyżyny",
      "stop_num": "02",
      "stop_sequence": 10,
      "stopping": false,
      "time": null,
      "trip_id": "block_655_trip_5_service_3",
      "trip_num": 5
    },
    {
      "delay": null,
      "departure_time": "11:09:00",
      "old": true,
      "stop_lat": 50.074302,
      "stop_lon": 20.00459,
      "stop_name": "Stella-Sawickiego",
      "stop_num": "02",
      "stop_sequence": 11,
      "stopping": false,
      "time": null,
      "trip_id": "block_655_trip_5_service_3",
      "trip_num": 5
    },
    {
      "delay": null,
      "departure_time": "11:10:00",
      "old": true,
      "stop_lat": 50.074015,
      "stop_lon": 19.998685,
      "stop_name": "AKF / PK",
      "stop_num": "02",
      "stop_sequence": 12,
      "stopping": false,
      "time": null,
      "trip_id": "block_655_trip_5_service_3",
      "trip_num": 5
    },
    {
      "delay": null,
      "departure_time": "11:11:00",
      "old": true,
      "stop_lat": 50.073539,
      "stop_lon": 19.990254,
      "stop_name": "Muzeum Lotnictwa Polskiego",
      "stop_num": "02",
      "stop_sequence": 13,
      "stopping": false,
      "time": null,
      "trip_id": "block_655_trip_5_service_3",
      "trip_num": 5
    },
    {
      "delay": null,
      "departure_time": "11:14:00",
      "old": true,
      "stop_lat": 50.067597,
      "stop_lon": 19.977192,
      "stop_name": "Białucha",
      "stop_num": "02",
      "stop_sequence": 14,
      "stopping": false,
      "time": null,
      "trip_id": "block_655_trip_5_service_3",
      "trip_num": 5
    },
    {
      "delay": null,
      "departure_time": "11:16:00",
      "old": true,
      "stop_lat": 50.06654,
      "stop_lon": 19.969149,
      "stop_name": "Cystersów",
      "stop_num": "02",
      "stop_sequence": 15,
      "stopping": false,
      "time": null,
      "trip_id": "block_655_trip_5_service_3",
      "trip_num": 5
    },
    {
      "delay": null,
      "departure_time": "11:18:00",
      "old": true,
      "stop_lat": 50.065782,
      "stop_lon": 19.959639,
      "stop_name": "Rondo Mogilskie",
      "stop_num": "01",
      "stop_sequence": 16,
      "stopping": false,
      "time": null,
      "trip_id": "block_655_trip_5_service_3",
      "trip_num": 5
    },
    {
      "delay": null,
      "departure_time": "11:20:00",
      "old": true,
      "stop_lat": 50.065186,
      "stop_lon": 19.952104,
      "stop_name": "Lubicz",
      "stop_num": "01",
      "stop_sequence": 17,
      "stopping": false,
      "time": null,
      "trip_id": "block_655_trip_5_service_3",
      "trip_num": 5
    },
    {
      "delay": null,
      "departure_time": "11:22:00",
      "old": true,
      "stop_lat": 50.064609,
      "stop_lon": 19.945628,
      "stop_name": "Teatr Słowackiego",
      "stop_num": "01",
      "stop_sequence": 18,
      "stopping": false,
      "time": null,
      "trip_id": "block_655_trip_5_service_3",
      "trip_num": 5
    },
    {
      "delay": null,
      "departure_time": "11:24:00",
      "old": true,
      "stop_lat": 50.059797,
      "stop_lon": 19.942404,
      "stop_name": "Poczta Główna",
      "stop_num": "01",
      "stop_sequence": 19,
      "stopping": false,
      "time": null,
      "trip_id": "block_655_trip_5_service_3",
      "trip_num": 5
    },
    {
      "delay": null,
      "departure_time": "11:26:00",
      "old": true,
      "stop_lat": 50.05689,
      "stop_lon": 19.945029,
      "stop_name": "Starowiślna",
      "stop_num": "02",
      "stop_sequence": 20,
      "stopping": false,
      "time": null,
      "trip_id": "block_655_trip_5_service_3",
      "trip_num": 5
    },
    {
      "delay": null,
      "departure_time": "11:28:00",
      "old": true,
      "stop_lat": 50.052258,
      "stop_lon": 19.942061,
      "stop_name": "Stradom",
      "stop_num": "03",
      "stop_sequence": 21,
      "stopping": false,
      "time": null,
      "trip_id": "block_655_trip_5_service_3",
      "trip_num": 5
    },
    {
      "delay": null,
      "departure_time": "11:29:00",
      "old": true,
      "stop_lat": 50.050631,
      "stop_lon": 19.938671,
      "stop_name": "Orzeszkowej",
      "stop_num": "01",
      "stop_sequence": 22,
      "stopping": false,
      "time": null,
      "trip_id": "block_655_trip_5_service_3",
      "trip_num": 5
    },
    {
      "delay": null,
      "departure_time": "11:32:00",
      "old": true,
      "stop_lat": 50.048567,
      "stop_lon": 19.930917,
      "stop_name": "Rondo Grunwaldzkie",
      "stop_num": "01",
      "stop_sequence": 23,
      "stopping": false,
      "time": null,
      "trip_id": "block_655_trip_5_service_3",
      "trip_num": 5
    },
    {
      "delay": null,
      "departure_time": "11:33:00",
      "old": true,
      "stop_lat": 50.046721,
      "stop_lon": 19.925299,
      "stop_name": "Szwedzka",
      "stop_num": "01",
      "stop_sequence": 24,
      "stopping": false,
      "time": null,
      "trip_id": "block_655_trip_5_service_3",
      "trip_num": 5
    },
    {
      "delay": null,
      "departure_time": "11:35:00",
      "old": true,
      "stop_lat": 50.044913,
      "stop_lon": 19.922059,
      "stop_name": "Kapelanka",
      "stop_num": "01",
      "stop_sequence": 25,
      "stopping": false,
      "time": null,
      "trip_id": "block_655_trip_5_service_3",
      "trip_num": 5
    },
    {
      "delay": null,
      "departure_time": "11:36:00",
      "old": true,
      "stop_lat": 50.041404,
      "stop_lon": 19.9241,
      "stop_name": "Słomiana",
      "stop_num": "01",
      "stop_sequence": 26,
      "stopping": false,
      "time": null,
      "trip_id": "block_655_trip_5_service_3",
      "trip_num": 5
    },
    {
      "delay": null,
      "departure_time": "11:38:00",
      "old": true,
      "stop_lat": 50.03444,
      "stop_lon": 19.925931,
      "stop_name": "Kobierzyńska",
      "stop_num": "01",
      "stop_sequence": 27,
      "stopping": false,
      "time": null,
      "trip_id": "block_655_trip_5_service_3",
      "trip_num": 5
    },
    {
      "delay": null,
      "departure_time": "11:40:00",
      "old": true,
      "stop_lat": 50.030792,
      "stop_lon": 19.924804,
      "stop_name": "Lipińskiego",
      "stop_num": "01",
      "stop_sequence": 28,
      "stopping": false,
      "time": null,
      "trip_id": "block_655_trip_5_service_3",
      "trip_num": 5
    },
    {
      "delay": null,
      "departure_time": "11:41:00",
      "old": true,
      "stop_lat": 50.031867,
      "stop_lon": 19.920212,
      "stop_name": "Grota-Roweckiego",
      "stop_num": "01",
      "stop_sequence": 29,
      "stopping": false,
      "time": null,
      "trip_id": "block_655_trip_5_service_3",
      "trip_num": 5
    },
    {
      "delay": null,
      "departure_time": "11:42:00",
      "old": true,
      "stop_lat": 50.029809,
      "stop_lon": 19.912225,
      "stop_name": "Norymberska",
      "stop_num": "01",
      "stop_sequence": 30,
      "stopping": false,
      "time": null,
      "trip_id": "block_655_trip_5_service_3",
      "trip_num": 5
    },
    {
      "delay": null,
      "departure_time": "11:44:00",
      "old": true,
      "stop_lat": 50.026932,
      "stop_lon": 19.905181,
      "stop_name": "Ruczaj",
      "stop_num": "01",
      "stop_sequence": 31,
      "stopping": false,
      "time": null,
      "trip_id": "block_655_trip_5_service_3",
      "trip_num": 5
    },
    {
      "delay": null,
      "departure_time": "11:45:00",
      "old": true,
      "stop_lat": 50.024044,
      "stop_lon": 19.901485,
      "stop_name": "Kampus UJ",
      "stop_num": "01",
      "stop_sequence": 32,
      "stopping": false,
      "time": null,
      "trip_id": "block_655_trip_5_service_3",
      "trip_num": 5
    },
    {
      "delay": null,
      "departure_time": "11:46:00",
      "old": true,
      "stop_lat": 50.020377,
      "stop_lon": 19.897505,
      "stop_name": "Kampus UP JP II",
      "stop_num": "02",
      "stop_sequence": 33,
      "stopping": false,
      "time": null,
      "trip_id": "block_655_trip_5_service_3",
      "trip_num": 5
    },
    {
      "delay": null,
      "departure_time": "11:48:00",
      "old": true,
      "stop_lat": 50.017986,
      "stop_lon": 19.889106,
      "stop_name": "Czerwone Maki P+R",
      "stop_num": "01",
      "stop_sequence": 34,
      "stopping": false,
      "time": null,
      "trip_id": "block_655_trip_5_service_3",
      "trip_num": 5
    },
    {
      "delay": null,
      "departure_time": "12:05:00",
      "old": true,
      "stop_lat": 50.017986,
      "stop_lon": 19.889106,
      "stop_name": "Czerwone Maki P+R",
      "stop_num": "01",
      "stop_sequence": 1,
      "stopping": false,
      "time": null,
      "trip_id": "block_655_trip_6_service_3",
      "trip_num": 6
    },
    {
      "delay": null,
      "departure_time": "12:06:00",
      "old": true,
      "stop_lat": 50.020825,
      "stop_lon": 19.898122,
      "stop_name": "Kampus UP JP II",
      "stop_num": "02",
      "stop_sequence": 2,
      "stopping": false,
      "time": null,
      "trip_id": "block_655_trip_6_service_3",
      "trip_num": 6
    },
    {
      "delay": null,
      "departure_time": "12:07:00",
      "old": true,
      "stop_lat": 50.024685,
      "stop_lon": 19.901995,
      "stop_name": "Kampus UJ",
      "stop_num": "02",
      "stop_sequence": 3,
      "stopping": false,
      "time": null,
      "trip_id": "block_655_trip_6_service_3",
      "trip_num": 6
    },
    {
      "delay": null,
      "departure_time": "12:08:00",
      "old": true,
      "stop_lat": 50.02729,
      "stop_lon": 19.906125,
      "stop_name": "Ruczaj",
      "stop_num": "02",
      "stop_sequence": 4,
      "stopping": false,
      "time": null,
      "trip_id": "block_655_trip_6_service_3",
      "trip_num": 6
    },
    {
      "delay": null,
      "departure_time": "12:09:00",
      "old": true,
      "stop_lat": 50.030129,
      "stop_lon": 19.913131,
      "stop_name": "Norymberska",
      "stop_num": "02",
      "stop_sequence": 5,
      "stopping": false,
      "time": null,
      "trip_id": "block_655_trip_6_service_3",
      "trip_num": 6
    },
    {
      "delay": null,
      "departure_time": "12:11:00",
      "old": true,
      "stop_lat": 50.031593,
      "stop_lon": 19.921162,
      "stop_name": "Grota-Roweckiego",
      "stop_num": "02",
      "stop_sequence": 6,
      "stopping": false,
      "time": null,
      "trip_id": "block_655_trip_6_service_3",
      "trip_num": 6
    },
    {
      "delay": null,
      "departure_time": "12:13:00",
      "old": true,
      "stop_lat": 50.030738,
      "stop_lon": 19.924874,
      "stop_name": "Lipińskiego",
      "stop_num": "02",
      "stop_sequence": 7,
      "stopping": false,
      "time": null,
      "trip_id": "block_655_trip_6_service_3",
      "trip_num": 6
    },
    {
      "delay": null,
      "departure_time": "12:14:00",
      "old": true,
      "stop_lat": 50.034593,
      "stop_lon": 19.925986,
      "stop_name": "Kobierzyńska",
      "stop_num": "02",
      "stop_sequence": 8,
      "stopping": false,
      "time": null,
      "trip_id": "block_655_trip_6_service_3",
      "trip_num": 6
    },
    {
      "delay": null,
      "departure_time": "12:16:00",
      "old": true,
      "stop_lat": 50.040825,
      "stop_lon": 19.924547,
      "stop_name": "Słomiana",
      "stop_num": "02",
      "stop_sequence": 9,
      "stopping": false,
      "time": null,
      "trip_id": "block_655_trip_6_service_3",
      "trip_num": 6
    },
    {
      "delay": null,
      "departure_time": "12:17:00",
      "old": true,
      "stop_lat": 50.045048,
      "stop_lon": 19.922048,
      "stop_name": "Kapelanka",
      "stop_num": "02",
      "stop_sequence": 10,
      "stopping": false,
      "time": null,
      "trip_id": "block_655_trip_6_service_3",
      "trip_num": 6
    },
    {
      "delay": null,
      "departure_time": "12:18:00",
      "old": true,
      "stop_lat": 50.046744,
      "stop_lon": 19.925484,
      "stop_name": "Szwedzka",
      "stop_num": "02",
      "stop_sequence": 11,
      "stopping": false,
      "time": null,
      "trip_id": "block_655_trip_6_service_3",
      "trip_num": 6
    },
    {
      "delay": null,
      "departure_time": "12:20:00",
      "old": true,
      "stop_lat": 50.048605,
      "stop_lon": 19.931155,
      "stop_name": "Rondo Grunwaldzkie",
      "stop_num": "02",
      "stop_sequence": 12,
      "stopping": false,
      "time": null,
      "trip_id": "block_655_trip_6_service_3",
      "trip_num": 6
    },
    {
      "delay": null,
      "departure_time": "12:21:00",
      "old": true,
      "stop_lat": 50.050546,
      "stop_lon": 19.938251,
      "stop_name": "Orzeszkowej",
      "stop_num": "02",
      "stop_sequence": 13,
      "stopping": false,
      "time": null,
      "trip_id": "block_655_trip_6_service_3",
      "trip_num": 6
    },
    {
      "delay": null,
      "departure_time": "12:23:00",
      "old": true,
      "stop_lat": 50.05148,
      "stop_lon": 19.941337,
      "stop_name": "Stradom",
      "stop_num": "01",
      "stop_sequence": 14,
      "stopping": false,
      "time": null,
      "trip_id": "block_655_trip_6_service_3",
      "trip_num": 6
    },
    {
      "delay": null,
      "departure_time": "12:26:00",
      "old": true,
      "stop_lat": 50.05731,
      "stop_lon": 19.94455,
      "stop_name": "Starowiślna",
      "stop_num": "01",
      "stop_sequence": 15,
      "stopping": false,
      "time": null,
      "trip_id": "block_655_trip_6_service_3",
      "trip_num": 6
    },
    {
      "delay": null,
      "departure_time": "12:27:00",
      "old": true,
      "stop_lat": 50.059205,
      "stop_lon": 19.942571,
      "stop_name": "Poczta Główna",
      "stop_num": "02",
      "stop_sequence": 16,
      "stopping": false,
      "time": null,
      "trip_id": "block_655_trip_6_service_3",
      "trip_num": 6
    },
    {
      "delay": null,
      "departure_time": "12:29:00",
      "old": true,
      "stop_lat": 50.064192,
      "stop_lon": 19.94499,
      "stop_name": "Teatr Słowackiego",
      "stop_num": "03",
      "stop_sequence": 17,
      "stopping": false,
      "time": null,
      "trip_id": "block_655_trip_6_service_3",
      "trip_num": 6
    },
    {
      "delay": null,
      "departure_time": "12:31:00",
      "old": true,
      "stop_lat": 50.065046,
      "stop_lon": 19.951094,
      "stop_name": "Lubicz",
      "stop_num": "02",
      "stop_sequence": 18,
      "stopping": false,
      "time": null,
      "trip_id": "block_655_trip_6_service_3",
      "trip_num": 6
    },
    {
      "delay": null,
      "departure_time": "12:33:00",
      "old": true,
      "stop_lat": 50.065759,
      "stop_lon": 19.959864,
      "stop_name": "Rondo Mogilskie",
      "stop_num": "02",
      "stop_sequence": 19,
      "stopping": false,
      "time": null,
      "trip_id": "block_655_trip_6_service_3",
      "trip_num": 6
    },
    {
      "delay": null,
      "departure_time": "12:34:00",
      "old": true,
      "stop_lat": 50.066523,
      "stop_lon": 19.970519,
      "stop_name": "Cystersów",
      "stop_num": "01",
      "stop_sequence": 20,
      "stopping": false,
      "time": null,
      "trip_id": "block_655_trip_6_service_3",
      "trip_num": 6
    },
    {
      "delay": null,
      "departure_time": "12:36:00",
      "old": true,
      "stop_lat": 50.067841,
      "stop_lon": 19.977991,
      "stop_name": "Białucha",
      "stop_num": "01",
      "stop_sequence": 21,
      "stopping": false,
      "time": null,
      "trip_id": "block_655_trip_6_service_3",
      "trip_num": 6
    },
    {
      "delay": null,
      "departure_time": "12:39:00",
      "old": true,
      "stop_lat": 50.07352,
      "stop_lon": 19.990472,
      "stop_name": "Muzeum Lotnictwa Polskiego",
      "stop_num": "01",
      "stop_sequence": 22,
      "stopping": false,
      "time": null,
      "trip_id": "block_655_trip_6_service_3",
      "trip_num": 6
    },
    {
      "delay": null,
      "departure_time": "12:40:00",
      "old": true,
      "stop_lat": 50.073967,
      "stop_lon": 19.99881,
      "stop_name": "AKF / PK",
      "stop_num": "01",
      "stop_sequence": 23,
      "stopping": false,
      "time": null,
      "trip_id": "block_655_trip_6_service_3",
      "trip_num": 6
    },
    {
      "delay": null,
      "departure_time": "12:41:00",
      "old": true,
      "stop_lat": 50.074273,
      "stop_lon": 20.004747,
      "stop_name": "Stella-Sawickiego",
      "stop_num": "01",
      "stop_sequence": 24,
      "stopping": false,
      "time": null,
      "trip_id": "block_655_trip_6_service_3",
      "trip_num": 6
    },
    {
      "delay": null,
      "departure_time": "12:42:00",
      "old": true,
      "stop_lat": 50.07399,
      "stop_lon": 20.011459,
      "stop_name": "Czyżyny",
      "stop_num": "01",
      "stop_sequence": 25,
      "stopping": false,
      "time": null,
      "trip_id": "block_655_trip_6_service_3",
      "trip_num": 6
    },
    {
      "delay": null,
      "departure_time": "12:45:00",
      "old": true,
      "stop_lat": 50.074193,
      "stop_lon": 20.018028,
      "stop_name": "Rondo Czyżyńskie",
      "stop_num": "03",
      "stop_sequence": 26,
      "stopping": false,
      "time": null,
      "trip_id": "block_655_trip_6_service_3",
      "trip_num": 6
    },
    {
      "delay": null,
      "departure_time": "12:46:00",
      "old": true,
      "stop_lat": 50.0757,
      "stop_lon": 20.02058,
      "stop_name": "Bieńczycka",
      "stop_num": "02",
      "stop_sequence": 27,
      "stopping": false,
      "time": null,
      "trip_id": "block_655_trip_6_service_3",
      "trip_num": 6
    },
    {
      "delay": null,
      "departure_time": "12:49:00",
      "old": true,
      "stop_lat": 50.080257,
      "stop_lon": 20.026561,
      "stop_name": "Rondo Kocmyrzowskie im. Ks. Gorzelanego",
      "stop_num": "01",
      "stop_sequence": 28,
      "stopping": false,
      "time": null,
      "trip_id": "block_655_trip_6_service_3",
      "trip_num": 6
    },
    {
      "delay": null,
      "departure_time": "12:50:00",
      "old": true,
      "stop_lat": 50.084477,
      "stop_lon": 20.020671,
      "stop_name": "DH Wanda",
      "stop_num": "01",
      "stop_sequence": 29,
      "stopping": false,
      "time": null,
      "trip_id": "block_655_trip_6_service_3",
      "trip_num": 6
    },
    {
      "delay": null,
      "departure_time": "12:52:00",
      "old": true,
      "stop_lat": 50.090025,
      "stop_lon": 20.021395,
      "stop_name": "Rondo Hipokratesa",
      "stop_num": "01",
      "stop_sequence": 30,
      "stopping": false,
      "time": null,
      "trip_id": "block_655_trip_6_service_3",
      "trip_num": 6
    },
    {
      "delay": null,
      "departure_time": "12:53:00",
      "old": true,
      "stop_lat": 50.092201,
      "stop_lon": 20.016038,
      "stop_name": "Dunikowskiego",
      "stop_num": "01",
      "stop_sequence": 31,
      "stopping": false,
      "time": null,
      "trip_id": "block_655_trip_6_service_3",
      "trip_num": 6
    },
    {
      "delay": null,
      "departure_time": "12:55:00",
      "old": true,
      "stop_lat": 50.095792,
      "stop_lon": 20.012713,
      "stop_name": "Kleeberga",
      "stop_num": "01",
      "stop_sequence": 32,
      "stopping": false,
      "time": null,
      "trip_id": "block_655_trip_6_service_3",
      "trip_num": 6
    },
    {
      "delay": null,
      "departure_time": "12:56:00",
      "old": true,
      "stop_lat": 50.097862,
      "stop_lon": 20.013018,
      "stop_name": "Piasta Kołodzieja",
      "stop_num": "01",
      "stop_sequence": 33,
      "stopping": false,
      "time": null,
      "trip_id": "block_655_trip_6_service_3",
      "trip_num": 6
    },
    {
      "delay": null,
      "departure_time": "12:58:00",
      "old": true,
      "stop_lat": 50.101977,
      "stop_lon": 20.012058,
      "stop_name": "Os. Piastów",
      "stop_num": "01",
      "stop_sequence": 34,
      "stopping": false,
      "time": null,
      "trip_id": "block_655_trip_6_service_3",
      "trip_num": 6
    },
    {
      "delay": null,
      "departure_time": "13:13:00",
      "old": true,
      "stop_lat": 50.101977,
      "stop_lon": 20.012058,
      "stop_name": "Os. Piastów",
      "stop_num": "01",
      "stop_sequence": 1,
      "stopping": false,
      "time": null,
      "trip_id": "block_655_trip_7_service_3",
      "trip_num": 7
    },
    {
      "delay": null,
      "departure_time": "13:14:00",
      "old": true,
      "stop_lat": 50.098526,
      "stop_lon": 20.013051,
      "stop_name": "Piasta Kołodzieja",
      "stop_num": "02",
      "stop_sequence": 2,
      "stopping": false,
      "time": null,
      "trip_id": "block_655_trip_7_service_3",
      "trip_num": 7
    },
    {
      "delay": null,
      "departure_time": "13:15:00",
      "old": true,
      "stop_lat": 50.095759,
      "stop_lon": 20.012638,
      "stop_name": "Kleeberga",
      "stop_num": "02",
      "stop_sequence": 3,
      "stopping": false,
      "time": null,
      "trip_id": "block_655_trip_7_service_3",
      "trip_num": 7
    },
    {
      "delay": null,
      "departure_time": "13:17:00",
      "old": true,
      "stop_lat": 50.092518,
      "stop_lon": 20.015491,
      "stop_name": "Dunikowskiego",
      "stop_num": "02",
      "stop_sequence": 4,
      "stopping": false,
      "time": null,
      "trip_id": "block_655_trip_7_service_3",
      "trip_num": 7
    },
    {
      "delay": null,
      "departure_time": "13:19:00",
      "old": true,
      "stop_lat": 50.090094,
      "stop_lon": 20.021355,
      "stop_name": "Rondo Hipokratesa",
      "stop_num": "02",
      "stop_sequence": 5,
      "stopping": false,
      "time": null,
      "trip_id": "block_655_trip_7_service_3",
      "trip_num": 7
    },
    {
      "delay": null,
      "departure_time": "13:20:00",
      "old": true,
      "stop_lat": 50.084432,
      "stop_lon": 20.020689,
      "stop_name": "DH Wanda",
      "stop_num": "02",
      "stop_sequence": 6,
      "stopping": false,
      "time": null,
      "trip_id": "block_655_trip_7_service_3",
      "trip_num": 7
    },
    {
      "delay": null,
      "departure_time": "13:23:00",
      "old": true,
      "stop_lat": 50.07905,
      "stop_lon": 20.026486,
      "stop_name": "Rondo Kocmyrzowskie im. Ks. Gorzelanego",
      "stop_num": "02",
      "stop_sequence": 7,
      "stopping": false,
      "time": null,
      "trip_id": "block_655_trip_7_service_3",
      "trip_num": 7
    },
    {
      "delay": null,
      "departure_time": "13:24:00",
      "old": true,
      "stop_lat": 50.075661,
      "stop_lon": 20.02044,
      "stop_name": "Bieńczycka",
      "stop_num": "01",
      "stop_sequence": 8,
      "stopping": false,
      "time": null,
      "trip_id": "block_655_trip_7_service_3",
      "trip_num": 7
    },
    {
      "delay": null,
      "departure_time": "13:27:00",
      "old": true,
      "stop_lat": 50.07358,
      "stop_lon": 20.01606,
      "stop_name": "Rondo Czyżyńskie",
      "stop_num": "02",
      "stop_sequence": 9,
      "stopping": false,
      "time": null,
      "trip_id": "block_655_trip_7_service_3",
      "trip_num": 7
    },
    {
      "delay": null,
      "departure_time": "13:28:00",
      "old": true,
      "stop_lat": 50.074038,
      "stop_lon": 20.011272,
      "stop_name": "Czyżyny",
      "stop_num": "02",
      "stop_sequence": 10,
      "stopping": false,
      "time": null,
      "trip_id": "block_655_trip_7_service_3",
      "trip_num": 7
    },
    {
      "delay": null,
      "departure_time": "13:29:00",
      "old": true,
      "stop_lat": 50.074302,
      "stop_lon": 20.00459,
      "stop_name": "Stella-Sawickiego",
      "stop_num": "02",
      "stop_sequence": 11,
      "stopping": false,
      "time": null,
      "trip_id": "block_655_trip_7_service_3",
      "trip_num": 7
    },
    {
      "delay": null,
      "departure_time": "13:30:00",
      "old": true,
      "stop_lat": 50.074015,
      "stop_lon": 19.998685,
      "stop_name": "AKF / PK",
      "stop_num": "02",
      "stop_sequence": 12,
      "stopping": false,
      "time": null,
      "trip_id": "block_655_trip_7_service_3",
      "trip_num": 7
    },
    {
      "delay": null,
      "departure_time": "13:31:00",
      "old": true,
      "stop_lat": 50.073539,
      "stop_lon": 19.990254,
      "stop_name": "Muzeum Lotnictwa Polskiego",
      "stop_num": "02",
      "stop_sequence": 13,
      "stopping": false,
      "time": null,
      "trip_id": "block_655_trip_7_service_3",
      "trip_num": 7
    },
    {
      "delay": null,
      "departure_time": "13:34:00",
      "old": true,
      "stop_lat": 50.067597,
      "stop_lon": 19.977192,
      "stop_name": "Białucha",
      "stop_num": "02",
      "stop_sequence": 14,
      "stopping": false,
      "time": null,
      "trip_id": "block_655_trip_7_service_3",
      "trip_num": 7
    },
    {
      "delay": null,
      "departure_time": "13:36:00",
      "old": true,
      "stop_lat": 50.06654,
      "stop_lon": 19.969149,
      "stop_name": "Cystersów",
      "stop_num": "02",
      "stop_sequence": 15,
      "stopping": false,
      "time": null,
      "trip_id": "block_655_trip_7_service_3",
      "trip_num": 7
    },
    {
      "delay": null,
      "departure_time": "13:38:00",
      "old": true,
      "stop_lat": 50.065782,
      "stop_lon": 19.959639,
      "stop_name": "Rondo Mogilskie",
      "stop_num": "01",
      "stop_sequence": 16,
      "stopping": false,
      "time": null,
      "trip_id": "block_655_trip_7_service_3",
      "trip_num": 7
    },
    {
      "delay": null,
      "departure_time": "13:40:00",
      "old": true,
      "stop_lat": 50.065186,
      "stop_lon": 19.952104,
      "stop_name": "Lubicz",
      "stop_num": "01",
      "stop_sequence": 17,
      "stopping": false,
      "time": null,
      "trip_id": "block_655_trip_7_service_3",
      "trip_num": 7
    },
    {
      "delay": null,
      "departure_time": "13:42:00",
      "old": true,
      "stop_lat": 50.064609,
      "stop_lon": 19.945628,
      "stop_name": "Teatr Słowackiego",
      "stop_num": "01",
      "stop_sequence": 18,
      "stopping": false,
      "time": null,
      "trip_id": "block_655_trip_7_service_3",
      "trip_num": 7
    },
    {
      "delay": null,
      "departure_time": "13:44:00",
      "old": true,
      "stop_lat": 50.059797,
      "stop_lon": 19.942404,
      "stop_name": "Poczta Główna",
      "stop_num": "01",
      "stop_sequence": 19,
      "stopping": false,
      "time": null,
      "trip_id": "block_655_trip_7_service_3",
      "trip_num": 7
    },
    {
      "delay": null,
      "departure_time": "13:46:00",
      "old": true,
      "stop_lat": 50.05689,
      "stop_lon": 19.945029,
      "stop_name": "Starowiślna",
      "stop_num": "02",
      "stop_sequence": 20,
      "stopping": false,
      "time": null,
      "trip_id": "block_655_trip_7_service_3",
      "trip_num": 7
    },
    {
      "delay": null,
      "departure_time": "13:48:00",
      "old": true,
      "stop_lat": 50.052258,
      "stop_lon": 19.942061,
      "stop_name": "Stradom",
      "stop_num": "03",
      "stop_sequence": 21,
      "stopping": false,
      "time": null,
      "trip_id": "block_655_trip_7_service_3",
      "trip_num": 7
    },
    {
      "delay": null,
      "departure_time": "13:49:00",
      "old": true,
      "stop_lat": 50.050631,
      "stop_lon": 19.938671,
      "stop_name": "Orzeszkowej",
      "stop_num": "01",
      "stop_sequence": 22,
      "stopping": false,
      "time": null,
      "trip_id": "block_655_trip_7_service_3",
      "trip_num": 7
    },
    {
      "delay": null,
      "departure_time": "13:52:00",
      "old": true,
      "stop_lat": 50.048567,
      "stop_lon": 19.930917,
      "stop_name": "Rondo Grunwaldzkie",
      "stop_num": "01",
      "stop_sequence": 23,
      "stopping": false,
      "time": null,
      "trip_id": "block_655_trip_7_service_3",
      "trip_num": 7
    },
    {
      "delay": null,
      "departure_time": "13:53:00",
      "old": true,
      "stop_lat": 50.046721,
      "stop_lon": 19.925299,
      "stop_name": "Szwedzka",
      "stop_num": "01",
      "stop_sequence": 24,
      "stopping": false,
      "time": null,
      "trip_id": "block_655_trip_7_service_3",
      "trip_num": 7
    },
    {
      "delay": null,
      "departure_time": "13:55:00",
      "old": true,
      "stop_lat": 50.044913,
      "stop_lon": 19.922059,
      "stop_name": "Kapelanka",
      "stop_num": "01",
      "stop_sequence": 25,
      "stopping": false,
      "time": null,
      "trip_id": "block_655_trip_7_service_3",
      "trip_num": 7
    },
    {
      "delay": null,
      "departure_time": "13:56:00",
      "old": true,
      "stop_lat": 50.041404,
      "stop_lon": 19.9241,
      "stop_name": "Słomiana",
      "stop_num": "01",
      "stop_sequence": 26,
      "stopping": false,
      "time": null,
      "trip_id": "block_655_trip_7_service_3",
      "trip_num": 7
    },
    {
      "delay": null,
      "departure_time": "13:58:00",
      "old": true,
      "stop_lat": 50.03444,
      "stop_lon": 19.925931,
      "stop_name": "Kobierzyńska",
      "stop_num": "01",
      "stop_sequence": 27,
      "stopping": false,
      "time": null,
      "trip_id": "block_655_trip_7_service_3",
      "trip_num": 7
    },
    {
      "delay": null,
      "departure_time": "14:00:00",
      "old": true,
      "stop_lat": 50.030792,
      "stop_lon": 19.924804,
      "stop_name": "Lipińskiego",
      "stop_num": "01",
      "stop_sequence": 28,
      "stopping": false,
      "time": null,
      "trip_id": "block_655_trip_7_service_3",
      "trip_num": 7
    },
    {
      "delay": null,
      "departure_time": "14:01:00",
      "old": true,
      "stop_lat": 50.031867,
      "stop_lon": 19.920212,
      "stop_name": "Grota-Roweckiego",
      "stop_num": "01",
      "stop_sequence": 29,
      "stopping": false,
      "time": null,
      "trip_id": "block_655_trip_7_service_3",
      "trip_num": 7
    },
    {
      "delay": null,
      "departure_time": "14:02:00",
      "old": true,
      "stop_lat": 50.029809,
      "stop_lon": 19.912225,
      "stop_name": "Norymberska",
      "stop_num": "01",
      "stop_sequence": 30,
      "stopping": false,
      "time": null,
      "trip_id": "block_655_trip_7_service_3",
      "trip_num": 7
    },
    {
      "delay": null,
      "departure_time": "14:04:00",
      "old": true,
      "stop_lat": 50.026932,
      "stop_lon": 19.905181,
      "stop_name": "Ruczaj",
      "stop_num": "01",
      "stop_sequence": 31,
      "stopping": false,
      "time": null,
      "trip_id": "block_655_trip_7_service_3",
      "trip_num": 7
    },
    {
      "delay": null,
      "departure_time": "14:05:00",
      "old": true,
      "stop_lat": 50.024044,
      "stop_lon": 19.901485,
      "stop_name": "Kampus UJ",
      "stop_num": "01",
      "stop_sequence": 32,
      "stopping": false,
      "time": null,
      "trip_id": "block_655_trip_7_service_3",
      "trip_num": 7
    },
    {
      "delay": null,
      "departure_time": "14:06:00",
      "old": true,
      "stop_lat": 50.020377,
      "stop_lon": 19.897505,
      "stop_name": "Kampus UP JP II",
      "stop_num": "02",
      "stop_sequence": 33,
      "stopping": false,
      "time": null,
      "trip_id": "block_655_trip_7_service_3",
      "trip_num": 7
    },
    {
      "delay": null,
      "departure_time": "14:08:00",
      "old": true,
      "stop_lat": 50.017986,
      "stop_lon": 19.889106,
      "stop_name": "Czerwone Maki P+R",
      "stop_num": "01",
      "stop_sequence": 34,
      "stopping": false,
      "time": null,
      "trip_id": "block_655_trip_7_service_3",
      "trip_num": 7
    },
    {
      "delay": null,
      "departure_time": "14:25:00",
      "old": true,
      "stop_lat": 50.017986,
      "stop_lon": 19.889106,
      "stop_name": "Czerwone Maki P+R",
      "stop_num": "01",
      "stop_sequence": 1,
      "stopping": false,
      "time": null,
      "trip_id": "block_655_trip_8_service_3",
      "trip_num": 8
    },
    {
      "delay": null,
      "departure_time": "14:26:00",
      "old": true,
      "stop_lat": 50.020825,
      "stop_lon": 19.898122,
      "stop_name": "Kampus UP JP II",
      "stop_num": "02",
      "stop_sequence": 2,
      "stopping": false,
      "time": null,
      "trip_id": "block_655_trip_8_service_3",
      "trip_num": 8
    },
    {
      "delay": null,
      "departure_time": "14:27:00",
      "old": true,
      "stop_lat": 50.024685,
      "stop_lon": 19.901995,
      "stop_name": "Kampus UJ",
      "stop_num": "02",
      "stop_sequence": 3,
      "stopping": false,
      "time": null,
      "trip_id": "block_655_trip_8_service_3",
      "trip_num": 8
    },
    {
      "delay": null,
      "departure_time": "14:28:00",
      "old": true,
      "stop_lat": 50.02729,
      "stop_lon": 19.906125,
      "stop_name": "Ruczaj",
      "stop_num": "02",
      "stop_sequence": 4,
      "stopping": false,
      "time": null,
      "trip_id": "block_655_trip_8_service_3",
      "trip_num": 8
    },
    {
      "delay": null,
      "departure_time": "14:29:00",
      "old": true,
      "stop_lat": 50.030129,
      "stop_lon": 19.913131,
      "stop_name": "Norymberska",
      "stop_num": "02",
      "stop_sequence": 5,
      "stopping": false,
      "time": null,
      "trip_id": "block_655_trip_8_service_3",
      "trip_num": 8
    },
    {
      "delay": null,
      "departure_time": "14:31:00",
      "old": true,
      "stop_lat": 50.031593,
      "stop_lon": 19.921162,
      "stop_name": "Grota-Roweckiego",
      "stop_num": "02",
      "stop_sequence": 6,
      "stopping": false,
      "time": null,
      "trip_id": "block_655_trip_8_service_3",
      "trip_num": 8
    },
    {
      "delay": null,
      "departure_time": "14:33:00",
      "old": true,
      "stop_lat": 50.030738,
      "stop_lon": 19.924874,
      "stop_name": "Lipińskiego",
      "stop_num": "02",
      "stop_sequence": 7,
      "stopping": false,
      "time": null,
      "trip_id": "block_655_trip_8_service_3",
      "trip_num": 8
    },
    {
      "delay": null,
      "departure_time": "14:34:00",
      "old": true,
      "stop_lat": 50.034593,
      "stop_lon": 19.925986,
      "stop_name": "Kobierzyńska",
      "stop_num": "02",
      "stop_sequence": 8,
      "stopping": false,
      "time": null,
      "trip_id": "block_655_trip_8_service_3",
      "trip_num": 8
    },
    {
      "delay": null,
      "departure_time": "14:36:00",
      "old": true,
      "stop_lat": 50.040825,
      "stop_lon": 19.924547,
      "stop_name": "Słomiana",
      "stop_num": "02",
      "stop_sequence": 9,
      "stopping": false,
      "time": null,
      "trip_id": "block_655_trip_8_service_3",
      "trip_num": 8
    },
    {
      "delay": null,
      "departure_time": "14:37:00",
      "old": true,
      "stop_lat": 50.045048,
      "stop_lon": 19.922048,
      "stop_name": "Kapelanka",
      "stop_num": "02",
      "stop_sequence": 10,
      "stopping": false,
      "time": null,
      "trip_id": "block_655_trip_8_service_3",
      "trip_num": 8
    },
    {
      "delay": null,
      "departure_time": "14:38:00",
      "old": true,
      "stop_lat": 50.046744,
      "stop_lon": 19.925484,
      "stop_name": "Szwedzka",
      "stop_num": "02",
      "stop_sequence": 11,
      "stopping": false,
      "time": null,
      "trip_id": "block_655_trip_8_service_3",
      "trip_num": 8
    },
    {
      "delay": null,
      "departure_time": "14:40:00",
      "old": true,
      "stop_lat": 50.048605,
      "stop_lon": 19.931155,
      "stop_name": "Rondo Grunwaldzkie",
      "stop_num": "02",
      "stop_sequence": 12,
      "stopping": false,
      "time": null,
      "trip_id": "block_655_trip_8_service_3",
      "trip_num": 8
    },
    {
      "delay": null,
      "departure_time": "14:41:00",
      "old": true,
      "stop_lat": 50.050546,
      "stop_lon": 19.938251,
      "stop_name": "Orzeszkowej",
      "stop_num": "02",
      "stop_sequence": 13,
      "stopping": false,
      "time": null,
      "trip_id": "block_655_trip_8_service_3",
      "trip_num": 8
    },
    {
      "delay": null,
      "departure_time": "14:43:00",
      "old": true,
      "stop_lat": 50.05148,
      "stop_lon": 19.941337,
      "stop_name": "Stradom",
      "stop_num": "01",
      "stop_sequence": 14,
      "stopping": false,
      "time": null,
      "trip_id": "block_655_trip_8_service_3",
      "trip_num": 8
    },
    {
      "delay": null,
      "departure_time": "14:46:00",
      "old": true,
      "stop_lat": 50.05731,
      "stop_lon": 19.94455,
      "stop_name": "Starowiślna",
      "stop_num": "01",
      "stop_sequence": 15,
      "stopping": false,
      "time": null,
      "trip_id": "block_655_trip_8_service_3",
      "trip_num": 8
    },
    {
      "delay": null,
      "departure_time": "14:47:00",
      "old": true,
      "stop_lat": 50.059205,
      "stop_lon": 19.942571,
      "stop_name": "Poczta Główna",
      "stop_num": "02",
      "stop_sequence": 16,
      "stopping": false,
      "time": null,
      "trip_id": "block_655_trip_8_service_3",
      "trip_num": 8
    },
    {
      "delay": null,
      "departure_time": "14:49:00",
      "old": true,
      "stop_lat": 50.064192,
      "stop_lon": 19.94499,
      "stop_name": "Teatr Słowackiego",
      "stop_num": "03",
      "stop_sequence": 17,
      "stopping": false,
      "time": null,
      "trip_id": "block_655_trip_8_service_3",
      "trip_num": 8
    },
    {
      "delay": null,
      "departure_time": "14:51:00",
      "old": true,
      "stop_lat": 50.065046,
      "stop_lon": 19.951094,
      "stop_name": "Lubicz",
      "stop_num": "02",
      "stop_sequence": 18,
      "stopping": false,
      "time": null,
      "trip_id": "block_655_trip_8_service_3",
      "trip_num": 8
    },
    {
      "delay": null,
      "departure_time": "14:53:00",
      "old": true,
      "stop_lat": 50.065759,
      "stop_lon": 19.959864,
      "stop_name": "Rondo Mogilskie",
      "stop_num": "02",
      "stop_sequence": 19,
      "stopping": false,
      "time": null,
      "trip_id": "block_655_trip_8_service_3",
      "trip_num": 8
    },
    {
      "delay": null,
      "departure_time": "14:54:00",
      "old": true,
      "stop_lat": 50.066523,
      "stop_lon": 19.970519,
      "stop_name": "Cystersów",
      "stop_num": "01",
      "stop_sequence": 20,
      "stopping": false,
      "time": null,
      "trip_id": "block_655_trip_8_service_3",
      "trip_num": 8
    },
    {
      "delay": null,
      "departure_time": "14:56:00",
      "old": true,
      "stop_lat": 50.067841,
      "stop_lon": 19.977991,
      "stop_name": "Białucha",
      "stop_num": "01",
      "stop_sequence": 21,
      "stopping": false,
      "time": null,
      "trip_id": "block_655_trip_8_service_3",
      "trip_num": 8
    },
    {
      "delay": null,
      "departure_time": "14:59:00",
      "old": true,
      "stop_lat": 50.07352,
      "stop_lon": 19.990472,
      "stop_name": "Muzeum Lotnictwa Polskiego",
      "stop_num": "01",
      "stop_sequence": 22,
      "stopping": false,
      "time": null,
      "trip_id": "block_655_trip_8_service_3",
      "trip_num": 8
    },
    {
      "delay": null,
      "departure_time": "15:00:00",
      "old": true,
      "stop_lat": 50.073967,
      "stop_lon": 19.99881,
      "stop_name": "AKF / PK",
      "stop_num": "01",
      "stop_sequence": 23,
      "stopping": false,
      "time": null,
      "trip_id": "block_655_trip_8_service_3",
      "trip_num": 8
    },
    {
      "delay": null,
      "departure_time": "15:01:00",
      "old": true,
      "stop_lat": 50.074273,
      "stop_lon": 20.004747,
      "stop_name": "Stella-Sawickiego",
      "stop_num": "01",
      "stop_sequence": 24,
      "stopping": false,
      "time": null,
      "trip_id": "block_655_trip_8_service_3",
      "trip_num": 8
    },
    {
      "delay": null,
      "departure_time": "15:02:00",
      "old": true,
      "stop_lat": 50.07399,
      "stop_lon": 20.011459,
      "stop_name": "Czyżyny",
      "stop_num": "01",
      "stop_sequence": 25,
      "stopping": false,
      "time": null,
      "trip_id": "block_655_trip_8_service_3",
      "trip_num": 8
    },
    {
      "delay": null,
      "departure_time": "15:05:00",
      "old": true,
      "stop_lat": 50.074193,
      "stop_lon": 20.018028,
      "stop_name": "Rondo Czyżyńskie",
      "stop_num": "03",
      "stop_sequence": 26,
      "stopping": false,
      "time": null,
      "trip_id": "block_655_trip_8_service_3",
      "trip_num": 8
    },
    {
      "delay": null,
      "departure_time": "15:06:00",
      "old": true,
      "stop_lat": 50.0757,
      "stop_lon": 20.02058,
      "stop_name": "Bieńczycka",
      "stop_num": "02",
      "stop_sequence": 27,
      "stopping": false,
      "time": null,
      "trip_id": "block_655_trip_8_service_3",
      "trip_num": 8
    },
    {
      "delay": null,
      "departure_time": "15:09:00",
      "old": true,
      "stop_lat": 50.080257,
      "stop_lon": 20.026561,
      "stop_name": "Rondo Kocmyrzowskie im. Ks. Gorzelanego",
      "stop_num": "01",
      "stop_sequence": 28,
      "stopping": false,
      "time": null,
      "trip_id": "block_655_trip_8_service_3",
      "trip_num": 8
    },
    {
      "delay": null,
      "departure_time": "15:10:00",
      "old": true,
      "stop_lat": 50.084477,
      "stop_lon": 20.020671,
      "stop_name": "DH Wanda",
      "stop_num": "01",
      "stop_sequence": 29,
      "stopping": false,
      "time": null,
      "trip_id": "block_655_trip_8_service_3",
      "trip_num": 8
    },
    {
      "delay": null,
      "departure_time": "15:12:00",
      "old": true,
      "stop_lat": 50.090025,
      "stop_lon": 20.021395,
      "stop_name": "Rondo Hipokratesa",
      "stop_num": "01",
      "stop_sequence": 30,
      "stopping": false,
      "time": null,
      "trip_id": "block_655_trip_8_service_3",
      "trip_num": 8
    },
    {
      "delay": null,
      "departure_time": "15:13:00",
      "old": true,
      "stop_lat": 50.092201,
      "stop_lon": 20.016038,
      "stop_name": "Dunikowskiego",
      "stop_num": "01",
      "stop_sequence": 31,
      "stopping": false,
      "time": null,
      "trip_id": "block_655_trip_8_service_3",
      "trip_num": 8
    },
    {
      "delay": null,
      "departure_time": "15:15:00",
      "old": true,
      "stop_lat": 50.095792,
      "stop_lon": 20.012713,
      "stop_name": "Kleeberga",
      "stop_num": "01",
      "stop_sequence": 32,
      "stopping": false,
      "time": null,
      "trip_id": "block_655_trip_8_service_3",
      "trip_num": 8
    },
    {
      "delay": null,
      "departure_time": "15:16:00",
      "old": true,
      "stop_lat": 50.097862,
      "stop_lon": 20.013018,
      "stop_name": "Piasta Kołodzieja",
      "stop_num": "01",
      "stop_sequence": 33,
      "stopping": false,
      "time": null,
      "trip_id": "block_655_trip_8_service_3",
      "trip_num": 8
    },
    {
      "delay": null,
      "departure_time": "15:18:00",
      "old": true,
      "stop_lat": 50.101977,
      "stop_lon": 20.012058,
      "stop_name": "Os. Piastów",
      "stop_num": "01",
      "stop_sequence": 34,
      "stopping": false,
      "time": null,
      "trip_id": "block_655_trip_8_service_3",
      "trip_num": 8
    },
    {
      "delay": null,
      "departure_time": "15:33:00",
      "old": true,
      "stop_lat": 50.101977,
      "stop_lon": 20.012058,
      "stop_name": "Os. Piastów",
      "stop_num": "01",
      "stop_sequence": 1,
      "stopping": false,
      "time": null,
      "trip_id": "block_655_trip_9_service_3",
      "trip_num": 9
    },
    {
      "delay": null,
      "departure_time": "15:34:00",
      "old": true,
      "stop_lat": 50.098526,
      "stop_lon": 20.013051,
      "stop_name": "Piasta Kołodzieja",
      "stop_num": "02",
      "stop_sequence": 2,
      "stopping": false,
      "time": null,
      "trip_id": "block_655_trip_9_service_3",
      "trip_num": 9
    },
    {
      "delay": null,
      "departure_time": "15:35:00",
      "old": true,
      "stop_lat": 50.095759,
      "stop_lon": 20.012638,
      "stop_name": "Kleeberga",
      "stop_num": "02",
      "stop_sequence": 3,
      "stopping": false,
      "time": null,
      "trip_id": "block_655_trip_9_service_3",
      "trip_num": 9
    },
    {
      "delay": null,
      "departure_time": "15:37:00",
      "old": true,
      "stop_lat": 50.092518,
      "stop_lon": 20.015491,
      "stop_name": "Dunikowskiego",
      "stop_num": "02",
      "stop_sequence": 4,
      "stopping": false,
      "time": null,
      "trip_id": "block_655_trip_9_service_3",
      "trip_num": 9
    },
    {
      "delay": null,
      "departure_time": "15:39:00",
      "old": true,
      "stop_lat": 50.090094,
      "stop_lon": 20.021355,
      "stop_name": "Rondo Hipokratesa",
      "stop_num": "02",
      "stop_sequence": 5,
      "stopping": false,
      "time": null,
      "trip_id": "block_655_trip_9_service_3",
      "trip_num": 9
    },
    {
      "delay": null,
      "departure_time": "15:40:00",
      "old": true,
      "stop_lat": 50.084432,
      "stop_lon": 20.020689,
      "stop_name": "DH Wanda",
      "stop_num": "02",
      "stop_sequence": 6,
      "stopping": false,
      "time": null,
      "trip_id": "block_655_trip_9_service_3",
      "trip_num": 9
    },
    {
      "delay": null,
      "departure_time": "15:43:00",
      "old": true,
      "stop_lat": 50.07905,
      "stop_lon": 20.026486,
      "stop_name": "Rondo Kocmyrzowskie im. Ks. Gorzelanego",
      "stop_num": "02",
      "stop_sequence": 7,
      "stopping": false,
      "time": null,
      "trip_id": "block_655_trip_9_service_3",
      "trip_num": 9
    },
    {
      "delay": null,
      "departure_time": "15:44:00",
      "old": true,
      "stop_lat": 50.075661,
      "stop_lon": 20.02044,
      "stop_name": "Bieńczycka",
      "stop_num": "01",
      "stop_sequence": 8,
      "stopping": false,
      "time": null,
      "trip_id": "block_655_trip_9_service_3",
      "trip_num": 9
    },
    {
      "delay": null,
      "departure_time": "15:47:00",
      "old": true,
      "stop_lat": 50.07358,
      "stop_lon": 20.01606,
      "stop_name": "Rondo Czyżyńskie",
      "stop_num": "02",
      "stop_sequence": 9,
      "stopping": false,
      "time": null,
      "trip_id": "block_655_trip_9_service_3",
      "trip_num": 9
    },
    {
      "delay": null,
      "departure_time": "15:48:00",
      "old": true,
      "stop_lat": 50.074038,
      "stop_lon": 20.011272,
      "stop_name": "Czyżyny",
      "stop_num": "02",
      "stop_sequence": 10,
      "stopping": false,
      "time": null,
      "trip_id": "block_655_trip_9_service_3",
      "trip_num": 9
    },
    {
      "delay": null,
      "departure_time": "15:49:00",
      "old": true,
      "stop_lat": 50.074302,
      "stop_lon": 20.00459,
      "stop_name": "Stella-Sawickiego",
      "stop_num": "02",
      "stop_sequence": 11,
      "stopping": false,
      "time": null,
      "trip_id": "block_655_trip_9_service_3",
      "trip_num": 9
    },
    {
      "delay": null,
      "departure_time": "15:50:00",
      "old": true,
      "stop_lat": 50.074015,
      "stop_lon": 19.998685,
      "stop_name": "AKF / PK",
      "stop_num": "02",
      "stop_sequence": 12,
      "stopping": false,
      "time": null,
      "trip_id": "block_655_trip_9_service_3",
      "trip_num": 9
    },
    {
      "delay": null,
      "departure_time": "15:51:00",
      "old": true,
      "stop_lat": 50.073539,
      "stop_lon": 19.990254,
      "stop_name": "Muzeum Lotnictwa Polskiego",
      "stop_num": "02",
      "stop_sequence": 13,
      "stopping": false,
      "time": null,
      "trip_id": "block_655_trip_9_service_3",
      "trip_num": 9
    },
    {
      "delay": null,
      "departure_time": "15:54:00",
      "old": true,
      "stop_lat": 50.067597,
      "stop_lon": 19.977192,
      "stop_name": "Białucha",
      "stop_num": "02",
      "stop_sequence": 14,
      "stopping": false,
      "time": null,
      "trip_id": "block_655_trip_9_service_3",
      "trip_num": 9
    },
    {
      "delay": null,
      "departure_time": "15:56:00",
      "old": true,
      "stop_lat": 50.06654,
      "stop_lon": 19.969149,
      "stop_name": "Cystersów",
      "stop_num": "02",
      "stop_sequence": 15,
      "stopping": false,
      "time": null,
      "trip_id": "block_655_trip_9_service_3",
      "trip_num": 9
    },
    {
      "delay": null,
      "departure_time": "15:58:00",
      "old": true,
      "stop_lat": 50.065782,
      "stop_lon": 19.959639,
      "stop_name": "Rondo Mogilskie",
      "stop_num": "01",
      "stop_sequence": 16,
      "stopping": false,
      "time": null,
      "trip_id": "block_655_trip_9_service_3",
      "trip_num": 9
    },
    {
      "delay": null,
      "departure_time": "16:00:00",
      "old": true,
      "stop_lat": 50.065186,
      "stop_lon": 19.952104,
      "stop_name": "Lubicz",
      "stop_num": "01",
      "stop_sequence": 17,
      "stopping": false,
      "time": null,
      "trip_id": "block_655_trip_9_service_3",
      "trip_num": 9
    },
    {
      "delay": null,
      "departure_time": "16:02:00",
      "old": true,
      "stop_lat": 50.064609,
      "stop_lon": 19.945628,
      "stop_name": "Teatr Słowackiego",
      "stop_num": "01",
      "stop_sequence": 18,
      "stopping": false,
      "time": null,
      "trip_id": "block_655_trip_9_service_3",
      "trip_num": 9
    },
    {
      "delay": null,
      "departure_time": "16:04:00",
      "old": true,
      "stop_lat": 50.059797,
      "stop_lon": 19.942404,
      "stop_name": "Poczta Główna",
      "stop_num": "01",
      "stop_sequence": 19,
      "stopping": false,
      "time": null,
      "trip_id": "block_655_trip_9_service_3",
      "trip_num": 9
    },
    {
      "delay": null,
      "departure_time": "16:06:00",
      "old": true,
      "stop_lat": 50.05689,
      "stop_lon": 19.945029,
      "stop_name": "Starowiślna",
      "stop_num": "02",
      "stop_sequence": 20,
      "stopping": false,
      "time": null,
      "trip_id": "block_655_trip_9_service_3",
      "trip_num": 9
    },
    {
      "delay": null,
      "departure_time": "16:08:00",
      "old": true,
      "stop_lat": 50.052258,
      "stop_lon": 19.942061,
      "stop_name": "Stradom",
      "stop_num": "03",
      "stop_sequence": 21,
      "stopping": false,
      "time": null,
      "trip_id": "block_655_trip_9_service_3",
      "trip_num": 9
    },
    {
      "delay": null,
      "departure_time": "16:09:00",
      "old": true,
      "stop_lat": 50.050631,
      "stop_lon": 19.938671,
      "stop_name": "Orzeszkowej",
      "stop_num": "01",
      "stop_sequence": 22,
      "stopping": false,
      "time": null,
      "trip_id": "block_655_trip_9_service_3",
      "trip_num": 9
    },
    {
      "delay": null,
      "departure_time": "16:12:00",
      "old": true,
      "stop_lat": 50.048567,
      "stop_lon": 19.930917,
      "stop_name": "Rondo Grunwaldzkie",
      "stop_num": "01",
      "stop_sequence": 23,
      "stopping": false,
      "time": null,
      "trip_id": "block_655_trip_9_service_3",
      "trip_num": 9
    },
    {
      "delay": null,
      "departure_time": "16:13:00",
      "old": true,
      "stop_lat": 50.046721,
      "stop_lon": 19.925299,
      "stop_name": "Szwedzka",
      "stop_num": "01",
      "stop_sequence": 24,
      "stopping": false,
      "time": null,
      "trip_id": "block_655_trip_9_service_3",
      "trip_num": 9
    },
    {
      "delay": null,
      "departure_time": "16:15:00",
      "old": true,
      "stop_lat": 50.044913,
      "stop_lon": 19.922059,
      "stop_name": "Kapelanka",
      "stop_num": "01",
      "stop_sequence": 25,
      "stopping": false,
      "time": null,
      "trip_id": "block_655_trip_9_service_3",
      "trip_num": 9
    },
    {
      "delay": null,
      "departure_time": "16:16:00",
      "old": true,
      "stop_lat": 50.041404,
      "stop_lon": 19.9241,
      "stop_name": "Słomiana",
      "stop_num": "01",
      "stop_sequence": 26,
      "stopping": false,
      "time": null,
      "trip_id": "block_655_trip_9_service_3",
      "trip_num": 9
    },
    {
      "delay": null,
      "departure_time": "16:18:00",
      "old": true,
      "stop_lat": 50.03444,
      "stop_lon": 19.925931,
      "stop_name": "Kobierzyńska",
      "stop_num": "01",
      "stop_sequence": 27,
      "stopping": false,
      "time": null,
      "trip_id": "block_655_trip_9_service_3",
      "trip_num": 9
    },
    {
      "delay": null,
      "departure_time": "16:20:00",
      "old": true,
      "stop_lat": 50.030792,
      "stop_lon": 19.924804,
      "stop_name": "Lipińskiego",
      "stop_num": "01",
      "stop_sequence": 28,
      "stopping": false,
      "time": null,
      "trip_id": "block_655_trip_9_service_3",
      "trip_num": 9
    },